{"type": "FeatureCollection", "features": [{"geometry": {"type": "Point", "coordinates": [-64.18965445684096, -31.414637452814794]}, "properties": {"establecim": "CENTRO EDUC.NIVEL MEDIO ADULTO", "overall_total": 91, "fake_id": "1-7", "seccion": "1", "circuito": "00001", "votos": {"217": 206, "512": 68, "47": 389, "191": 95, "9005": 0, "514": 2405, "9006": 5721, "3": 67, "9004": 26, "9003": 17, "9002": 3, "9001": 1658, "505": 156, "503": 225, "501": 315}, "direccion": "DEAN FUNES 417"}}, {"geometry": {"type": "Point", "coordinates": [-64.18654762070709, -31.41924332268387]}, "properties": {"establecim": "COL NAC DE MONSERRAT", "overall_total": 205, "fake_id": "20-36", "seccion": "1", "circuito": "00001", "votos": {"217": 526, "512": 183, "47": 991, "191": 231, "9005": 4, "514": 5834, "9006": 13896, "3": 150, "9004": 46, "9003": 31, "9002": 1, "9001": 4031, "505": 490, "503": 465, "501": 708}, "direccion": "OBISPO TREJO 294"}}, {"geometry": {"type": "Point", "coordinates": [-64.18878752908263, -31.417706629701698]}, "properties": {"establecim": "ESC NUESTRA SE\u00d1ORA DEL HUERTO", "overall_total": 130, "fake_id": "8-19", "seccion": "1", "circuito": "00001", "votos": {"217": 386, "512": 101, "47": 677, "191": 176, "9005": 1, "514": 4120, "9006": 9762, "3": 108, "9004": 34, "9003": 23, "9002": 0, "9001": 2821, "505": 325, "503": 338, "501": 522}, "direccion": "BELGRANO 269"}}, {"geometry": {"type": "Point", "coordinates": [-64.18605993516664, -31.41749050655053]}, "properties": {"establecim": "ESC SANTA TERESA DE JESUS", "overall_total": 109, "fake_id": "37-46", "seccion": "1", "circuito": "00001", "votos": {"217": 297, "512": 110, "47": 612, "191": 166, "9005": 1, "514": 3419, "9006": 8091, "3": 88, "9004": 22, "9003": 17, "9002": 0, "9001": 2336, "505": 233, "503": 292, "501": 389}, "direccion": "OBISPO TREJO Y SANABRIA 160"}}, {"geometry": {"type": "Point", "coordinates": [-64.18425888268992, -31.40965228497393]}, "properties": {"establecim": "ESC JUAN BAUTISTA ALBERDI", "overall_total": 213, "fake_id": "47-63", "seccion": "1", "circuito": "00002", "votos": {"217": 529, "512": 177, "47": 879, "191": 182, "9005": 1, "514": 5510, "9006": 12761, "3": 121, "9004": 56, "9003": 34, "9002": 0, "9001": 3507, "505": 476, "503": 495, "501": 581}, "direccion": "GRAL PAZ 486"}}, {"geometry": {"type": "Point", "coordinates": [-64.1915263841937, -31.40994151153461]}, "properties": {"establecim": "ESC JERONIMO LUIS DE CABRERA", "overall_total": 191, "fake_id": "64-78", "seccion": "1", "circuito": "00003", "votos": {"217": 524, "512": 183, "47": 800, "191": 171, "9005": 7, "514": 5144, "9006": 12166, "3": 155, "9004": 36, "9003": 24, "9002": 0, "9001": 3512, "505": 326, "503": 507, "501": 586}, "direccion": "SANTA ROSA 650"}}, {"geometry": {"type": "Point", "coordinates": [-64.20015002427739, -31.40785429028379]}, "properties": {"establecim": "ESC MARIANO MORENO", "overall_total": 205, "fake_id": "108-121", "seccion": "1", "circuito": "00003", "votos": {"217": 515, "512": 180, "47": 841, "191": 168, "9005": 0, "514": 4789, "9006": 11844, "3": 135, "9004": 48, "9003": 23, "9002": 0, "9001": 3529, "505": 368, "503": 524, "501": 519}, "direccion": "SANTA ROSA ESQ SANTA FE"}}, {"geometry": {"type": "Point", "coordinates": [-64.19592911444836, -31.410174141520788]}, "properties": {"establecim": "ESC NORMAL ALEJANDRO CARBO", "overall_total": 124, "fake_id": "98-107", "seccion": "1", "circuito": "00003", "votos": {"217": 345, "512": 137, "47": 581, "191": 114, "9005": 2, "514": 3436, "9006": 7751, "3": 106, "9004": 26, "9003": 13, "9002": 0, "9001": 1790, "505": 296, "503": 352, "501": 429}, "direccion": "AV COLON 951"}}, {"geometry": {"type": "Point", "coordinates": [-64.195136178957, -31.415652251109837]}, "properties": {"establecim": "ESC SANTO TOMAS", "overall_total": 89, "fake_id": "90-97", "seccion": "1", "circuito": "00003", "votos": {"217": 287, "512": 88, "47": 439, "191": 124, "9005": 0, "514": 2745, "9006": 6685, "3": 74, "9004": 26, "9003": 7, "9002": 0, "9001": 1966, "505": 195, "503": 294, "501": 351}, "direccion": "CASEROS 745"}}, {"geometry": {"type": "Point", "coordinates": [-64.1953629962598, -31.412716804807275]}, "properties": {"establecim": "IPEM N\u00b0 270 GRAL M BELGRANO", "overall_total": 131, "fake_id": "79-89", "seccion": "1", "circuito": "00003", "votos": {"217": 418, "512": 142, "47": 618, "191": 144, "9005": 1, "514": 3772, "9006": 9306, "3": 130, "9004": 40, "9003": 15, "9002": 0, "9001": 2767, "505": 254, "503": 423, "501": 451}, "direccion": "DEAN FUNES 850"}}, {"geometry": {"type": "Point", "coordinates": [-64.18957594273405, -31.43137799556613]}, "properties": {"establecim": "COL NACIONAL DEAN FUNES", "overall_total": 149, "fake_id": "132-147", "seccion": "1", "circuito": "00004", "votos": {"217": 506, "512": 157, "47": 990, "191": 232, "9005": 4, "514": 5443, "9006": 13276, "3": 187, "9004": 40, "9003": 34, "9002": 1, "9001": 3928, "505": 414, "503": 415, "501": 776}, "direccion": "PERU 10"}}, {"geometry": {"type": "Point", "coordinates": [-64.18318007228939, -31.42288014218106]}, "properties": {"establecim": "ENET N\u00b0 3 LEOPOLDO LUGONES", "overall_total": 94, "fake_id": "122-131", "seccion": "1", "circuito": "00004", "votos": {"217": 326, "512": 84, "47": 618, "191": 173, "9005": 1, "514": 3409, "9006": 8372, "3": 116, "9004": 19, "9003": 19, "9002": 0, "9001": 2481, "505": 243, "503": 292, "501": 497}, "direccion": "ITUZAINGO 483"}}, {"geometry": {"type": "Point", "coordinates": [-64.1870740199476, -31.43491156600912]}, "properties": {"establecim": "FAC DE CIENCIAS ECONOMICAS", "overall_total": 141, "fake_id": "157-172", "seccion": "1", "circuito": "00004", "votos": {"217": 544, "512": 130, "47": 935, "191": 225, "9005": 0, "514": 5102, "9006": 12608, "3": 167, "9004": 39, "9003": 18, "9002": 0, "9001": 3753, "505": 377, "503": 421, "501": 756}, "direccion": "AV VALPARAISO CDAD  UNIVERSITARIA"}}, {"geometry": {"type": "Point", "coordinates": [-64.1795569361378, -31.434036221310095]}, "properties": {"establecim": "IPEM 38 FRANC. PABLO DE MAURO", "overall_total": 69, "fake_id": "173-179", "seccion": "1", "circuito": "00004", "votos": {"217": 270, "512": 73, "47": 430, "191": 90, "9005": 0, "514": 2385, "9006": 5822, "3": 64, "9004": 12, "9003": 13, "9002": 0, "9001": 1717, "505": 166, "503": 207, "501": 326}, "direccion": "PAUNERO Y ARENAL"}}, {"geometry": {"type": "Point", "coordinates": [-64.12212852490464, -31.42555804359468]}, "properties": {"establecim": "ESC ESPA\u00d1A", "overall_total": 354, "fake_id": "303-317", "seccion": "1", "circuito": "00005", "votos": {"217": 532, "512": 257, "47": 711, "191": 144, "9005": 2, "514": 5058, "9006": 12678, "3": 128, "9004": 90, "9003": 35, "9002": 1, "9001": 3681, "505": 551, "503": 511, "501": 623}, "direccion": "M BRAVO Y ENTRE RIOS"}}, {"geometry": {"type": "Point", "coordinates": [-64.13253261580496, -31.42376675462337]}, "properties": {"establecim": "ESC ESTANISLAO DEL CAMPO", "overall_total": 108, "fake_id": "326-331", "seccion": "1", "circuito": "00005", "votos": {"217": 194, "512": 84, "47": 219, "191": 46, "9005": 0, "514": 1683, "9006": 4126, "3": 38, "9004": 27, "9003": 19, "9002": 0, "9001": 1091, "505": 196, "503": 191, "501": 230}, "direccion": "ESTADOS UNIDOS Y RIO 1\u00b0  B\u00b0ALTAMIRA"}}, {"geometry": {"type": "Point", "coordinates": [-64.14139504484925, -31.42504666352551]}, "properties": {"establecim": "ESC M FRAGUEIRO", "overall_total": 200, "fake_id": "332-342", "seccion": "1", "circuito": "00005", "votos": {"217": 331, "512": 169, "47": 492, "191": 96, "9005": 7, "514": 3362, "9006": 8520, "3": 96, "9004": 54, "9003": 28, "9002": 0, "9001": 2578, "505": 362, "503": 333, "501": 412}, "direccion": "ENTRE RIOS 3373 B\u00b0PQUE SAN  VICENTE"}}, {"geometry": {"type": "Point", "coordinates": [-64.12537117308861, -31.421739258667873]}, "properties": {"establecim": "ESC PANAMERICANA", "overall_total": 158, "fake_id": "318-325", "seccion": "1", "circuito": "00005", "votos": {"217": 268, "512": 125, "47": 409, "191": 66, "9005": 0, "514": 2702, "9006": 6876, "3": 58, "9004": 44, "9003": 24, "9002": 0, "9001": 2087, "505": 292, "503": 269, "501": 374}, "direccion": "SOTO 919 - B\u00b0ACOST"}}, {"geometry": {"type": "Point", "coordinates": [-64.15753616999253, -31.410499244959233]}, "properties": {"establecim": "COL SAN RAMON NONATO", "overall_total": 129, "fake_id": "544-550", "seccion": "1", "circuito": "00006", "votos": {"217": 187, "512": 100, "47": 357, "191": 60, "9005": 0, "514": 2342, "9006": 5637, "3": 55, "9004": 14, "9003": 19, "9002": 0, "9001": 1516, "505": 312, "503": 264, "501": 282}, "direccion": "AVDA PATRIA 282 B\u00b0ALTO GRAL  PA"}}, {"geometry": {"type": "Point", "coordinates": [-64.15657835123535, -31.405139739482667]}, "properties": {"establecim": "ESC TENIENTE GRAL ARAMBURU", "overall_total": 149, "fake_id": "535-543", "seccion": "1", "circuito": "00006", "votos": {"217": 245, "512": 102, "47": 468, "191": 85, "9005": 0, "514": 3012, "9006": 7515, "3": 64, "9004": 39, "9003": 14, "9002": 0, "9001": 2251, "505": 444, "503": 309, "501": 333}, "direccion": "GARIBALDI 710 B\u00b0ALTO GRAL  PAZ"}}, {"geometry": {"type": "Point", "coordinates": [-64.20815409770461, -31.329341493790572]}, "properties": {"establecim": "ESC J FUNES DE BONET", "overall_total": 15, "fake_id": "636-636", "seccion": "1", "circuito": "00007", "votos": {"217": 18, "512": 4, "47": 29, "191": 6, "9005": 0, "514": 261, "9006": 421, "3": 2, "9004": 2, "9003": 4, "9002": 0, "9001": 0, "505": 48, "503": 11, "501": 21}, "direccion": "CNO PAJAS BLANCAS KM 8"}}, {"geometry": {"type": "Point", "coordinates": [-64.12283223837667, -31.3885796906014]}, "properties": {"establecim": "ESC RABINDRANAT TAGORE", "overall_total": 47, "fake_id": "853-854", "seccion": "1", "circuito": "00008", "votos": {"217": 90, "512": 19, "47": 55, "191": 10, "9005": 0, "514": 599, "9006": 1527, "3": 13, "9004": 14, "9003": 11, "9002": 0, "9001": 464, "505": 96, "503": 52, "501": 57}, "direccion": "OCARINA 1613 - B\u00b0 V CLAUDINA"}}, {"geometry": {"type": "Point", "coordinates": [-64.21732530270218, -31.391325904935027]}, "properties": {"establecim": "ESC PROVINCIA DE CORRIENTES", "overall_total": 90, "fake_id": "948-955", "seccion": "1", "circuito": "00009", "votos": {"217": 275, "512": 97, "47": 535, "191": 134, "9005": 0, "514": 2703, "9006": 7005, "3": 88, "9004": 16, "9003": 11, "9002": 0, "9001": 2151, "505": 202, "503": 294, "501": 409}, "direccion": "DOMINGO ZIPOLI 1358  B\u00b0ESCOBA"}}, {"geometry": {"type": "Point", "coordinates": [-64.2291891622113, -31.390403820385394]}, "properties": {"establecim": "INST ESCUTI", "overall_total": 119, "fake_id": "956-965", "seccion": "1", "circuito": "00009", "votos": {"217": 345, "512": 125, "47": 621, "191": 197, "9005": 1, "514": 3380, "9006": 8574, "3": 92, "9004": 33, "9003": 24, "9002": 5, "9001": 2594, "505": 236, "503": 318, "501": 484}, "direccion": "NAZARET 3399 - B\u00b0 LAS ROSAS"}}, {"geometry": {"type": "Point", "coordinates": [-64.19305259575171, -31.43293241015269]}, "properties": {"establecim": "E.N.E.T. N\u00b01 DR A SABATTINI", "overall_total": 208, "fake_id": "1182-1191", "seccion": "1", "circuito": "00010", "votos": {"217": 368, "512": 124, "47": 447, "191": 100, "9005": 2, "514": 3443, "9006": 8382, "3": 90, "9004": 57, "9003": 24, "9002": 0, "9001": 2470, "505": 360, "503": 285, "501": 404}, "direccion": "AV VELEZ SARSFIELD 1490  B\u00b0G\u00dcEMES"}}, {"geometry": {"type": "Point", "coordinates": [-64.20590288418221, -31.443674253885483]}, "properties": {"establecim": "ESC MANUEL BELGRANO", "overall_total": 163, "fake_id": "1192-1200", "seccion": "1", "circuito": "00010", "votos": {"217": 320, "512": 136, "47": 404, "191": 111, "9005": 2, "514": 3091, "9006": 7625, "3": 100, "9004": 50, "9003": 29, "9002": 0, "9001": 2267, "505": 311, "503": 295, "501": 346}, "direccion": "SUECIA 2832 B\u00b0 PQUE VELEZ  SARSFIELD"}}, {"geometry": {"type": "Point", "coordinates": [-64.19105462666457, -31.427121013199493]}, "properties": {"establecim": "ESC ROQUE SAENZ PE\u00d1A", "overall_total": 307, "fake_id": "1150-1163", "seccion": "1", "circuito": "00010", "votos": {"217": 528, "512": 172, "47": 647, "191": 128, "9005": 0, "514": 4812, "9006": 11407, "3": 166, "9004": 77, "9003": 34, "9002": 2, "9001": 3051, "505": 506, "503": 396, "501": 581}, "direccion": "AV VELEZ SARSFIELD 1000  B\u00b0G\u00dcEMES"}}, {"geometry": {"type": "Point", "coordinates": [-64.19591203851452, -31.43806775270899]}, "properties": {"establecim": "INST EDUCACION CORDOBA", "overall_total": 361, "fake_id": "1164-1181", "seccion": "1", "circuito": "00010", "votos": {"217": 695, "512": 245, "47": 849, "191": 197, "9005": 0, "514": 6186, "9006": 15240, "3": 165, "9004": 109, "9003": 34, "9002": 5, "9001": 4524, "505": 624, "503": 562, "501": 684}, "direccion": "FERREYRA Y FRIULI B\u00b0COL DE V  SARSF"}}, {"geometry": {"type": "Point", "coordinates": [-64.2716764602773, -31.430690718582415]}, "properties": {"establecim": "ESC ISABEL LA CATOLICA", "overall_total": 391, "fake_id": "1595-1606", "seccion": "1", "circuito": "00011", "votos": {"217": 528, "512": 150, "47": 480, "191": 83, "9005": 0, "514": 4126, "9006": 10272, "3": 123, "9004": 93, "9003": 35, "9002": 11, "9001": 2986, "505": 518, "503": 279, "501": 469}, "direccion": "SUBOF OTANO S/N\u00b0 B\u00b0  AERONAUTICO"}}, {"geometry": {"type": "Point", "coordinates": [-64.10940010876914, -31.454222907484255]}, "properties": {"establecim": "ESC CONSTANCIO C VIGIL", "overall_total": 220, "fake_id": "2047-2054", "seccion": "1", "circuito": "00012", "votos": {"217": 270, "512": 122, "47": 392, "191": 56, "9005": 0, "514": 2672, "9006": 6700, "3": 64, "9004": 51, "9003": 28, "9002": 67, "9001": 1839, "505": 342, "503": 239, "501": 338}, "direccion": "J.LLERENA 5561 - B\u00b0 SAN  LORENZO"}}, {"geometry": {"type": "Point", "coordinates": [-64.10414962016885, -31.463003995672704]}, "properties": {"establecim": "ESC JUAN XXIII", "overall_total": 249, "fake_id": "2035-2046", "seccion": "1", "circuito": "00012", "votos": {"217": 337, "512": 166, "47": 514, "191": 70, "9005": 1, "514": 3344, "9006": 8658, "3": 102, "9004": 63, "9003": 20, "9002": 0, "9001": 2657, "505": 462, "503": 260, "501": 413}, "direccion": "BENAVIDEZ Y CANESA - B\u00b0N  AVELLANEDA"}}, {"geometry": {"type": "Point", "coordinates": [-64.09829101717945, -31.4619965760198]}, "properties": {"establecim": "ESC MUNIC OSCAR SOTO LOPEZ", "overall_total": 129, "fake_id": "2055-2059", "seccion": "1", "circuito": "00012", "votos": {"217": 172, "512": 65, "47": 243, "191": 40, "9005": 1, "514": 1669, "9006": 4285, "3": 46, "9004": 27, "9003": 10, "9002": 0, "9001": 1307, "505": 212, "503": 155, "501": 209}, "direccion": "LOS ALGARROBOS/ESPINILLOS"}}, {"geometry": {"type": "Point", "coordinates": [-64.15032482481784, -31.391752169611784]}, "properties": {"establecim": "ESC ARISTOBULO DEL VALLE", "overall_total": 177, "fake_id": "2367-2376", "seccion": "1", "circuito": "00013", "votos": {"217": 294, "512": 138, "47": 540, "191": 109, "9005": 0, "514": 3394, "9006": 7148, "3": 73, "9004": 45, "9003": 18, "9002": 0, "9001": 1245, "505": 380, "503": 291, "501": 444}, "direccion": "M DE JAUREGUI 1657 B\u00b0L N  ALEM"}}, {"geometry": {"type": "Point", "coordinates": [-64.16039068708845, -31.390922688943746]}, "properties": {"establecim": "ESC ASOCIACION DE MAYO", "overall_total": 127, "fake_id": "2377-2382", "seccion": "1", "circuito": "00013", "votos": {"217": 189, "512": 83, "47": 316, "191": 69, "9005": 0, "514": 2035, "9006": 5151, "3": 46, "9004": 34, "9003": 8, "9002": 0, "9001": 1558, "505": 242, "503": 178, "501": 266}, "direccion": "COLOMPREA 1500 B\u00b0 ALEM"}}, {"geometry": {"type": "Point", "coordinates": [-64.57285640000002, -32.1751529]}, "properties": {"establecim": "ESC PROV D VELEZ SARFIELD", "overall_total": 3, "fake_id": "3085-3085", "seccion": "2", "circuito": "00015", "votos": {"217": 28, "512": 6, "47": 52, "191": 2, "9005": 0, "514": 253, "9006": 661, "3": 0, "9004": 4, "9003": 2, "9002": 0, "9001": 204, "505": 99, "503": 3, "501": 5}, "direccion": "AYLLU 0"}}, {"geometry": {"type": "Point", "coordinates": [-64.37723139999996, -32.24741809999996]}, "properties": {"establecim": "ESC PROV. M.BELGRANO", "overall_total": 2, "fake_id": "3088-3088", "seccion": "2", "circuito": "00016", "votos": {"217": 14, "512": 3, "47": 11, "191": 1, "9005": 0, "514": 131, "9006": 307, "3": 0, "9004": 0, "9003": 2, "9002": 2, "9001": 87, "505": 42, "503": 2, "501": 10}, "direccion": "PUBLICA S/N"}}, {"geometry": {"type": "Point", "coordinates": [-64.39894978736413, -32.21479858617304]}, "properties": {"establecim": "ESCUELA B. ROLDAN", "overall_total": 54, "fake_id": "3092-3101", "seccion": "2", "circuito": "00017", "votos": {"217": 400, "512": 83, "47": 426, "191": 47, "9005": 0, "514": 3317, "9006": 8519, "3": 44, "9004": 66, "9003": 21, "9002": 0, "9001": 2604, "505": 1072, "503": 156, "501": 229}, "direccion": "TUCUMAN 121"}}, {"geometry": {"type": "Point", "coordinates": [-64.42026029600852, -32.213740082102206]}, "properties": {"establecim": "ESCUELA R. OBLIGADO", "overall_total": 76, "fake_id": "3102-3111", "seccion": "2", "circuito": "00017", "votos": {"217": 425, "512": 77, "47": 383, "191": 63, "9005": 0, "514": 3324, "9006": 8388, "3": 28, "9004": 59, "9003": 29, "9002": 0, "9001": 2403, "505": 1133, "503": 155, "501": 233}, "direccion": "CAMINO A HOTELES DE U.T.E.  PUBLICA 0"}}, {"geometry": {"type": "Point", "coordinates": [-64.48340059999997, -32.30300539999998]}, "properties": {"establecim": "ESC PROV DOMINGO F SARMIENTO", "overall_total": 6, "fake_id": "3112-3114", "seccion": "2", "circuito": "00018", "votos": {"217": 28, "512": 8, "47": 268, "191": 9, "9005": 0, "514": 877, "9006": 2287, "3": 8, "9004": 12, "9003": 9, "9002": 0, "9001": 705, "505": 313, "503": 11, "501": 33}, "direccion": "SARMIENTO 376"}}, {"geometry": {"type": "Point", "coordinates": [-64.48321562413902, -32.30215400138417]}, "properties": {"establecim": "INST DR D VELEZ SARSFIELD", "overall_total": 6, "fake_id": "3115-3116", "seccion": "2", "circuito": "00018", "votos": {"217": 15, "512": 3, "47": 164, "191": 4, "9005": 0, "514": 582, "9006": 1506, "3": 2, "9004": 2, "9003": 3, "9002": 0, "9001": 462, "505": 232, "503": 10, "501": 21}, "direccion": "SARMIENTO 236"}}, {"geometry": {"type": "Point", "coordinates": [-64.75644109699995, -32.095461360399995]}, "properties": {"establecim": "ESC. PROV. FRENCH Y BERUTTI", "overall_total": 22, "fake_id": "3121-3125", "seccion": "2", "circuito": "00019", "votos": {"217": 67, "512": 14, "47": 424, "191": 24, "9005": 0, "514": 1703, "9006": 4130, "3": 5, "9004": 23, "9003": 23, "9002": 0, "9001": 1072, "505": 612, "503": 38, "501": 103}, "direccion": "LOS CONDORES"}}, {"geometry": {"type": "Point", "coordinates": [-64.57588339829994, -31.91989306539999]}, "properties": {"establecim": "ESC PROV PEDRO B PALACIOS", "overall_total": 15, "fake_id": "3129-3131", "seccion": "2", "circuito": "00020", "votos": {"217": 355, "512": 14, "47": 177, "191": 22, "9005": 0, "514": 1031, "9006": 2424, "3": 11, "9004": 13, "9003": 7, "9002": 0, "9001": 555, "505": 97, "503": 43, "501": 84}, "direccion": "MANUEL BELGRANO S/N"}}, {"geometry": {"type": "Point", "coordinates": [-64.33136159999995, -32.0944427]}, "properties": {"establecim": "ESC. DR. JUAN M. ALBARENQUE", "overall_total": 1, "fake_id": "3154-3154", "seccion": "2", "circuito": "00021", "votos": {"217": 9, "512": 3, "47": 144, "191": 9, "9005": 0, "514": 286, "9006": 724, "3": 2, "9004": 0, "9003": 5, "9002": 0, "9001": 219, "505": 33, "503": 4, "501": 9}, "direccion": "PUBLICA 0"}}, {"geometry": {"type": "Point", "coordinates": [-64.5906076622, -32.5293922822]}, "properties": {"establecim": "ESC. PROV. D.F. SARMIENTO", "overall_total": 11, "fake_id": "3155-3158", "seccion": "2", "circuito": "00022", "votos": {"217": 52, "512": 9, "47": 407, "191": 17, "9005": 0, "514": 1062, "9006": 2728, "3": 4, "9004": 13, "9003": 10, "9002": 0, "9001": 833, "505": 240, "503": 20, "501": 50}, "direccion": "SARMIENTO 0"}}, {"geometry": {"type": "Point", "coordinates": [-64.75612589450002, -32.0952685676]}, "properties": {"establecim": "ESC.PROV. FRENCH Y BERUTTI", "overall_total": 7, "fake_id": "3159-3161", "seccion": "2", "circuito": "00023", "votos": {"217": 451, "512": 10, "47": 81, "191": 16, "9005": 0, "514": 1028, "9006": 2670, "3": 8, "9004": 12, "9003": 10, "9002": 0, "9001": 821, "505": 168, "503": 25, "501": 33}, "direccion": "CORDOBA 0"}}, {"geometry": {"type": "Point", "coordinates": [-64.480212, -32.186157499999986]}, "properties": {"establecim": "ESC PROV PRIMERA JUNTA", "overall_total": 34, "fake_id": "3162-3168", "seccion": "2", "circuito": "00024", "votos": {"217": 235, "512": 28, "47": 251, "191": 28, "9005": 1, "514": 1872, "9006": 4720, "3": 16, "9004": 36, "9003": 16, "9002": 0, "9001": 1424, "505": 555, "503": 63, "501": 161}, "direccion": "AMADEO SABATTINI 143"}}, {"geometry": {"type": "Point", "coordinates": [-64.37451966126167, -31.972506243580565]}, "properties": {"establecim": "COLEGIO SAN JOSE", "overall_total": 20, "fake_id": "3183-3186", "seccion": "2", "circuito": "00025", "votos": {"217": 33, "512": 11, "47": 329, "191": 19, "9005": 0, "514": 1295, "9006": 3415, "3": 13, "9004": 7, "9003": 25, "9002": 0, "9001": 1050, "505": 531, "503": 18, "501": 64}, "direccion": "SAN AGUSTIN"}}, {"geometry": {"type": "Point", "coordinates": [-64.37760192328378, -31.976113141009677]}, "properties": {"establecim": "ESC. PROV.GRAL. SAN MARTIN", "overall_total": 26, "fake_id": "3178-3182", "seccion": "2", "circuito": "00025", "votos": {"217": 52, "512": 26, "47": 432, "191": 21, "9005": 0, "514": 1620, "9006": 4280, "3": 27, "9004": 0, "9003": 32, "9002": 0, "9001": 1322, "505": 637, "503": 18, "501": 67}, "direccion": "SAN AGUSTIN"}}, {"geometry": {"type": "Point", "coordinates": [-64.48321562413902, -32.30215400138417]}, "properties": {"establecim": "COLEGIO NAC. DR.D.V. SARSFIELD", "overall_total": 33, "fake_id": "3207-3218", "seccion": "2", "circuito": "00026", "votos": {"217": 831, "512": 42, "47": 464, "191": 66, "9005": 0, "514": 3393, "9006": 7885, "3": 25, "9004": 36, "9003": 33, "9002": 0, "9001": 1850, "505": 740, "503": 116, "501": 256}, "direccion": "SANTA ROSA"}}, {"geometry": {"type": "Point", "coordinates": [-64.53870519417471, -32.0669002523095]}, "properties": {"establecim": "PRIM-EL MUNDO DE LOS CHICOS", "overall_total": 23, "fake_id": "3189-3194", "seccion": "2", "circuito": "00026", "votos": {"217": 448, "512": 26, "47": 298, "191": 39, "9005": 0, "514": 2040, "9006": 5148, "3": 16, "9004": 31, "9003": 17, "9002": 0, "9001": 1554, "505": 455, "503": 66, "501": 135}, "direccion": "GUEMES 162"}}, {"geometry": {"type": "Point", "coordinates": [-64.26760919999995, -31.008296599999966]}, "properties": {"establecim": "ESCUELA DR. PABLO RUEDA", "overall_total": 51, "fake_id": "3223-3230", "seccion": "3", "circuito": "00027", "votos": {"217": 289, "512": 36, "47": 404, "191": 69, "9005": 1, "514": 2719, "9006": 6979, "3": 35, "9004": 35, "9003": 30, "9002": 0, "9001": 2130, "505": 564, "503": 167, "501": 449}, "direccion": "LA GRANJA"}}, {"geometry": {"type": "Point", "coordinates": [-64.34095355672561, -31.340545503388675]}, "properties": {"establecim": "ESC ELADIO DIEZ", "overall_total": 112, "fake_id": "3231-3238", "seccion": "3", "circuito": "00028", "votos": {"217": 250, "512": 74, "47": 310, "191": 53, "9005": 0, "514": 2739, "9006": 7072, "3": 38, "9004": 38, "9003": 24, "9002": 4, "9001": 2165, "505": 730, "503": 148, "501": 387}, "direccion": "ALVEAR ESQ SARMIENTO"}}, {"geometry": {"type": "Point", "coordinates": [-64.33615497875356, -31.34018885365282]}, "properties": {"establecim": "ESCUELA PROV.J.J.PASO-CENMA", "overall_total": 150, "fake_id": "3257-3267", "seccion": "3", "circuito": "00028", "votos": {"217": 356, "512": 115, "47": 433, "191": 109, "9005": 1, "514": 3747, "9006": 9722, "3": 76, "9004": 66, "9003": 43, "9002": 1, "9001": 2987, "505": 884, "503": 214, "501": 540}, "direccion": "CALERA"}}, {"geometry": {"type": "Point", "coordinates": [-64.33473403461319, -31.342952878749163]}, "properties": {"establecim": "INSTITUTO D.F.SARMIENTO", "overall_total": 238, "fake_id": "3239-3256", "seccion": "3", "circuito": "00028", "votos": {"217": 589, "512": 164, "47": 717, "191": 167, "9005": 1, "514": 6164, "9006": 15737, "3": 102, "9004": 99, "9003": 67, "9002": 3, "9001": 4785, "505": 1464, "503": 342, "501": 835}, "direccion": "CALERA"}}, {"geometry": {"type": "Point", "coordinates": [-64.33474766856175, -31.343082823321517]}, "properties": {"establecim": "INSTITUTO JESUS MARIA", "overall_total": 106, "fake_id": "3268-3276", "seccion": "3", "circuito": "00028", "votos": {"217": 234, "512": 83, "47": 283, "191": 81, "9005": 1, "514": 2734, "9006": 6938, "3": 48, "9004": 62, "9003": 14, "9002": 0, "9001": 2102, "505": 692, "503": 148, "501": 350}, "direccion": "CALERA"}}, {"geometry": {"type": "Point", "coordinates": [-64.06294497965098, -31.02093559788337]}, "properties": {"establecim": "ESC. PRESBITERO BONORIS", "overall_total": 83, "fake_id": "3327-3337", "seccion": "3", "circuito": "00029", "votos": {"217": 311, "512": 76, "47": 807, "191": 70, "9005": 2, "514": 3798, "9006": 9695, "3": 43, "9004": 79, "9003": 30, "9002": 0, "9001": 2953, "505": 741, "503": 152, "501": 550}, "direccion": "COLONIA CAROYA 0"}}, {"geometry": {"type": "Point", "coordinates": [-64.06637282156196, -31.021225046876598]}, "properties": {"establecim": "ESC. PROV. GRAL SAN MARTIN", "overall_total": 68, "fake_id": "3317-3326", "seccion": "3", "circuito": "00029", "votos": {"217": 303, "512": 74, "47": 814, "191": 72, "9005": 0, "514": 3455, "9006": 8983, "3": 39, "9004": 49, "9003": 28, "9002": 12, "9001": 2752, "505": 681, "503": 154, "501": 482}, "direccion": "MAESTRA OLGA PROSDOCIMO  3580"}}, {"geometry": {"type": "Point", "coordinates": [-64.09041662206603, -31.008653143942148]}, "properties": {"establecim": "ESC.PROV. M. BELGRANO", "overall_total": 80, "fake_id": "3307-3316", "seccion": "3", "circuito": "00029", "votos": {"217": 266, "512": 63, "47": 835, "191": 73, "9005": 0, "514": 3453, "9006": 8726, "3": 46, "9004": 56, "9003": 24, "9002": 0, "9001": 2501, "505": 674, "503": 167, "501": 488}, "direccion": "COLONIA CAROYA"}}, {"geometry": {"type": "Point", "coordinates": [-64.04333969674035, -31.04643050522676]}, "properties": {"establecim": "ESCUELA M. MORENO", "overall_total": 59, "fake_id": "3338-3345", "seccion": "3", "circuito": "00029", "votos": {"217": 247, "512": 64, "47": 618, "191": 72, "9005": 1, "514": 2765, "9006": 7121, "3": 26, "9004": 48, "9003": 26, "9002": 0, "9001": 2177, "505": 468, "503": 107, "501": 443}, "direccion": "JUSTINIANO CELIZ HEREDIA 650"}}, {"geometry": {"type": "Point", "coordinates": [-64.06294497965098, -31.02093559788337]}, "properties": {"establecim": "IPEM 165 ANEXO J.BONORIS", "overall_total": 65, "fake_id": "3346-3351", "seccion": "3", "circuito": "00029", "votos": {"217": 171, "512": 33, "47": 464, "191": 55, "9005": 0, "514": 2069, "9006": 5101, "3": 33, "9004": 37, "9003": 15, "9002": 0, "9001": 1375, "505": 368, "503": 95, "501": 321}, "direccion": "COLONIA CAROYA"}}, {"geometry": {"type": "Point", "coordinates": [-64.0675929922478, -31.2282770052648]}, "properties": {"establecim": "ESC PROV DR PABLO RUEDA", "overall_total": 54, "fake_id": "3361-3365", "seccion": "3", "circuito": "00030", "votos": {"217": 184, "512": 32, "47": 401, "191": 33, "9005": 0, "514": 1680, "9006": 4308, "3": 19, "9004": 5, "9003": 24, "9002": 0, "9001": 1314, "505": 252, "503": 68, "501": 242}, "direccion": "PUBLICA S/N"}}, {"geometry": {"type": "Point", "coordinates": [-64.06699950599999, -31.240528600899967]}, "properties": {"establecim": "ESCUELA NACIONAL N\u00b031", "overall_total": 84, "fake_id": "3353-3360", "seccion": "3", "circuito": "00030", "votos": {"217": 237, "512": 61, "47": 600, "191": 60, "9005": 0, "514": 2358, "9006": 5604, "3": 37, "9004": 23, "9003": 28, "9002": 0, "9001": 1351, "505": 350, "503": 100, "501": 315}, "direccion": "PUBLICA-SANTA ELENA RUTA  74KM22"}}, {"geometry": {"type": "Point", "coordinates": [-64.28971409149995, -31.092007633600044]}, "properties": {"establecim": "ESC.PROV.A.ARGENTINA", "overall_total": 25, "fake_id": "3366-3368", "seccion": "3", "circuito": "00031", "votos": {"217": 84, "512": 17, "47": 82, "191": 13, "9005": 0, "514": 965, "9006": 2197, "3": 2, "9004": 8, "9003": 15, "9002": 0, "9001": 504, "505": 264, "503": 36, "501": 182}, "direccion": "EL MANZANO SOBRE RUTA E 53"}}, {"geometry": {"type": "Point", "coordinates": [-64.14065219999996, -31.135245799999975]}, "properties": {"establecim": "ESC PROV GRAL JOSE MARIA PAZ", "overall_total": 74, "fake_id": "3376-3381", "seccion": "3", "circuito": "00032", "votos": {"217": 131, "512": 28, "47": 309, "191": 22, "9005": 1, "514": 1500, "9006": 3868, "3": 8, "9004": 21, "9003": 11, "9002": 0, "9001": 1183, "505": 385, "503": 63, "501": 132}, "direccion": "BUENOS AIRES Y CORDOBA"}}, {"geometry": {"type": "Point", "coordinates": [-64.09092528774853, -30.97700072826506]}, "properties": {"establecim": "ESC,N\u00b021 GENDARMERIA NACIONAL", "overall_total": 70, "fake_id": "3450-3460", "seccion": "3", "circuito": "00033", "votos": {"217": 380, "512": 72, "47": 622, "191": 74, "9005": 0, "514": 3431, "9006": 8556, "3": 33, "9004": 51, "9003": 32, "9002": 0, "9001": 2563, "505": 540, "503": 161, "501": 527}, "direccion": "JESUS MARIA"}}, {"geometry": {"type": "Point", "coordinates": [-64.10391275958835, -30.982676742464687]}, "properties": {"establecim": "ESC.DR. J.M.ESTRADA N\u00b0 221", "overall_total": 93, "fake_id": "3410-3422", "seccion": "3", "circuito": "00033", "votos": {"217": 541, "512": 86, "47": 646, "191": 79, "9005": 0, "514": 4482, "9006": 11107, "3": 53, "9004": 77, "9003": 44, "9002": 1, "9001": 3312, "505": 830, "503": 166, "501": 697}, "direccion": "CATAMARCA Y ESTRADA 0"}}, {"geometry": {"type": "Point", "coordinates": [-64.09424455531119, -30.9858552538995]}, "properties": {"establecim": "ESC.PROV.1ER.TTE.MORANDINI", "overall_total": 94, "fake_id": "3423-3434", "seccion": "3", "circuito": "00033", "votos": {"217": 444, "512": 66, "47": 630, "191": 79, "9005": 0, "514": 3785, "9006": 9480, "3": 38, "9004": 47, "9003": 45, "9002": 0, "9001": 2844, "505": 636, "503": 172, "501": 600}, "direccion": "CHILE -SAN JOSE OBRERO 222"}}, {"geometry": {"type": "Point", "coordinates": [-64.09499566743472, -30.980867434058023]}, "properties": {"establecim": "ESC.PROVC.F.O. DE OCAMPO", "overall_total": 113, "fake_id": "3435-3449", "seccion": "3", "circuito": "00033", "votos": {"217": 561, "512": 106, "47": 714, "191": 89, "9005": 0, "514": 4468, "9006": 10446, "3": 46, "9004": 65, "9003": 49, "9002": 0, "9001": 2607, "505": 791, "503": 177, "501": 660}, "direccion": "AV. DR. FRANCISCO N. DE  LAPRIDA 649 649"}}, {"geometry": {"type": "Point", "coordinates": [-64.09507034005135, -30.986351453557045]}, "properties": {"establecim": "I.P.E.T.N\u00b0 69", "overall_total": 105, "fake_id": "3397-3409", "seccion": "3", "circuito": "00033", "votos": {"217": 564, "512": 85, "47": 758, "191": 85, "9005": 0, "514": 4483, "9006": 11220, "3": 37, "9004": 49, "9003": 54, "9002": 0, "9001": 3368, "505": 751, "503": 179, "501": 702}, "direccion": "JESUS MARIA"}}, {"geometry": {"type": "Point", "coordinates": [-64.09839229805264, -30.98431115750903]}, "properties": {"establecim": "PTE DOMINGO F SARMIENTO", "overall_total": 103, "fake_id": "3382-3396", "seccion": "3", "circuito": "00033", "votos": {"217": 525, "512": 98, "47": 866, "191": 102, "9005": 0, "514": 5167, "9006": 12766, "3": 51, "9004": 61, "9003": 55, "9002": 0, "9001": 3802, "505": 921, "503": 215, "501": 800}, "direccion": "CORDOBA (PARALEA A JUAN B  JUSTO) 1050"}}, {"geometry": {"type": "Point", "coordinates": [-64.1670194356847, -31.27995751819738]}, "properties": {"establecim": "ESC PROV LEOPOLDO LUGONES", "overall_total": 200, "fake_id": "3462-3469", "seccion": "3", "circuito": "00034", "votos": {"217": 318, "512": 63, "47": 317, "191": 55, "9005": 0, "514": 2687, "9006": 6888, "3": 31, "9004": 43, "9003": 20, "9002": 8, "9001": 2097, "505": 561, "503": 179, "501": 309}, "direccion": "VILLA LOS LLANOS 0"}}, {"geometry": {"type": "Point", "coordinates": [-64.18037975217304, -31.299963994880493]}, "properties": {"establecim": "ESC.ATAHUALPA YUPANQUI", "overall_total": 240, "fake_id": "3478-3485", "seccion": "3", "circuito": "00034", "votos": {"217": 288, "512": 82, "47": 256, "191": 58, "9005": 0, "514": 2679, "9006": 6137, "3": 47, "9004": 44, "9003": 45, "9002": 1, "9001": 1328, "505": 568, "503": 193, "501": 308}, "direccion": "BARRIO PARQUE NORTE"}}, {"geometry": {"type": "Point", "coordinates": [-64.16679000010123, -31.26154299490366]}, "properties": {"establecim": "ESC.COM.R. SILIONI", "overall_total": 204, "fake_id": "3470-3477", "seccion": "3", "circuito": "00034", "votos": {"217": 311, "512": 90, "47": 277, "191": 51, "9005": 1, "514": 2676, "9006": 6571, "3": 39, "9004": 38, "9003": 34, "9002": 0, "9001": 1810, "505": 531, "503": 185, "501": 324}, "direccion": "JUAREZ CELMAN"}}, {"geometry": {"type": "Point", "coordinates": [-64.04333579496162, -31.366621692165285]}, "properties": {"establecim": "ESC.CAP.LUIS C.CANDELARIA", "overall_total": 190, "fake_id": "3486-3494", "seccion": "3", "circuito": "00035", "votos": {"217": 286, "512": 72, "47": 520, "191": 48, "9005": 1, "514": 2738, "9006": 6667, "3": 33, "9004": 58, "9003": 45, "9002": 0, "9001": 1830, "505": 364, "503": 207, "501": 275}, "direccion": "MALVINAS ARGENTINAS"}}, {"geometry": {"type": "Point", "coordinates": [-64.04620600009069, -31.374193994835892]}, "properties": {"establecim": "ESC.MUNIC.CIUDAD DE M.ARGENTIN", "overall_total": 166, "fake_id": "3495-3502", "seccion": "3", "circuito": "00035", "votos": {"217": 237, "512": 74, "47": 468, "191": 44, "9005": 0, "514": 2394, "9006": 5636, "3": 34, "9004": 61, "9003": 24, "9002": 0, "9001": 1345, "505": 310, "503": 221, "501": 258}, "direccion": "MALVINAS ARGENTINAS"}}, {"geometry": {"type": "Point", "coordinates": [-64.05376500009136, -31.380629994832002]}, "properties": {"establecim": "I.P.E.M. N\u00b0 24", "overall_total": 254, "fake_id": "3503-3514", "seccion": "3", "circuito": "00035", "votos": {"217": 386, "512": 98, "47": 743, "191": 70, "9005": 0, "514": 3763, "9006": 9681, "3": 50, "9004": 99, "9003": 64, "9002": 0, "9001": 2959, "505": 538, "503": 303, "501": 354}, "direccion": "JUJUY ESQ. SARMIENTO S/N  MALVINAS AR 0"}}, {"geometry": {"type": "Point", "coordinates": [-64.06718895840577, -31.16495027399371]}, "properties": {"establecim": "ESC PROV SARGENTO CABRAL", "overall_total": 2, "fake_id": "3518-3518", "seccion": "3", "circuito": "00036", "votos": {"217": 22, "512": 5, "47": 81, "191": 3, "9005": 0, "514": 280, "9006": 720, "3": 2, "9004": 0, "9003": 4, "9002": 0, "9001": 220, "505": 74, "503": 4, "501": 23}, "direccion": "PUBLICA S/N"}}, {"geometry": {"type": "Point", "coordinates": [-64.32888000042965, -31.164990606356234]}, "properties": {"establecim": "ESC.CONSTANCIO C. VIGIL", "overall_total": 57, "fake_id": "3560-3566", "seccion": "3", "circuito": "00037", "votos": {"217": 229, "512": 41, "47": 297, "191": 62, "9005": 2, "514": 2389, "9006": 5750, "3": 46, "9004": 38, "9003": 19, "9002": 0, "9001": 1549, "505": 252, "503": 216, "501": 553}, "direccion": "1 MAYO B\u00b0 MOREYRA 112"}}, {"geometry": {"type": "Point", "coordinates": [-64.3161380845202, -31.171053760515257]}, "properties": {"establecim": "ESC.PROV.M.FRAGUEIRO", "overall_total": 100, "fake_id": "3529-3539", "seccion": "3", "circuito": "00037", "votos": {"217": 416, "512": 73, "47": 533, "191": 98, "9005": 1, "514": 3760, "9006": 9536, "3": 65, "9004": 66, "9003": 21, "9002": 0, "9001": 2889, "505": 365, "503": 349, "501": 800}, "direccion": "AVENIDA SAN MARTIN 4519"}}, {"geometry": {"type": "Point", "coordinates": [-64.31756197133697, -31.166715478018208]}, "properties": {"establecim": "I.P.E.M.144-MARIANO MORENO", "overall_total": 88, "fake_id": "3540-3548", "seccion": "3", "circuito": "00037", "votos": {"217": 311, "512": 45, "47": 333, "191": 67, "9005": 0, "514": 2728, "9006": 6658, "3": 45, "9004": 67, "9003": 14, "9002": 0, "9001": 1828, "505": 303, "503": 283, "501": 546}, "direccion": "SALTA 191"}}, {"geometry": {"type": "Point", "coordinates": [-64.32208035256443, -31.16659957278304]}, "properties": {"establecim": "INSTITUTO DEL ESPIRITU SANTO", "overall_total": 115, "fake_id": "3549-3559", "seccion": "3", "circuito": "00037", "votos": {"217": 409, "512": 75, "47": 480, "191": 93, "9005": 1, "514": 3756, "9006": 9409, "3": 63, "9004": 82, "9003": 27, "9002": 0, "9001": 2827, "505": 364, "503": 332, "501": 785}, "direccion": "AV. SAN MARTIN 5109"}}, {"geometry": {"type": "Point", "coordinates": [-64.31756197133697, -31.166715478018208]}, "properties": {"establecim": "IPEM N\u00b0 352", "overall_total": 82, "fake_id": "3519-3528", "seccion": "3", "circuito": "00037", "votos": {"217": 334, "512": 88, "47": 422, "191": 92, "9005": 3, "514": 3424, "9006": 7858, "3": 50, "9004": 55, "9003": 29, "9002": 0, "9001": 1820, "505": 365, "503": 322, "501": 772}, "direccion": "NICANOR CEBALLOS 0"}}, {"geometry": {"type": "Point", "coordinates": [-64.29817200011271, -31.136236994979374]}, "properties": {"establecim": "ESC.PROV. J.MALDONADO", "overall_total": 95, "fake_id": "3573-3583", "seccion": "3", "circuito": "00038", "votos": {"217": 353, "512": 62, "47": 381, "191": 69, "9005": 0, "514": 3415, "9006": 8699, "3": 40, "9004": 49, "9003": 20, "9002": 4, "9001": 2637, "505": 546, "503": 275, "501": 753}, "direccion": "DESIDERIO TORRES 360"}}, {"geometry": {"type": "Point", "coordinates": [-64.28823100011188, -31.137853994978364]}, "properties": {"establecim": "ESCUELA RECONQUISTA", "overall_total": 36, "fake_id": "3584-3587", "seccion": "3", "circuito": "00038", "votos": {"217": 168, "512": 29, "47": 134, "191": 36, "9005": 0, "514": 1369, "9006": 3491, "3": 18, "9004": 18, "9003": 7, "9002": 0, "9001": 1061, "505": 210, "503": 103, "501": 302}, "direccion": "CERRITO 0"}}, {"geometry": {"type": "Point", "coordinates": [-64.29477095603941, -31.13789712908942]}, "properties": {"establecim": "INST SECUNDARIO SALSIPUEDES", "overall_total": 51, "fake_id": "3567-3572", "seccion": "3", "circuito": "00038", "votos": {"217": 143, "512": 33, "47": 181, "191": 39, "9005": 0, "514": 1714, "9006": 4416, "3": 18, "9004": 20, "9003": 17, "9002": 0, "9001": 1351, "505": 295, "503": 121, "501": 433}, "direccion": "AV BELGRANO 178"}}, {"geometry": {"type": "Point", "coordinates": [-63.97808837092967, -31.056360140259514]}, "properties": {"establecim": "ESC.PROV. FRAY M.ESQUIU", "overall_total": 1, "fake_id": "3588-3588", "seccion": "3", "circuito": "00039", "votos": {"217": 5, "512": 1, "47": 13, "191": 0, "9005": 0, "514": 77, "9006": 167, "3": 0, "9004": 0, "9003": 0, "9002": 0, "9001": 45, "505": 24, "503": 0, "501": 1}, "direccion": "PUBLICA 0"}}, {"geometry": {"type": "Point", "coordinates": [-64.31005810069665, -31.237253896870506]}, "properties": {"establecim": "ESC.PROV. D.V.SARSFIELD", "overall_total": 112, "fake_id": "3589-3597", "seccion": "3", "circuito": "00040", "votos": {"217": 397, "512": 96, "47": 366, "191": 67, "9005": 0, "514": 3104, "9006": 7605, "3": 47, "9004": 61, "9003": 29, "9002": 0, "9001": 2117, "505": 416, "503": 265, "501": 528}, "direccion": "SARMIENTO Y VELEZ SARSFIELD  0"}}, {"geometry": {"type": "Point", "coordinates": [-64.31735832257071, -31.227747552060944]}, "properties": {"establecim": "I.P.E.M. N\u00b0 23", "overall_total": 100, "fake_id": "3598-3606", "seccion": "3", "circuito": "00040", "votos": {"217": 408, "512": 107, "47": 463, "191": 77, "9005": 0, "514": 3107, "9006": 7620, "3": 55, "9004": 58, "9003": 26, "9002": 0, "9001": 2134, "505": 334, "503": 242, "501": 509}, "direccion": "SPILIMBERGO 869"}}, {"geometry": {"type": "Point", "coordinates": [-64.30581434440002, -31.241577345781568]}, "properties": {"establecim": "I.P.E.M. N\u00b0 78", "overall_total": 204, "fake_id": "3607-3621", "seccion": "3", "circuito": "00040", "votos": {"217": 634, "512": 179, "47": 644, "191": 114, "9005": 0, "514": 5175, "9006": 13222, "3": 97, "9004": 94, "9003": 29, "9002": 0, "9001": 4023, "505": 658, "503": 456, "501": 915}, "direccion": "COSTANERA LOS CIGARRALES B  750"}}, {"geometry": {"type": "Point", "coordinates": [-64.3113097764755, -31.237065940998228]}, "properties": {"establecim": "INST.PARROQ.NTA.SRA DE LOURDES", "overall_total": 158, "fake_id": "3622-3632", "seccion": "3", "circuito": "00040", "votos": {"217": 465, "512": 115, "47": 460, "191": 106, "9005": 1, "514": 3787, "9006": 9554, "3": 56, "9004": 71, "9003": 29, "9002": 11, "9001": 2878, "505": 478, "503": 310, "501": 629}, "direccion": "JUAN MILICH 0"}}, {"geometry": {"type": "Point", "coordinates": [-64.29768682510091, -31.28803683245299]}, "properties": {"establecim": "COLEGIO MARYLAND", "overall_total": 51, "fake_id": "3726-3729", "seccion": "3", "circuito": "00041", "votos": {"217": 157, "512": 50, "47": 269, "191": 36, "9005": 1, "514": 1365, "9006": 3579, "3": 29, "9004": 10, "9003": 6, "9002": 2, "9001": 1107, "505": 157, "503": 95, "501": 244}, "direccion": "GUEMES ESQ ALBERTI"}}, {"geometry": {"type": "Point", "coordinates": [-64.29846764482413, -31.290560066238925]}, "properties": {"establecim": "COLEGIO SAN JOSE", "overall_total": 128, "fake_id": "3667-3678", "seccion": "3", "circuito": "00041", "votos": {"217": 440, "512": 104, "47": 622, "191": 139, "9005": 0, "514": 3771, "9006": 9781, "3": 92, "9004": 52, "9003": 29, "9002": 1, "9001": 3005, "505": 429, "503": 304, "501": 665}, "direccion": "VILLA ALLENDE"}}, {"geometry": {"type": "Point", "coordinates": [-64.2973235133589, -31.295475811749384]}, "properties": {"establecim": "ESC.PROV. J.DE SAN MARTIN", "overall_total": 151, "fake_id": "3654-3666", "seccion": "3", "circuito": "00041", "votos": {"217": 489, "512": 116, "47": 789, "191": 148, "9005": 0, "514": 4453, "9006": 11523, "3": 105, "9004": 36, "9003": 32, "9002": 2, "9001": 3534, "505": 502, "503": 348, "501": 818}, "direccion": "GOYCOECHEA 150"}}, {"geometry": {"type": "Point", "coordinates": [-64.29538380692374, -31.29271683944505]}, "properties": {"establecim": "INST GRAL S.MARTIN/17 DE AGOST", "overall_total": 349, "fake_id": "3687-3715", "seccion": "3", "circuito": "00041", "votos": {"217": 1102, "512": 262, "47": 1674, "191": 350, "9005": 4, "514": 9912, "9006": 25199, "3": 266, "9004": 125, "9003": 81, "9002": 7, "9001": 7502, "505": 1063, "503": 795, "501": 1707}, "direccion": "25 DE MAYO ESQ. TABLADA 0"}}, {"geometry": {"type": "Point", "coordinates": [-64.3056018139397, -31.302162465815798]}, "properties": {"establecim": "INSTITUTO NTA.SRA. DE LUJAN", "overall_total": 128, "fake_id": "3716-3725", "seccion": "3", "circuito": "00041", "votos": {"217": 331, "512": 63, "47": 549, "191": 101, "9005": 2, "514": 3075, "9006": 7919, "3": 69, "9004": 36, "9003": 25, "9002": 0, "9001": 2422, "505": 340, "503": 243, "501": 535}, "direccion": "AV.SAN MARTIN 1070"}}, {"geometry": {"type": "Point", "coordinates": [-64.29854445509086, -31.297142536333908]}, "properties": {"establecim": "INSTITUTO PAULA A.DE SARMIENTO", "overall_total": 95, "fake_id": "3679-3686", "seccion": "3", "circuito": "00041", "votos": {"217": 270, "512": 73, "47": 411, "191": 100, "9005": 0, "514": 2397, "9006": 5932, "3": 66, "9004": 32, "9003": 14, "9002": 0, "9001": 1640, "505": 228, "503": 183, "501": 423}, "direccion": "LAPRIDA/GONZALEZ"}}, {"geometry": {"type": "Point", "coordinates": [-65.05273169999992, -30.7943682]}, "properties": {"establecim": "ESCUELA PROV.M. MORENO", "overall_total": 3, "fake_id": "3756-3757", "seccion": "4", "circuito": "00042", "votos": {"217": 20, "512": 3, "47": 84, "191": 1, "9005": 0, "514": 563, "9006": 1443, "3": 1, "9004": 2, "9003": 8, "9002": 0, "9001": 440, "505": 310, "503": 1, "501": 7}, "direccion": "PUBLICA S/N"}}, {"geometry": {"type": "Point", "coordinates": [-64.80669199794835, -30.72613330891401]}, "properties": {"establecim": "ESC.E. BAVIO", "overall_total": 72, "fake_id": "3791-3803", "seccion": "4", "circuito": "00044", "votos": {"217": 770, "512": 63, "47": 700, "191": 38, "9005": 0, "514": 4144, "9006": 9838, "3": 22, "9004": 53, "9003": 52, "9002": 0, "9001": 2593, "505": 922, "503": 107, "501": 302}, "direccion": "PELLEGRINI 180"}}, {"geometry": {"type": "Point", "coordinates": [-64.80925632938687, -30.723894447074994]}, "properties": {"establecim": "IPEM 273 M. BELGRANO", "overall_total": 80, "fake_id": "3820-3832", "seccion": "4", "circuito": "00044", "votos": {"217": 789, "512": 62, "47": 750, "191": 28, "9005": 0, "514": 4114, "9006": 10184, "3": 25, "9004": 47, "9003": 42, "9002": 0, "9001": 3036, "505": 866, "503": 100, "501": 245}, "direccion": "PELLEGRINI 445"}}, {"geometry": {"type": "Point", "coordinates": [-64.87718982779995, -30.67213697700003]}, "properties": {"establecim": "ESC PROV MANUEL BELGRANO", "overall_total": 5, "fake_id": "3835-3837", "seccion": "4", "circuito": "00045", "votos": {"217": 78, "512": 12, "47": 213, "191": 1, "9005": 0, "514": 603, "9006": 1533, "3": 1, "9004": 3, "9003": 16, "9002": 0, "9001": 465, "505": 114, "503": 9, "501": 13}, "direccion": "PUBLICA S/N"}}, {"geometry": {"type": "Point", "coordinates": [-65.05949830269998, -30.482881140200018]}, "properties": {"establecim": "ESC PROV GRAL SAN MARTIN", "overall_total": 2, "fake_id": "3838-3840", "seccion": "4", "circuito": "00046", "votos": {"217": 73, "512": 4, "47": 55, "191": 1, "9005": 0, "514": 460, "9006": 1056, "3": 1, "9004": 1, "9003": 5, "9002": 0, "9001": 298, "505": 145, "503": 0, "501": 11}, "direccion": "PUBLICA S/N"}}, {"geometry": {"type": "Point", "coordinates": [-65.26128100819999, -30.662183210500025]}, "properties": {"establecim": "ESC PROV JOSE MARIA PAZ", "overall_total": 0, "fake_id": "3842-3842", "seccion": "4", "circuito": "00047", "votos": {"217": 17, "512": 0, "47": 13, "191": 0, "9005": 0, "514": 99, "9006": 225, "3": 0, "9004": 0, "9003": 0, "9002": 0, "9001": 63, "505": 33, "503": 0, "501": 0}, "direccion": "PUBLICA S/N"}}, {"geometry": {"type": "Point", "coordinates": [-65.1028058, -31.0157259]}, "properties": {"establecim": "ESC PROV GRAL SAN MARTIN", "overall_total": 1, "fake_id": "3843-3844", "seccion": "4", "circuito": "00048", "votos": {"217": 26, "512": 3, "47": 99, "191": 0, "9005": 0, "514": 521, "9006": 1283, "3": 1, "9004": 2, "9003": 6, "9002": 0, "9001": 381, "505": 224, "503": 6, "501": 13}, "direccion": "RUTA PROVINCIAL N\u00b015 S/N"}}, {"geometry": {"type": "Point", "coordinates": [-64.19257543242836, -31.447325429691922]}, "properties": {"establecim": "ESC ALMAFUERTE", "overall_total": 148, "fake_id": "187-193", "seccion": "1", "circuito": "0004A", "votos": {"217": 235, "512": 99, "47": 463, "191": 75, "9005": 0, "514": 2419, "9006": 5979, "3": 78, "9004": 34, "9003": 18, "9002": 0, "9001": 1646, "505": 229, "503": 255, "501": 280}, "direccion": "CHANETON 390 B\u00b0 SAN  FERNANDO"}}, {"geometry": {"type": "Point", "coordinates": [-64.19203211427016, -31.447445124041117]}, "properties": {"establecim": "ESC ALMAFUERTE", "overall_total": 148, "fake_id": "187-193", "seccion": "1", "circuito": "0004A", "votos": {"217": 235, "512": 99, "47": 463, "191": 75, "9005": 0, "514": 2419, "9006": 5979, "3": 78, "9004": 34, "9003": 18, "9002": 0, "9001": 1646, "505": 229, "503": 255, "501": 280}, "direccion": "CHANETON 390 B\u00b0 SAN  FERNANDO"}}, {"geometry": {"type": "Point", "coordinates": [-64.19701147115042, -31.445612315473518]}, "properties": {"establecim": "ESC COM R ECHEGOYEN", "overall_total": 194, "fake_id": "194-201", "seccion": "1", "circuito": "0004A", "votos": {"217": 294, "512": 118, "47": 482, "191": 88, "9005": 0, "514": 2763, "9006": 7149, "3": 73, "9004": 28, "9003": 11, "9002": 3, "9001": 2193, "505": 265, "503": 302, "501": 335}, "direccion": "J I DIAZ 200 B\u00b0 EJERCITO  ARGENTINO"}}, {"geometry": {"type": "Point", "coordinates": [-64.2004484330247, -31.465033509762456]}, "properties": {"establecim": "ESC ERNESTO BANCALARI", "overall_total": 156, "fake_id": "180-186", "seccion": "1", "circuito": "0004A", "votos": {"217": 247, "512": 104, "47": 396, "191": 74, "9005": 1, "514": 2419, "9006": 5696, "3": 56, "9004": 16, "9003": 11, "9002": 0, "9001": 1362, "505": 285, "503": 258, "501": 311}, "direccion": "MONTERROSO 4597 B\u00b0 ARTIGAS"}}, {"geometry": {"type": "Point", "coordinates": [-64.19758160866344, -31.453783301775474]}, "properties": {"establecim": "ESC SAN FRANCISCO DE ASIS", "overall_total": 602, "fake_id": "202-229", "seccion": "1", "circuito": "0004A", "votos": {"217": 991, "512": 424, "47": 1571, "191": 300, "9005": 4, "514": 9324, "9006": 24302, "3": 248, "9004": 103, "9003": 53, "9002": 4, "9001": 7487, "505": 1079, "503": 988, "501": 1124}, "direccion": "GUARDADO 184 B\u00b0LAS FLORES"}}, {"geometry": {"type": "Point", "coordinates": [-64.17984559658971, -31.450574483184983]}, "properties": {"establecim": "COL NICOLAS BERROTARAN", "overall_total": 199, "fake_id": "262-274", "seccion": "1", "circuito": "0004B", "votos": {"217": 412, "512": 164, "47": 853, "191": 174, "9005": 0, "514": 4490, "9006": 10433, "3": 146, "9004": 66, "9003": 22, "9002": 0, "9001": 2422, "505": 423, "503": 396, "501": 666}, "direccion": "ELIAS YOFRE 1095 - B\u00b0 JARDIN"}}, {"geometry": {"type": "Point", "coordinates": [-64.17159864018444, -31.44756649537087]}, "properties": {"establecim": "ESC ING MASJOAN", "overall_total": 144, "fake_id": "252-261", "seccion": "1", "circuito": "0004B", "votos": {"217": 276, "512": 110, "47": 556, "191": 104, "9005": 1, "514": 3112, "9006": 7696, "3": 90, "9004": 44, "9003": 21, "9002": 1, "9001": 2156, "505": 290, "503": 307, "501": 484}, "direccion": "P.L.DE CABRERA ESQ.TANTI B\u00b0V.  REVOL"}}, {"geometry": {"type": "Point", "coordinates": [-64.17485175773096, -31.454430758721706]}, "properties": {"establecim": "INST EDUC NTRA SE\u00d1ORA", "overall_total": 318, "fake_id": "230-251", "seccion": "1", "circuito": "0004B", "votos": {"217": 698, "512": 280, "47": 1407, "191": 314, "9005": 1, "514": 7602, "9006": 18854, "3": 230, "9004": 66, "9003": 52, "9002": 0, "9001": 5351, "505": 677, "503": 659, "501": 1199}, "direccion": "INCA MANCO 3450 - B\u00b0JARDIN  ESPINOSA"}}, {"geometry": {"type": "Point", "coordinates": [-64.20379101077913, -31.471636383623594]}, "properties": {"establecim": "ESC L SUAREZ DE FIGUEROA", "overall_total": 139, "fake_id": "275-279", "seccion": "1", "circuito": "0004C", "votos": {"217": 163, "512": 55, "47": 233, "191": 37, "9005": 1, "514": 1636, "9006": 4038, "3": 95, "9004": 24, "9003": 15, "9002": 0, "9001": 1065, "505": 229, "503": 147, "501": 199}, "direccion": "DEFENSA S/N\u00b0 LA HUERTILLA"}}, {"geometry": {"type": "Point", "coordinates": [-64.19363826094596, -31.476700210242754]}, "properties": {"establecim": "ESC SAN JOSE DE CALASANZ", "overall_total": 153, "fake_id": "280-286", "seccion": "1", "circuito": "0004C", "votos": {"217": 192, "512": 108, "47": 354, "191": 48, "9005": 1, "514": 2290, "9006": 6091, "3": 122, "9004": 50, "9003": 21, "9002": 0, "9001": 1898, "505": 324, "503": 221, "501": 309}, "direccion": "PIZARRO ESQ. NIVOLI"}}, {"geometry": {"type": "Point", "coordinates": [-64.16871427646277, -31.490188806926312]}, "properties": {"establecim": "COL VILLA EUCARISTICA", "overall_total": 59, "fake_id": "287-291", "seccion": "1", "circuito": "0004D", "votos": {"217": 106, "512": 43, "47": 290, "191": 53, "9005": 0, "514": 1455, "9006": 3975, "3": 96, "9004": 9, "9003": 10, "9002": 0, "9001": 1260, "505": 150, "503": 98, "501": 346}, "direccion": "CNO A SAN CARLOS KM.5 1/2"}}, {"geometry": {"type": "Point", "coordinates": [-64.186065743196, -31.496201053320785]}, "properties": {"establecim": "NSC.OSCAR RAUL MALVASIO", "overall_total": 140, "fake_id": "297-302", "seccion": "1", "circuito": "0004F", "votos": {"217": 201, "512": 44, "47": 104, "191": 23, "9005": 0, "514": 1452, "9006": 3760, "3": 15, "9004": 14, "9003": 20, "9002": 0, "9001": 1156, "505": 417, "503": 59, "501": 115}, "direccion": "MANZANA 49 B\u00b0 C.OBISPO  ANGELELLI"}}, {"geometry": {"type": "Point", "coordinates": [-64.93142359822171, -30.64135357585006]}, "properties": {"establecim": "ESCUELA M. GUEMES", "overall_total": 11, "fake_id": "3846-3848", "seccion": "4", "circuito": "00050", "votos": {"217": 69, "512": 9, "47": 277, "191": 3, "9005": 1, "514": 831, "9006": 1685, "3": 6, "9004": 7, "9003": 20, "9002": 0, "9001": 214, "505": 219, "503": 7, "501": 11}, "direccion": "MEDIA NARANJA"}}, {"geometry": {"type": "Point", "coordinates": [-65.1906047, -30.76681179999998]}, "properties": {"establecim": "ESCUELA ANTARTIDA ARGENTINA", "overall_total": 6, "fake_id": "3851-3853", "seccion": "4", "circuito": "00051", "votos": {"217": 97, "512": 2, "47": 166, "191": 1, "9005": 0, "514": 560, "9006": 1484, "3": 2, "9004": 3, "9003": 4, "9002": 0, "9001": 462, "505": 169, "503": 6, "501": 6}, "direccion": "PUBLICA 0"}}, {"geometry": {"type": "Point", "coordinates": [-64.63735783979993, -30.78313392590001]}, "properties": {"establecim": "ESC PROV PTE ROQUE SAENZ PE\u00d1A", "overall_total": 25, "fake_id": "3859-3864", "seccion": "4", "circuito": "00054", "votos": {"217": 556, "512": 40, "47": 223, "191": 44, "9005": 0, "514": 1981, "9006": 4891, "3": 25, "9004": 35, "9003": 14, "9002": 0, "9001": 1455, "505": 283, "503": 140, "501": 70}, "direccion": "LIBERTAD 1043"}}, {"geometry": {"type": "Point", "coordinates": [-65.385460000213, -30.637199996109867]}, "properties": {"establecim": "ESC.PROV.B.RIVADAVIA", "overall_total": 11, "fake_id": "3866-3873", "seccion": "4", "circuito": "00055", "votos": {"217": 513, "512": 19, "47": 669, "191": 3, "9005": 1, "514": 2578, "9006": 5645, "3": 4, "9004": 14, "9003": 27, "9002": 1, "9001": 1452, "505": 313, "503": 10, "501": 30}, "direccion": "AVDA. MALVINAS ARGENTINAS  0"}}, {"geometry": {"type": "Point", "coordinates": [-64.98239308315581, -30.8594187908139]}, "properties": {"establecim": "E.N.E.T. N\u00b01", "overall_total": 14, "fake_id": "3887-3891", "seccion": "4", "circuito": "00056", "votos": {"217": 135, "512": 17, "47": 504, "191": 17, "9005": 1, "514": 1680, "9006": 4174, "3": 15, "9004": 22, "9003": 26, "9002": 0, "9001": 1247, "505": 393, "503": 30, "501": 73}, "direccion": "JUAN BAUTISTA ALBERDI 2200"}}, {"geometry": {"type": "Point", "coordinates": [-65.01161186267791, -30.84602487778934]}, "properties": {"establecim": "ESC NICOLAS AVELLANEDA", "overall_total": 11, "fake_id": "3892-3894", "seccion": "4", "circuito": "00056", "votos": {"217": 75, "512": 11, "47": 289, "191": 11, "9005": 0, "514": 1009, "9006": 2581, "3": 10, "9004": 28, "9003": 9, "9002": 11, "9001": 776, "505": 272, "503": 19, "501": 50}, "direccion": "DEAN FUNES ESQ CORRIENTES"}}, {"geometry": {"type": "Point", "coordinates": [-64.98681697056809, -30.85622280956618]}, "properties": {"establecim": "ESC.PADRE B.DE LAS CASAS", "overall_total": 30, "fake_id": "3875-3882", "seccion": "4", "circuito": "00056", "votos": {"217": 232, "512": 35, "47": 722, "191": 15, "9005": 1, "514": 2705, "9006": 6825, "3": 28, "9004": 34, "9003": 36, "9002": 1, "9001": 2060, "505": 742, "503": 40, "501": 144}, "direccion": "JOSE IGNACIO PERALTA 249"}}, {"geometry": {"type": "Point", "coordinates": [-64.98681697056809, -30.85622280956618]}, "properties": {"establecim": "INSTITUTO SANTO DOMINGO", "overall_total": 13, "fake_id": "3883-3886", "seccion": "4", "circuito": "00056", "votos": {"217": 104, "512": 9, "47": 388, "191": 9, "9005": 0, "514": 1348, "9006": 3117, "3": 7, "9004": 12, "9003": 18, "9002": 10, "9001": 754, "505": 373, "503": 21, "501": 51}, "direccion": "SOTO"}}, {"geometry": {"type": "Point", "coordinates": [-65.23782816669994, -30.746871224499994]}, "properties": {"establecim": "ESC.PROV.J.J.CASTELLI", "overall_total": 5, "fake_id": "3895-3896", "seccion": "4", "circuito": "00057", "votos": {"217": 60, "512": 5, "47": 88, "191": 3, "9005": 0, "514": 598, "9006": 1514, "3": 2, "9004": 0, "9003": 8, "9002": 0, "9001": 458, "505": 272, "503": 6, "501": 9}, "direccion": "PUBLICA 0"}}, {"geometry": {"type": "Point", "coordinates": [-64.11350580082623, -31.427667411199877]}, "properties": {"establecim": "ELENA LOPEZ LALLANA", "overall_total": 268, "fake_id": "349-357", "seccion": "1", "circuito": "0005A", "votos": {"217": 371, "512": 128, "47": 266, "191": 41, "9005": 0, "514": 2723, "9006": 7117, "3": 53, "9004": 67, "9003": 39, "9002": 0, "9001": 2198, "505": 420, "503": 210, "501": 333}, "direccion": "AGUSTIN GARZON 5600"}}, {"geometry": {"type": "Point", "coordinates": [-64.1150773061173, -31.424788501903688]}, "properties": {"establecim": "ESC MUNICIPAL A GASTALDI", "overall_total": 203, "fake_id": "343-348", "seccion": "1", "circuito": "0005A", "votos": {"217": 267, "512": 86, "47": 163, "191": 32, "9005": 0, "514": 2048, "9006": 5021, "3": 39, "9004": 67, "9003": 24, "9002": 0, "9001": 1360, "505": 307, "503": 174, "501": 251}, "direccion": "S JERONIMO 5500/ALMAGRO  COL LOLA"}}, {"geometry": {"type": "Point", "coordinates": [-64.1211572085314, -31.444325707952313]}, "properties": {"establecim": "ESC 9 DE JULIO", "overall_total": 141, "fake_id": "358-363", "seccion": "1", "circuito": "0005B", "votos": {"217": 181, "512": 66, "47": 370, "191": 65, "9005": 0, "514": 1907, "9006": 5055, "3": 66, "9004": 33, "9003": 4, "9002": 0, "9001": 1574, "505": 187, "503": 214, "501": 247}, "direccion": "JOSE A CABRERA 4717 B\u00b0DEAN  FUNES"}}, {"geometry": {"type": "Point", "coordinates": [-64.12664649592612, -31.439557519764797]}, "properties": {"establecim": "ESC JUAN M DE PUEYRREDON", "overall_total": 219, "fake_id": "389-396", "seccion": "1", "circuito": "0005C", "votos": {"217": 249, "512": 115, "47": 444, "191": 87, "9005": 2, "514": 2747, "9006": 6615, "3": 87, "9004": 49, "9003": 17, "9002": 1, "9001": 1660, "505": 310, "503": 274, "501": 354}, "direccion": "ANCASTI 4555 B\u00b0EMPALME"}}, {"geometry": {"type": "Point", "coordinates": [-64.14008081627796, -31.428503251042027]}, "properties": {"establecim": "ESC PROVINCIA DE LA RIOJA", "overall_total": 326, "fake_id": "364-376", "seccion": "1", "circuito": "0005C", "votos": {"217": 406, "512": 219, "47": 655, "191": 141, "9005": 4, "514": 4484, "9006": 10389, "3": 115, "9004": 65, "9003": 33, "9002": 7, "9001": 2379, "505": 499, "503": 492, "501": 564}, "direccion": "JUNIN 3480 B\u00b0EMPALME"}}, {"geometry": {"type": "Point", "coordinates": [-64.26091630283629, -31.312970001276692]}, "properties": {"establecim": "INST SEC EMPALME GONZALEZ LACA", "overall_total": 120, "fake_id": "397-401", "seccion": "1", "circuito": "0005C", "votos": {"217": 175, "512": 74, "47": 263, "191": 43, "9005": 1, "514": 1715, "9006": 4173, "3": 39, "9004": 24, "9003": 14, "9002": 0, "9001": 1088, "505": 175, "503": 197, "501": 245}, "direccion": "LAS ARRIAS 4043 B\u00b0EMPALME"}}, {"geometry": {"type": "Point", "coordinates": [-64.14003650389381, -31.407988976642805]}, "properties": {"establecim": "ESC CANONIGO PI\u00d1ERO", "overall_total": 127, "fake_id": "414-419", "seccion": "1", "circuito": "0005D", "votos": {"217": 281, "512": 74, "47": 193, "191": 23, "9005": 0, "514": 1695, "9006": 4281, "3": 39, "9004": 32, "9003": 13, "9002": 0, "9001": 1293, "505": 229, "503": 131, "501": 151}, "direccion": "CAMPO LA RIBERA"}}, {"geometry": {"type": "Point", "coordinates": [-64.13922931858538, -31.412912974478964]}, "properties": {"establecim": "ESC MARTIN DE G\u00dcEMES", "overall_total": 190, "fake_id": "420-427", "seccion": "1", "circuito": "0005D", "votos": {"217": 412, "512": 106, "47": 259, "191": 40, "9005": 2, "514": 2707, "9006": 6738, "3": 57, "9004": 32, "9003": 29, "9002": 0, "9001": 2028, "505": 397, "503": 204, "501": 275}, "direccion": "OBPO CASTELLANOS 256  B\u00b0M\u00dcLLER"}}, {"geometry": {"type": "Point", "coordinates": [-64.13987838484364, -31.420491549076512]}, "properties": {"establecim": "IPEM 184-M.FRAGUEIRO", "overall_total": 217, "fake_id": "436-443", "seccion": "1", "circuito": "0005D", "votos": {"217": 423, "512": 100, "47": 291, "191": 43, "9005": 0, "514": 2703, "9006": 6469, "3": 74, "9004": 32, "9003": 23, "9002": 0, "9001": 1752, "505": 384, "503": 195, "501": 232}, "direccion": "OB.CASTELLANO 955,S.VICENTE"}}, {"geometry": {"type": "Point", "coordinates": [-64.11299697057571, -31.436095978393375]}, "properties": {"establecim": "ESC TTE GRAL P RICCHIERI", "overall_total": 228, "fake_id": "444-451", "seccion": "1", "circuito": "0005E", "votos": {"217": 369, "512": 158, "47": 318, "191": 70, "9005": 0, "514": 2680, "9006": 6954, "3": 55, "9004": 70, "9003": 12, "9002": 0, "9001": 2137, "505": 317, "503": 210, "501": 330}, "direccion": "BENJAMIN VIEL 2387 - B\u00b0V  BUSTOS"}}, {"geometry": {"type": "Point", "coordinates": [-64.11129404616058, -31.44085289457681]}, "properties": {"establecim": "IPEM 136 DR ALFREDO PALACIOS", "overall_total": 126, "fake_id": "452-456", "seccion": "1", "circuito": "0005E", "votos": {"217": 167, "512": 116, "47": 195, "191": 29, "9005": 0, "514": 1673, "9006": 4007, "3": 35, "9004": 34, "9003": 13, "9002": 7, "9001": 1029, "505": 199, "503": 174, "501": 210}, "direccion": "CALINGASTA 5800 (ESQ  TULUMBA)"}}, {"geometry": {"type": "Point", "coordinates": [-64.12179393832969, -31.41938439337228]}, "properties": {"establecim": "ESC M COOPERATIVISMO ARGENTINO", "overall_total": 391, "fake_id": "457-468", "seccion": "1", "circuito": "0005F", "votos": {"217": 602, "512": 141, "47": 398, "191": 51, "9005": 4, "514": 4098, "9006": 10465, "3": 83, "9004": 112, "9003": 41, "9002": 0, "9001": 3047, "505": 885, "503": 245, "501": 367}, "direccion": "M BRAVO Y PJE.MATHEUB\u00b0  RENACIMIENTO"}}, {"geometry": {"type": "Point", "coordinates": [-64.15011575796356, -31.421651202262833]}, "properties": {"establecim": "ESC A F AVALOS", "overall_total": 135, "fake_id": "511-517", "seccion": "1", "circuito": "0005G", "votos": {"217": 247, "512": 106, "47": 355, "191": 76, "9005": 0, "514": 2373, "9006": 5933, "3": 61, "9004": 49, "9003": 15, "9002": 0, "9001": 1780, "505": 236, "503": 257, "501": 243}, "direccion": "SARGENTO CABRAL 1153 B\u00b0SAN  VICENTE"}}, {"geometry": {"type": "Point", "coordinates": [-64.15463567763274, -31.420592290369196]}, "properties": {"establecim": "ESC DGO F SARMIENTO", "overall_total": 237, "fake_id": "478-490", "seccion": "1", "circuito": "0005G", "votos": {"217": 425, "512": 161, "47": 597, "191": 126, "9005": 3, "514": 4069, "9006": 9913, "3": 97, "9004": 55, "9003": 38, "9002": 0, "9001": 2798, "505": 396, "503": 462, "501": 449}, "direccion": "LOPEZ Y PLANES 2253 B\u00b0SAN  VICENTE"}}, {"geometry": {"type": "Point", "coordinates": [-64.15807076684591, -31.425925747872895]}, "properties": {"establecim": "ESC MARIA IGNACIA NAVARRO DE L", "overall_total": 183, "fake_id": "502-510", "seccion": "1", "circuito": "0005G", "votos": {"217": 281, "512": 89, "47": 412, "191": 92, "9005": 0, "514": 3047, "9006": 6988, "3": 83, "9004": 44, "9003": 19, "9002": 0, "9001": 1732, "505": 303, "503": 338, "501": 365}, "direccion": "CORRIENTES 2006 B\u00b0SAN  VICENTE"}}, {"geometry": {"type": "Point", "coordinates": [-64.16422977060218, -31.423972280248165]}, "properties": {"establecim": "ESC PTE RIVADAVIA", "overall_total": 171, "fake_id": "491-501", "seccion": "1", "circuito": "0005G", "votos": {"217": 260, "512": 109, "47": 449, "191": 88, "9005": 0, "514": 3047, "9006": 7233, "3": 74, "9004": 52, "9003": 17, "9002": 16, "9001": 1964, "505": 305, "503": 338, "501": 343}, "direccion": "AGUSTIN GARZON 1563 B\u00b0SAN  VICENTE"}}, {"geometry": {"type": "Point", "coordinates": [-64.14531067035905, -31.422191713973163]}, "properties": {"establecim": "ESC SANTA MARGARITA DE CORTONA", "overall_total": 173, "fake_id": "469-477", "seccion": "1", "circuito": "0005G", "votos": {"217": 297, "512": 124, "47": 460, "191": 87, "9005": 0, "514": 3051, "9006": 7549, "3": 74, "9004": 54, "9003": 21, "9002": 0, "9001": 2249, "505": 299, "503": 313, "501": 347}, "direccion": "LOPEZ Y PLANES 2936 B\u00b0SAN  VICENTE"}}, {"geometry": {"type": "Point", "coordinates": [-64.10794929710535, -31.430106863987408]}, "properties": {"establecim": "ESC. MADRE MARIA DEL TRANSITO", "overall_total": 139, "fake_id": "518-522", "seccion": "1", "circuito": "0005H", "votos": {"217": 342, "512": 65, "47": 99, "191": 26, "9005": 0, "514": 1535, "9006": 3699, "3": 29, "9004": 26, "9003": 15, "9002": 0, "9001": 962, "505": 257, "503": 76, "501": 128}, "direccion": "MANZANA 7, B\u00b0 VILLA BOEDO"}}, {"geometry": {"type": "Point", "coordinates": [-64.10852740275855, -31.443804798352353]}, "properties": {"establecim": "ESCUELA HEROES DE MALVINAS", "overall_total": 138, "fake_id": "523-526", "seccion": "1", "circuito": "0005I", "votos": {"217": 186, "512": 56, "47": 154, "191": 18, "9005": 0, "514": 1352, "9006": 3562, "3": 28, "9004": 15, "9003": 10, "9002": 0, "9001": 1105, "505": 229, "503": 109, "501": 162}, "direccion": "CALLE PUBLICA S/N (CNO VILLA  POSSE)"}}, {"geometry": {"type": "Point", "coordinates": [-64.16457464625752, -31.413919880064643]}, "properties": {"establecim": "ESC NORMAL GARZON AGULLA", "overall_total": 232, "fake_id": "568-586", "seccion": "1", "circuito": "0006C", "votos": {"217": 622, "512": 190, "47": 1223, "191": 275, "9005": 4, "514": 6427, "9006": 15920, "3": 178, "9004": 59, "9003": 28, "9002": 1, "9001": 4614, "505": 578, "503": 670, "501": 819}, "direccion": "VIAMONTE 150 B\u00b0GRAL PAZ"}}, {"geometry": {"type": "Point", "coordinates": [-64.1655928741446, -31.41078512896411]}, "properties": {"establecim": "ESC RAMON J CARCANO", "overall_total": 153, "fake_id": "554-567", "seccion": "1", "circuito": "0006C", "votos": {"217": 428, "512": 139, "47": 906, "191": 226, "9005": 0, "514": 4743, "9006": 11916, "3": 138, "9004": 61, "9003": 20, "9002": 1, "9001": 3590, "505": 388, "503": 504, "501": 619}, "direccion": "VIAMONTE 446 B\u00b0GRAL.PAZ"}}, {"geometry": {"type": "Point", "coordinates": [-64.16524688452078, -31.418444732331828]}, "properties": {"establecim": "ESC GABRIELA MISTRAL", "overall_total": 105, "fake_id": "587-596", "seccion": "1", "circuito": "0006D", "votos": {"217": 360, "512": 101, "47": 547, "191": 151, "9005": 1, "514": 3301, "9006": 8362, "3": 104, "9004": 35, "9003": 15, "9002": 0, "9001": 2531, "505": 309, "503": 365, "501": 437}, "direccion": "LEONOR DE TEJEDA B\u00b0JUNIORS  1353"}}, {"geometry": {"type": "Point", "coordinates": [-64.15279738437474, -31.410288641311542]}, "properties": {"establecim": "ESC R G\u00dcIRALDES", "overall_total": 275, "fake_id": "613-624", "seccion": "1", "circuito": "0006F", "votos": {"217": 404, "512": 194, "47": 466, "191": 109, "9005": 2, "514": 4114, "9006": 10116, "3": 94, "9004": 70, "9003": 38, "9002": 0, "9001": 2900, "505": 659, "503": 362, "501": 429}, "direccion": "24 DE SETIEMBRE 2400  B\u00b0YAPEYU"}}, {"geometry": {"type": "Point", "coordinates": [-63.1638, -32.20011280000004]}, "properties": {"establecim": "ESC.PROV. A.ARGENTINA", "overall_total": 8, "fake_id": "3984-3987", "seccion": "6", "circuito": "00073", "votos": {"217": 304, "512": 10, "47": 130, "191": 8, "9005": 0, "514": 1149, "9006": 2770, "3": 5, "9004": 6, "9003": 5, "9002": 1, "9001": 698, "505": 350, "503": 2, "501": 94}, "direccion": "CORDOBA ESQ ANTARTIDA  ARGENTINA"}}, {"geometry": {"type": "Point", "coordinates": [-63.503903963034226, -32.360864067191045]}, "properties": {"establecim": "ESC.PROV.D.V.SARSFIELD", "overall_total": 7, "fake_id": "3993-3996", "seccion": "6", "circuito": "00074", "votos": {"217": 181, "512": 12, "47": 496, "191": 23, "9005": 1, "514": 1233, "9006": 3291, "3": 1, "9004": 4, "9003": 34, "9002": 0, "9001": 1029, "505": 160, "503": 21, "501": 89}, "direccion": "RIVADAVIA 410"}}, {"geometry": {"type": "Point", "coordinates": [-63.503903963034226, -32.360864067191045]}, "properties": {"establecim": "INST. SEC. COM. SAN JOSE", "overall_total": 12, "fake_id": "3988-3992", "seccion": "6", "circuito": "00074", "votos": {"217": 192, "512": 10, "47": 624, "191": 46, "9005": 0, "514": 1540, "9006": 4168, "3": 11, "9004": 12, "9003": 35, "9002": 0, "9001": 1314, "505": 229, "503": 29, "501": 114}, "direccion": "ARROYO CABRAL"}}, {"geometry": {"type": "Point", "coordinates": [-63.24318089999994, -32.661211899999984]}, "properties": {"establecim": "ESC.PROV.GRAL SAN MARTIN", "overall_total": 4, "fake_id": "3997-3999", "seccion": "6", "circuito": "00075", "votos": {"217": 55, "512": 14, "47": 214, "191": 9, "9005": 0, "514": 898, "9006": 2442, "3": 3, "9004": 9, "9003": 7, "9002": 0, "9001": 772, "505": 398, "503": 8, "501": 51}, "direccion": "25 DE MAYO 55"}}, {"geometry": {"type": "Point", "coordinates": [-63.27851010519998, -33.07823783149996]}, "properties": {"establecim": "ESC PROV M R DE LA TORRE", "overall_total": 6, "fake_id": "4000-4002", "seccion": "6", "circuito": "00076", "votos": {"217": 85, "512": 8, "47": 418, "191": 12, "9005": 0, "514": 960, "9006": 2500, "3": 5, "9004": 1, "9003": 11, "9002": 0, "9001": 770, "505": 151, "503": 15, "501": 58}, "direccion": "DIESCISEIS 582"}}, {"geometry": {"type": "Point", "coordinates": [-63.129869571076284, -32.909610458356674]}, "properties": {"establecim": "ESC.PROV. 12 DE OCTUBRE", "overall_total": 15, "fake_id": "4008-4012", "seccion": "6", "circuito": "00077", "votos": {"217": 543, "512": 20, "47": 499, "191": 13, "9005": 0, "514": 1721, "9006": 4599, "3": 9, "9004": 16, "9003": 25, "9002": 0, "9001": 1439, "505": 191, "503": 19, "501": 89}, "direccion": "ETRURIA"}}, {"geometry": {"type": "Point", "coordinates": [-63.129869571076284, -32.909610458356674]}, "properties": {"establecim": "INSTITUTO SEC. GRAL PAZ", "overall_total": 5, "fake_id": "4003-4007", "seccion": "6", "circuito": "00077", "votos": {"217": 455, "512": 11, "47": 590, "191": 26, "9005": 0, "514": 1721, "9006": 4669, "3": 18, "9004": 13, "9003": 18, "9002": 0, "9001": 1474, "505": 198, "503": 31, "501": 109}, "direccion": "BV.SRMIENTO Y S.NICOLA 390"}}, {"geometry": {"type": "Point", "coordinates": [-63.2412265290914, -32.802119334933266]}, "properties": {"establecim": "ESC ESTEBAN ECHEVERRIA", "overall_total": 22, "fake_id": "4013-4016", "seccion": "6", "circuito": "00078", "votos": {"217": 176, "512": 16, "47": 289, "191": 14, "9005": 0, "514": 1346, "9006": 3219, "3": 8, "9004": 18, "9003": 24, "9002": 0, "9001": 798, "505": 380, "503": 7, "501": 121}, "direccion": "GENERAL PAZ 556"}}, {"geometry": {"type": "Point", "coordinates": [-63.123950200850246, -32.040239961052016]}, "properties": {"establecim": "ESC.PROV. 25 DE MAYO", "overall_total": 21, "fake_id": "4017-4024", "seccion": "6", "circuito": "00079", "votos": {"217": 423, "512": 48, "47": 597, "191": 33, "9005": 0, "514": 2716, "9006": 6870, "3": 14, "9004": 19, "9003": 52, "9002": 0, "9001": 2077, "505": 590, "503": 47, "501": 233}, "direccion": "LA PLAYOSA"}}, {"geometry": {"type": "Point", "coordinates": [-64.18171848768465, -31.39106509121239]}, "properties": {"establecim": "ESC MANUEL LUCERO", "overall_total": 283, "fake_id": "656-673", "seccion": "1", "circuito": "0007B", "votos": {"217": 718, "512": 238, "47": 1068, "191": 214, "9005": 0, "514": 6201, "9006": 15362, "3": 122, "9004": 83, "9003": 44, "9002": 0, "9001": 4451, "505": 554, "503": 597, "501": 789}, "direccion": "MANUEL LUCERO 560 B\u00b0ALTA  CORDOBA"}}, {"geometry": {"type": "Point", "coordinates": [-64.18581558652448, -31.386574561603886]}, "properties": {"establecim": "ESC PCIA DE ENTRE RIOS", "overall_total": 195, "fake_id": "674-684", "seccion": "1", "circuito": "0007B", "votos": {"217": 439, "512": 130, "47": 611, "191": 133, "9005": 3, "514": 3788, "9006": 9242, "3": 88, "9004": 42, "9003": 19, "9002": 0, "9001": 2601, "505": 334, "503": 405, "501": 454}, "direccion": "TRAFALGAR 875 B\u00b0ALTA  CORDOBA"}}, {"geometry": {"type": "Point", "coordinates": [-64.18173059580508, -31.394679958709357]}, "properties": {"establecim": "INST CORAZON DE MARIA", "overall_total": 219, "fake_id": "685-697", "seccion": "1", "circuito": "0007B", "votos": {"217": 497, "512": 172, "47": 736, "191": 175, "9005": 0, "514": 4478, "9006": 11294, "3": 90, "9004": 80, "9003": 27, "9002": 6, "9001": 3405, "505": 399, "503": 486, "501": 524}, "direccion": "A DEL VISO 445 B\u00b0ALTA  CORDOBA"}}, {"geometry": {"type": "Point", "coordinates": [-64.18250631018488, -31.38933359165931]}, "properties": {"establecim": "INST MANUEL LUCERO", "overall_total": 176, "fake_id": "710-720", "seccion": "1", "circuito": "0007B", "votos": {"217": 400, "512": 150, "47": 575, "191": 143, "9005": 2, "514": 3789, "9006": 9569, "3": 67, "9004": 53, "9003": 19, "9002": 0, "9001": 2890, "505": 401, "503": 437, "501": 467}, "direccion": "LAVALLEJA 2257 B\u00b0ALTA  CORDOBA"}}, {"geometry": {"type": "Point", "coordinates": [-64.18384326265222, -31.38767616123638]}, "properties": {"establecim": "INST NUESTRA MADRE DE LA MERCE", "overall_total": 215, "fake_id": "698-709", "seccion": "1", "circuito": "0007B", "votos": {"217": 497, "512": 173, "47": 652, "191": 155, "9005": 3, "514": 4138, "9006": 10131, "3": 82, "9004": 42, "9003": 29, "9002": 0, "9001": 2860, "505": 368, "503": 433, "501": 484}, "direccion": "M FRAGUEIRO B\u00b0ALTA CORDOBA  2400"}}, {"geometry": {"type": "Point", "coordinates": [-64.19003539626429, -31.39626222800122]}, "properties": {"establecim": "ESC PCIA DE FORMOSA", "overall_total": 79, "fake_id": "732-738", "seccion": "1", "circuito": "0007D", "votos": {"217": 213, "512": 81, "47": 438, "191": 122, "9005": 3, "514": 2338, "9006": 5244, "3": 30, "9004": 13, "9003": 17, "9002": 1, "9001": 1210, "505": 164, "503": 207, "501": 328}, "direccion": "RODRIGUEZ PE\u00d1A 1548  B\u00b0COFICO"}}, {"geometry": {"type": "Point", "coordinates": [-64.1827791519251, -31.4028711998413]}, "properties": {"establecim": "ESC PTE SARMIENTO", "overall_total": 109, "fake_id": "722-731", "seccion": "1", "circuito": "0007D", "votos": {"217": 352, "512": 103, "47": 613, "191": 163, "9005": 1, "514": 3348, "9006": 7758, "3": 65, "9004": 37, "9003": 21, "9002": 0, "9001": 1946, "505": 239, "503": 310, "501": 451}, "direccion": "R SAENZ PE\u00d1A 1212 B\u00b0COFICO"}}, {"geometry": {"type": "Point", "coordinates": [-64.18804935665528, -31.39629841639877]}, "properties": {"establecim": "ESC. GARCIA FAURE", "overall_total": 113, "fake_id": "739-747", "seccion": "1", "circuito": "0007D", "votos": {"217": 271, "512": 103, "47": 515, "191": 126, "9005": 0, "514": 3012, "9006": 7161, "3": 58, "9004": 16, "9003": 20, "9002": 0, "9001": 1953, "505": 258, "503": 315, "501": 401}, "direccion": "JERONIMO LUIS DE CABRERA  834"}}, {"geometry": {"type": "Point", "coordinates": [-64.19480522545643, -31.3638023682851]}, "properties": {"establecim": "ESC HONORATO LACONI", "overall_total": 279, "fake_id": "748-761", "seccion": "1", "circuito": "0007E", "votos": {"217": 540, "512": 252, "47": 811, "191": 139, "9005": 3, "514": 4755, "9006": 12155, "3": 96, "9004": 69, "9003": 22, "9002": 0, "9001": 3558, "505": 476, "503": 569, "501": 586}, "direccion": "T DE IROBI B\u00b0M DE  SOBREMONTE"}}, {"geometry": {"type": "Point", "coordinates": [-64.20419851069902, -31.36751651332893]}, "properties": {"establecim": "ESC PETER PAN", "overall_total": 296, "fake_id": "762-775", "seccion": "1", "circuito": "0007E", "votos": {"217": 494, "512": 222, "47": 681, "191": 156, "9005": 3, "514": 4412, "9006": 11560, "3": 115, "9004": 75, "9003": 35, "9002": 0, "9001": 3586, "505": 440, "503": 547, "501": 498}, "direccion": "P DE GUZMAN 131 B\u00b0M DE  SOBREMONTE"}}, {"geometry": {"type": "Point", "coordinates": [-64.19501394921168, -31.3634276218496]}, "properties": {"establecim": "J DE INF B.RIVADAVIA", "overall_total": 66, "fake_id": "776-778", "seccion": "1", "circuito": "0007E", "votos": {"217": 112, "512": 57, "47": 177, "191": 37, "9005": 0, "514": 1019, "9006": 2384, "3": 22, "9004": 7, "9003": 8, "9002": 0, "9001": 537, "505": 88, "503": 131, "501": 123}, "direccion": "NUFLO DE AGUILAR 541"}}, {"geometry": {"type": "Point", "coordinates": [-64.18693686549541, -31.366455983854266]}, "properties": {"establecim": "ESC ARTURO CAPDEVILA", "overall_total": 318, "fake_id": "819-830", "seccion": "1", "circuito": "0007G", "votos": {"217": 475, "512": 207, "47": 570, "191": 135, "9005": 0, "514": 4136, "9006": 10649, "3": 90, "9004": 87, "9003": 21, "9002": 0, "9001": 3234, "505": 471, "503": 431, "501": 474}, "direccion": "AVELLANEDA 4100  B\u00b0MFRAGUEIRO"}}, {"geometry": {"type": "Point", "coordinates": [-64.18220811593962, -31.368014035773083]}, "properties": {"establecim": "IPEM 199 \"JUAN EMILIO REMONDA\"", "overall_total": 170, "fake_id": "847-852", "seccion": "1", "circuito": "0007G", "votos": {"217": 236, "512": 75, "47": 326, "191": 55, "9005": 1, "514": 2063, "9006": 4978, "3": 49, "9004": 34, "9003": 6, "9002": 0, "9001": 1321, "505": 216, "503": 188, "501": 238}, "direccion": "SOSA REVELLO Y 15 DE  SEPTIEMBRE 590"}}, {"geometry": {"type": "Point", "coordinates": [-64.18693686549541, -31.366455983854266]}, "properties": {"establecim": "J DE INF ARTURO CAPDEVILA", "overall_total": 55, "fake_id": "843-844", "seccion": "1", "circuito": "0007G", "votos": {"217": 91, "512": 29, "47": 93, "191": 18, "9005": 0, "514": 686, "9006": 1752, "3": 23, "9004": 14, "9003": 5, "9002": 0, "9001": 533, "505": 58, "503": 63, "501": 84}, "direccion": "AVELLANEDA 4100 B\u00b0M  FRAGUEIRO"}}, {"geometry": {"type": "Point", "coordinates": [-63.478286699999984, -32.542345599999976]}, "properties": {"establecim": "ESC.PROV.J.V.GONZALEZ", "overall_total": 3, "fake_id": "4025-4026", "seccion": "6", "circuito": "00080", "votos": {"217": 42, "512": 8, "47": 90, "191": 4, "9005": 0, "514": 603, "9006": 1349, "3": 5, "9004": 0, "9003": 4, "9002": 0, "9001": 248, "505": 273, "503": 1, "501": 68}, "direccion": "9 DE JULIO 350"}}, {"geometry": {"type": "Point", "coordinates": [-63.23368666019999, -32.30450454299996]}, "properties": {"establecim": "ESC.PROV. ISLAS MALVINAS", "overall_total": 0, "fake_id": "4027-4027", "seccion": "6", "circuito": "00081", "votos": {"217": 12, "512": 3, "47": 11, "191": 7, "9005": 0, "514": 77, "9006": 193, "3": 1, "9004": 2, "9003": 0, "9002": 0, "9001": 58, "505": 14, "503": 1, "501": 7}, "direccion": "RUTA PROV N 158 0"}}, {"geometry": {"type": "Point", "coordinates": [-63.409349068799955, -32.612244258500006]}, "properties": {"establecim": "ESC PROV CMTE L PIEDRABUENA", "overall_total": 0, "fake_id": "4028-4029", "seccion": "6", "circuito": "00082", "votos": {"217": 181, "512": 6, "47": 145, "191": 4, "9005": 0, "514": 529, "9006": 1196, "3": 2, "9004": 0, "9003": 19, "9002": 0, "9001": 222, "505": 48, "503": 5, "501": 35}, "direccion": "FELIPE LORENZATTI 875"}}, {"geometry": {"type": "Point", "coordinates": [-63.34053902759996, -32.7470387648]}, "properties": {"establecim": "ESC.PROV.D.F.SARMIENTO", "overall_total": 38, "fake_id": "4030-4033", "seccion": "6", "circuito": "00083", "votos": {"217": 90, "512": 13, "47": 207, "191": 19, "9005": 0, "514": 1141, "9006": 2495, "3": 11, "9004": 27, "9003": 18, "9002": 0, "9001": 458, "505": 339, "503": 14, "501": 120}, "direccion": "PASCO"}}, {"geometry": {"type": "Point", "coordinates": [-63.2488296, -32.527799199999976]}, "properties": {"establecim": "ESC PROV JOSE DE SAN MARTIN", "overall_total": 0, "fake_id": "4034-4034", "seccion": "6", "circuito": "00084", "votos": {"217": 5, "512": 2, "47": 12, "191": 0, "9005": 0, "514": 50, "9006": 120, "3": 0, "9004": 0, "9003": 5, "9002": 0, "9001": 35, "505": 7, "503": 0, "501": 4}, "direccion": "PUBLICA S/N"}}, {"geometry": {"type": "Point", "coordinates": [-62.930106799999955, -32.25004130000003]}, "properties": {"establecim": "ESC.PROV.M.GUEMES", "overall_total": 5, "fake_id": "4035-4036", "seccion": "6", "circuito": "00086", "votos": {"217": 48, "512": 17, "47": 238, "191": 10, "9005": 0, "514": 654, "9006": 1694, "3": 1, "9004": 5, "9003": 8, "9002": 0, "9001": 520, "505": 118, "503": 17, "501": 53}, "direccion": "ANTONIO CONRERO 24"}}, {"geometry": {"type": "Point", "coordinates": [-63.434691302599965, -32.69466448719998]}, "properties": {"establecim": "ESC. A. CAPDEVILA", "overall_total": 20, "fake_id": "4037-4042", "seccion": "6", "circuito": "00087", "votos": {"217": 146, "512": 31, "47": 483, "191": 31, "9005": 0, "514": 1915, "9006": 4961, "3": 18, "9004": 6, "9003": 44, "9002": 0, "9001": 1523, "505": 524, "503": 35, "501": 185}, "direccion": "TICINO"}}, {"geometry": {"type": "Point", "coordinates": [-63.461953661239804, -32.2913386262478]}, "properties": {"establecim": "ESC.R.DE ESCALADA", "overall_total": 23, "fake_id": "4043-4051", "seccion": "6", "circuito": "00088", "votos": {"217": 253, "512": 38, "47": 435, "191": 29, "9005": 0, "514": 2892, "9006": 7526, "3": 8, "9004": 25, "9003": 18, "9002": 0, "9001": 2317, "505": 1124, "503": 69, "501": 295}, "direccion": "TIO PUJIO"}}, {"geometry": {"type": "Point", "coordinates": [-63.2492097782163, -32.41293132566267]}, "properties": {"establecim": "CENMA N\u00b0 96", "overall_total": 23, "fake_id": "4239-4246", "seccion": "6", "circuito": "00089", "votos": {"217": 763, "512": 59, "47": 399, "191": 53, "9005": 0, "514": 2758, "9006": 6819, "3": 48, "9004": 39, "9003": 21, "9002": 0, "9001": 1896, "505": 346, "503": 75, "501": 339}, "direccion": "SANTA FE 643"}}, {"geometry": {"type": "Point", "coordinates": [-63.24975375939299, -32.41230056533812]}, "properties": {"establecim": "ESC.COM.A.OCAMPO", "overall_total": 23, "fake_id": "4200-4211", "seccion": "6", "circuito": "00089", "votos": {"217": 1042, "512": 69, "47": 533, "191": 86, "9005": 2, "514": 3790, "9006": 9724, "3": 61, "9004": 52, "9003": 41, "9002": 1, "9001": 2967, "505": 443, "503": 108, "501": 506}, "direccion": "CATAMARCA 650"}}, {"geometry": {"type": "Point", "coordinates": [-63.246078927860836, -32.41781150734939]}, "properties": {"establecim": "ESC.DR. J.BIANCO", "overall_total": 25, "fake_id": "4064-4075", "seccion": "6", "circuito": "00089", "votos": {"217": 1155, "512": 62, "47": 638, "191": 93, "9005": 1, "514": 4154, "9006": 10616, "3": 64, "9004": 45, "9003": 35, "9002": 1, "9001": 3231, "505": 511, "503": 137, "501": 464}, "direccion": "BELGRANO 302"}}, {"geometry": {"type": "Point", "coordinates": [-63.24345985132633, -32.40928987722655]}, "properties": {"establecim": "ESC.J.INGENIEROS", "overall_total": 37, "fake_id": "4226-4238", "seccion": "6", "circuito": "00089", "votos": {"217": 1103, "512": 65, "47": 629, "191": 106, "9005": 0, "514": 4138, "9006": 10678, "3": 50, "9004": 65, "9003": 29, "9002": 0, "9001": 3265, "505": 515, "503": 132, "501": 544}, "direccion": "SANTA FE 1271"}}, {"geometry": {"type": "Point", "coordinates": [-63.24525059029585, -32.40411656600996]}, "properties": {"establecim": "ESC.REP.DEL PARAGUAY", "overall_total": 22, "fake_id": "4076-4085", "seccion": "6", "circuito": "00089", "votos": {"217": 749, "512": 58, "47": 639, "191": 100, "9005": 1, "514": 3450, "9006": 8944, "3": 62, "9004": 36, "9003": 26, "9002": 1, "9001": 2747, "505": 444, "503": 108, "501": 501}, "direccion": "CHILE 565"}}, {"geometry": {"type": "Point", "coordinates": [-63.25421926827582, -32.413095660309445]}, "properties": {"establecim": "ESCUELA J.MARMOL", "overall_total": 27, "fake_id": "4054-4063", "seccion": "6", "circuito": "00089", "votos": {"217": 991, "512": 56, "47": 464, "191": 158, "9005": 0, "514": 3466, "9006": 8947, "3": 39, "9004": 40, "9003": 34, "9002": 0, "9001": 2730, "505": 386, "503": 111, "501": 445}, "direccion": "NAC. UNIDAS 385"}}, {"geometry": {"type": "Point", "coordinates": [-63.2495, -32.4049]}, "properties": {"establecim": "INST.LA SANTISIMA TRINIDAD", "overall_total": 92, "fake_id": "4116-4141", "seccion": "6", "circuito": "00089", "votos": {"217": 2390, "512": 175, "47": 1325, "191": 230, "9005": 1, "514": 8961, "9006": 22005, "3": 114, "9004": 117, "9003": 89, "9002": 0, "9001": 6018, "505": 1043, "503": 306, "501": 1144}, "direccion": "SARSFIELD 1072"}}, {"geometry": {"type": "Point", "coordinates": [-63.1481429000128, -32.46656179504918]}, "properties": {"establecim": "INSTITUTO DEL ROSARIO", "overall_total": 88, "fake_id": "4086-4115", "seccion": "6", "circuito": "00089", "votos": {"217": 2669, "512": 184, "47": 1499, "191": 231, "9005": 9, "514": 10003, "9006": 25562, "3": 146, "9004": 135, "9003": 96, "9002": 0, "9001": 7689, "505": 1199, "503": 337, "501": 1277}, "direccion": "BV.ALVEAR 68"}}, {"geometry": {"type": "Point", "coordinates": [-63.2471, -32.4117]}, "properties": {"establecim": "INSTITUTO SAN ANTONIO", "overall_total": 8, "fake_id": "4247-4250", "seccion": "6", "circuito": "00089", "votos": {"217": 354, "512": 22, "47": 232, "191": 35, "9005": 0, "514": 1380, "9006": 3551, "3": 26, "9004": 20, "9003": 9, "9002": 7, "9001": 1080, "505": 153, "503": 40, "501": 185}, "direccion": "RUCCI 141"}}, {"geometry": {"type": "Point", "coordinates": [-63.242728109821506, -32.419792324513935]}, "properties": {"establecim": "IPEM N\u00b0275 EX COLEGIO NACIONAL", "overall_total": 44, "fake_id": "4185-4199", "seccion": "6", "circuito": "00089", "votos": {"217": 1297, "512": 89, "47": 765, "191": 114, "9005": 4, "514": 4834, "9006": 12165, "3": 58, "9004": 65, "9003": 46, "9002": 5, "9001": 3535, "505": 587, "503": 154, "501": 568}, "direccion": "S.DEL ESTERO 618"}}, {"geometry": {"type": "Point", "coordinates": [-64.1183667154273, -31.387972755871868]}, "properties": {"establecim": "ESC EMILIO E SANCHEZ", "overall_total": 235, "fake_id": "855-865", "seccion": "1", "circuito": "0008A", "votos": {"217": 341, "512": 120, "47": 614, "191": 99, "9005": 3, "514": 3625, "9006": 9429, "3": 126, "9004": 36, "9003": 33, "9002": 1, "9001": 2901, "505": 595, "503": 314, "501": 386}, "direccion": "BARRIENTOS Y HERRERA B\u00b0AMPL  PALMAR"}}, {"geometry": {"type": "Point", "coordinates": [-64.16588208510126, -31.3984379671678]}, "properties": {"establecim": "ESC DEAN FUNES", "overall_total": 190, "fake_id": "881-890", "seccion": "1", "circuito": "0008B", "votos": {"217": 321, "512": 140, "47": 515, "191": 90, "9005": 4, "514": 3452, "9006": 8544, "3": 80, "9004": 61, "9003": 16, "9002": 1, "9001": 2545, "505": 405, "503": 319, "501": 405}, "direccion": "ANA M JANER 1551  B\u00b0PUEYRREDON"}}, {"geometry": {"type": "Point", "coordinates": [-64.17513853205182, -31.402913891552622]}, "properties": {"establecim": "ESC FRAY J A DE SAN ALBERTO", "overall_total": 131, "fake_id": "866-872", "seccion": "1", "circuito": "0008B", "votos": {"217": 199, "512": 100, "47": 364, "191": 87, "9005": 0, "514": 2422, "9006": 5962, "3": 46, "9004": 27, "9003": 12, "9002": 10, "9001": 1767, "505": 284, "503": 219, "501": 294}, "direccion": "ESQUIU 1340 B\u00b0PUEYRREDON"}}, {"geometry": {"type": "Point", "coordinates": [-64.16397867989649, -31.399588357995118]}, "properties": {"establecim": "ESC ROBLES", "overall_total": 257, "fake_id": "901-912", "seccion": "1", "circuito": "0008B", "votos": {"217": 390, "512": 155, "47": 613, "191": 126, "9005": 0, "514": 4143, "9006": 9920, "3": 78, "9004": 60, "9003": 29, "9002": 6, "9001": 2636, "505": 520, "503": 424, "501": 483}, "direccion": "PADRE LUIS MONTI 1850  B\u00b0PUEYRREDON"}}, {"geometry": {"type": "Point", "coordinates": [-64.16458511500123, -31.401150605871308]}, "properties": {"establecim": "INST OBISPO CAIXAL", "overall_total": 159, "fake_id": "873-880", "seccion": "1", "circuito": "0008B", "votos": {"217": 240, "512": 88, "47": 478, "191": 83, "9005": 0, "514": 2763, "9006": 6903, "3": 67, "9004": 45, "9003": 26, "9002": 0, "9001": 2070, "505": 301, "503": 264, "501": 319}, "direccion": "ANA M JANER 1250  B\u00b0PUEYRREDON"}}, {"geometry": {"type": "Point", "coordinates": [-64.16360540865777, -31.402340396606405]}, "properties": {"establecim": "INST SAGRADA FAMILIA", "overall_total": 159, "fake_id": "913-922", "seccion": "1", "circuito": "0008B", "votos": {"217": 299, "512": 111, "47": 490, "191": 109, "9005": 0, "514": 3099, "9006": 7715, "3": 70, "9004": 44, "9003": 18, "9002": 0, "9001": 2308, "505": 351, "503": 316, "501": 341}, "direccion": "BUCHARDO 1729 B\u00b0  PUEYRREDON"}}, {"geometry": {"type": "Point", "coordinates": [-64.1674254899678, -31.403140902836626]}, "properties": {"establecim": "INST SAGRADO CORAZON", "overall_total": 210, "fake_id": "891-900", "seccion": "1", "circuito": "0008B", "votos": {"217": 298, "512": 134, "47": 539, "191": 113, "9005": 1, "514": 3456, "9006": 8326, "3": 76, "9004": 51, "9003": 28, "9002": 4, "9001": 2298, "505": 371, "503": 346, "501": 401}, "direccion": "ROMA 1153 B\u00b0PUEYRREDON"}}, {"geometry": {"type": "Point", "coordinates": [-64.13764259081479, -31.392374492260195]}, "properties": {"establecim": "ESC ALMIRANTE BROWN", "overall_total": 296, "fake_id": "935-947", "seccion": "1", "circuito": "0008C", "votos": {"217": 435, "512": 172, "47": 714, "191": 114, "9005": 2, "514": 4365, "9006": 10664, "3": 119, "9004": 91, "9003": 43, "9002": 1, "9001": 2882, "505": 507, "503": 412, "501": 511}, "direccion": "SAN MARTIN S/N\u00b0 B\u00b0 YOFRE SUD"}}, {"geometry": {"type": "Point", "coordinates": [-64.13738895328287, -31.395040812589894]}, "properties": {"establecim": "ESC TRINIDAD MORENO", "overall_total": 272, "fake_id": "923-934", "seccion": "1", "circuito": "0008C", "votos": {"217": 390, "512": 154, "47": 656, "191": 116, "9005": 3, "514": 4027, "9006": 9853, "3": 100, "9004": 87, "9003": 42, "9002": 21, "9001": 2637, "505": 484, "503": 409, "501": 455}, "direccion": "E SAN MARTIN 1251 B\u00b0YOFRE  SUD"}}, {"geometry": {"type": "Point", "coordinates": [-63.24835746844768, -32.43693243881911]}, "properties": {"establecim": "ESC.BME.MITRE", "overall_total": 27, "fake_id": "4251-4258", "seccion": "6", "circuito": "00090", "votos": {"217": 910, "512": 48, "47": 347, "191": 45, "9005": 1, "514": 2761, "9006": 7367, "3": 31, "9004": 24, "9003": 36, "9002": 0, "9001": 2303, "505": 525, "503": 65, "501": 244}, "direccion": "MITRE 1147"}}, {"geometry": {"type": "Point", "coordinates": [-63.250582233245524, -32.43688806803237]}, "properties": {"establecim": "ESC.REP.DE BOLIVIA", "overall_total": 6, "fake_id": "4293-4296", "seccion": "6", "circuito": "00090", "votos": {"217": 247, "512": 4, "47": 77, "191": 11, "9005": 0, "514": 688, "9006": 1751, "3": 4, "9004": 10, "9003": 10, "9002": 0, "9001": 564, "505": 47, "503": 11, "501": 72}, "direccion": "D.FUNES 1250"}}, {"geometry": {"type": "Point", "coordinates": [-63.24606996238263, -32.43613192984504]}, "properties": {"establecim": "INSTITUTO INMAC.CONCEPCION", "overall_total": 41, "fake_id": "4269-4281", "seccion": "6", "circuito": "00090", "votos": {"217": 1452, "512": 63, "47": 520, "191": 101, "9005": 0, "514": 4491, "9006": 11203, "3": 25, "9004": 49, "9003": 42, "9002": 1, "9001": 3096, "505": 881, "503": 91, "501": 350}, "direccion": "CABANILLAS 400"}}, {"geometry": {"type": "Point", "coordinates": [-64.20659939999994, -30.595175099999974]}, "properties": {"establecim": "ESC.PROV.FRAY M. ESQUIU", "overall_total": 1, "fake_id": "4297-4298", "seccion": "7", "circuito": "00091", "votos": {"217": 17, "512": 2, "47": 144, "191": 0, "9005": 1, "514": 437, "9006": 1160, "3": 0, "9004": 6, "9003": 4, "9002": 0, "9001": 362, "505": 178, "503": 2, "501": 6}, "direccion": "PUBLICA S/N"}}, {"geometry": {"type": "Point", "coordinates": [-64.55737205639993, -30.615762728099988]}, "properties": {"establecim": "ESC.PROV.R. DE NICARAGUA", "overall_total": 0, "fake_id": "4304-4304", "seccion": "7", "circuito": "00093", "votos": {"217": 9, "512": 2, "47": 58, "191": 0, "9005": 0, "514": 312, "9006": 820, "3": 0, "9004": 0, "9003": 0, "9002": 0, "9001": 254, "505": 183, "503": 1, "501": 1}, "direccion": "COPACABANA"}}, {"geometry": {"type": "Point", "coordinates": [-64.6662511129, -30.469242164100017]}, "properties": {"establecim": "ESC PROV GRAL M GUEMES", "overall_total": 0, "fake_id": "4305-4306", "seccion": "7", "circuito": "00094", "votos": {"217": 15, "512": 1, "47": 178, "191": 3, "9005": 0, "514": 604, "9006": 1586, "3": 1, "9004": 2, "9003": 6, "9002": 5, "9001": 489, "505": 270, "503": 5, "501": 7}, "direccion": "PUBLICA S/N"}}, {"geometry": {"type": "Point", "coordinates": [-64.34243799193925, -30.429313454052565]}, "properties": {"establecim": "ESC.A.M.SOBRAL", "overall_total": 56, "fake_id": "4347-4355", "seccion": "7", "circuito": "00095", "votos": {"217": 261, "512": 22, "47": 954, "191": 35, "9005": 1, "514": 3105, "9006": 7877, "3": 17, "9004": 33, "9003": 45, "9002": 0, "9001": 2251, "505": 913, "503": 60, "501": 124}, "direccion": "SANTIAGO DEL ESTERO Y LAS  HERAS 0"}}, {"geometry": {"type": "Point", "coordinates": [-64.3484045381451, -30.412754057512505]}, "properties": {"establecim": "ESC.AMANDA SUAREZ CORDOBA", "overall_total": 16, "fake_id": "4356-4358", "seccion": "7", "circuito": "00095", "votos": {"217": 92, "512": 10, "47": 321, "191": 17, "9005": 0, "514": 1034, "9006": 2744, "3": 12, "9004": 14, "9003": 15, "9002": 0, "9001": 855, "505": 289, "503": 22, "501": 47}, "direccion": "SANTA ROSA ESQ. AMADEO  SABATTINI 0"}}, {"geometry": {"type": "Point", "coordinates": [-64.36233725145702, -30.414813764432484]}, "properties": {"establecim": "ESC.M.J.G.DE BELGRANO", "overall_total": 51, "fake_id": "4316-4325", "seccion": "7", "circuito": "00095", "votos": {"217": 273, "512": 39, "47": 1054, "191": 24, "9005": 1, "514": 3465, "9006": 8935, "3": 17, "9004": 65, "9003": 24, "9002": 0, "9001": 2763, "505": 940, "503": 68, "501": 151}, "direccion": "JERONIMO L DE CABRERA L  ALGARROBO 451"}}, {"geometry": {"type": "Point", "coordinates": [-64.35575509561767, -30.423730280605582]}, "properties": {"establecim": "ESC.PEDRO N.ARIAS", "overall_total": 65, "fake_id": "4326-4336", "seccion": "7", "circuito": "00095", "votos": {"217": 313, "512": 47, "47": 1147, "191": 28, "9005": 1, "514": 3814, "9006": 9599, "3": 27, "9004": 39, "9003": 44, "9002": 0, "9001": 2746, "505": 1098, "503": 70, "501": 160}, "direccion": "CORDOBA 87"}}, {"geometry": {"type": "Point", "coordinates": [-64.34954777941618, -30.42784394664007]}, "properties": {"establecim": "ESC.PROV. M.MORENO", "overall_total": 43, "fake_id": "4337-4346", "seccion": "7", "circuito": "00095", "votos": {"217": 283, "512": 36, "47": 992, "191": 48, "9005": 0, "514": 3465, "9006": 8663, "3": 28, "9004": 46, "9003": 45, "9002": 0, "9001": 2464, "505": 988, "503": 65, "501": 160}, "direccion": "DORREGO OBRAS SANITARIA  326"}}, {"geometry": {"type": "Point", "coordinates": [-64.34912350719446, -30.42000853920329]}, "properties": {"establecim": "ESC.PROV.GRAL SAN MARTIN", "overall_total": 47, "fake_id": "4307-4315", "seccion": "7", "circuito": "00095", "votos": {"217": 274, "512": 26, "47": 915, "191": 24, "9005": 0, "514": 3123, "9006": 8103, "3": 24, "9004": 47, "9003": 27, "9002": 0, "9001": 2490, "505": 894, "503": 72, "501": 140}, "direccion": "DEAN FUNES"}}, {"geometry": {"type": "Point", "coordinates": [-64.36537157019998, -30.580031133800002]}, "properties": {"establecim": "ESCUELA FERNANDO FADER", "overall_total": 0, "fake_id": "4361-4361", "seccion": "7", "circuito": "00097", "votos": {"217": 4, "512": 1, "47": 34, "191": 0, "9005": 0, "514": 91, "9006": 207, "3": 0, "9004": 0, "9003": 0, "9002": 0, "9001": 58, "505": 16, "503": 1, "501": 2}, "direccion": "PUBLICA S/N"}}, {"geometry": {"type": "Point", "coordinates": [-64.53872684400002, -30.409496724900013]}, "properties": {"establecim": "ESCUELA FRAY GUILLERMO BUTLER", "overall_total": 0, "fake_id": "4362-4362", "seccion": "7", "circuito": "00098", "votos": {"217": 12, "512": 0, "47": 14, "191": 0, "9005": 0, "514": 61, "9006": 159, "3": 0, "9004": 2, "9003": 2, "9002": 0, "9001": 49, "505": 17, "503": 0, "501": 2}, "direccion": "PUBLICA S/N"}}, {"geometry": {"type": "Point", "coordinates": [-64.4946300001302, -30.217119996370027]}, "properties": {"establecim": "ESC.CIUDAD DE BS.AIRES", "overall_total": 13, "fake_id": "4363-4368", "seccion": "7", "circuito": "00099", "votos": {"217": 74, "512": 20, "47": 876, "191": 25, "9005": 1, "514": 1976, "9006": 4859, "3": 7, "9004": 23, "9003": 26, "9002": 0, "9001": 1310, "505": 407, "503": 28, "501": 73}, "direccion": "QUILINO ESTACION"}}, {"geometry": {"type": "Point", "coordinates": [-64.4946300001302, -30.217119996370027]}, "properties": {"establecim": "ESC.PROV.M.BELGRANO", "overall_total": 11, "fake_id": "4369-4374", "seccion": "7", "circuito": "00099", "votos": {"217": 75, "512": 17, "47": 807, "191": 8, "9005": 0, "514": 1974, "9006": 4786, "3": 4, "9004": 21, "9003": 28, "9002": 9, "9001": 1275, "505": 472, "503": 19, "501": 66}, "direccion": "QUILINO ESTACION"}}, {"geometry": {"type": "Point", "coordinates": [-64.20933815820462, -31.37417363143953]}, "properties": {"establecim": "COL PQUIAL C NAMUNCURA", "overall_total": 105, "fake_id": "973-980", "seccion": "1", "circuito": "0009A", "votos": {"217": 324, "512": 107, "47": 472, "191": 114, "9005": 0, "514": 2715, "9006": 6950, "3": 70, "9004": 21, "9003": 19, "9002": 5, "9001": 2092, "505": 291, "503": 259, "501": 356}, "direccion": "CIUDAD DEL BARCO 3315 LA  FRANC"}}, {"geometry": {"type": "Point", "coordinates": [-64.20784329076528, -31.3743149937587]}, "properties": {"establecim": "ESC MAHATMA GANDHI", "overall_total": 81, "fake_id": "966-972", "seccion": "1", "circuito": "0009A", "votos": {"217": 199, "512": 87, "47": 352, "191": 62, "9005": 0, "514": 2038, "9006": 5220, "3": 46, "9004": 32, "9003": 9, "9002": 0, "9001": 1591, "505": 203, "503": 217, "501": 303}, "direccion": "TALAVERA DE MADRID 3261  B\u00b0LA FRANCE"}}, {"geometry": {"type": "Point", "coordinates": [-64.21225116900388, -31.376901123513772]}, "properties": {"establecim": "ESC CONGRESO DE TUCUMAN", "overall_total": 53, "fake_id": "989-994", "seccion": "1", "circuito": "0009B", "votos": {"217": 189, "512": 63, "47": 395, "191": 83, "9005": 4, "514": 2041, "9006": 4960, "3": 68, "9004": 16, "9003": 8, "9002": 0, "9001": 1332, "505": 193, "503": 203, "501": 312}, "direccion": "MALVINO 2772 B\u00b0LAS  MARGARITAS"}}, {"geometry": {"type": "Point", "coordinates": [-64.22090906795206, -31.371739340709063]}, "properties": {"establecim": "ESC MIGUEL RODRIGUEZ DE LA TOR", "overall_total": 140, "fake_id": "995-1004", "seccion": "1", "circuito": "0009B", "votos": {"217": 324, "512": 109, "47": 633, "191": 143, "9005": 0, "514": 3393, "9006": 8432, "3": 89, "9004": 37, "9003": 12, "9002": 0, "9001": 2396, "505": 287, "503": 323, "501": 546}, "direccion": "LA GRANJA 3199 B\u00b0ALTO VERDE"}}, {"geometry": {"type": "Point", "coordinates": [-64.22227008347136, -31.38286605600441]}, "properties": {"establecim": "ESC RICARDO ROJAS", "overall_total": 92, "fake_id": "981-988", "seccion": "1", "circuito": "0009B", "votos": {"217": 294, "512": 104, "47": 484, "191": 139, "9005": 1, "514": 2722, "9006": 6697, "3": 78, "9004": 20, "9003": 12, "9002": 0, "9001": 1857, "505": 234, "503": 282, "501": 378}, "direccion": "J.LOPEZ 2050 B\u00b0ALTOS DE V  CABRER"}}, {"geometry": {"type": "Point", "coordinates": [-64.19573433223859, -31.384768877297994]}, "properties": {"establecim": "COLEGIO FERMIN LAFITTE", "overall_total": 217, "fake_id": "1015-1024", "seccion": "1", "circuito": "0009C", "votos": {"217": 340, "512": 175, "47": 506, "191": 87, "9005": 0, "514": 3434, "9006": 8400, "3": 107, "9004": 76, "9003": 17, "9002": 0, "9001": 2345, "505": 365, "503": 349, "501": 382}, "direccion": "FCO VALLE 2443 B\u00b0LOS  PARAISOS"}}, {"geometry": {"type": "Point", "coordinates": [-64.20028692852867, -31.37753461349482]},