{"type": "FeatureCollection", "features": [{"geometry": {"type": "Point", "coordinates": [-64.18965445684096, -31.414637452814794]}, "properties": {"establecim": "CENTRO EDUC.NIVEL MEDIO ADULTO", "overall_total": 91, "fake_id": "1-7", "seccion": "1", "circuito": "00001", "votos": {"217": 206, "512": 68, "47": 389, "191": 95, "9005": 0, "514": 2405, "9006": 5721, "3": 67, "9004": 26, "9003": 17, "9002": 3, "9001": 1658, "505": 156, "503": 225, "501": 315}, "direccion": "DEAN FUNES 417"}}, {"geometry": {"type": "Point", "coordinates": [-64.18654762070709, -31.41924332268387]}, "properties": {"establecim": "COL NAC DE MONSERRAT", "overall_total": 205, "fake_id": "20-36", "seccion": "1", "circuito": "00001", "votos": {"217": 526, "512": 183, "47": 991, "191": 231, "9005": 4, "514": 5834, "9006": 13896, "3": 150, "9004": 46, "9003": 31, "9002": 1, "9001": 4031, "505": 490, "503": 465, "501": 708}, "direccion": "OBISPO TREJO 294"}}, {"geometry": {"type": "Point", "coordinates": [-64.18878752908263, -31.417706629701698]}, "properties": {"establecim": "ESC NUESTRA SE\u00d1ORA DEL HUERTO", "overall_total": 130, "fake_id": "8-19", "seccion": "1", "circuito": "00001", "votos": {"217": 386, "512": 101, "47": 677, "191": 176, "9005": 1, "514": 4120, "9006": 9762, "3": 108, "9004": 34, "9003": 23, "9002": 0, "9001": 2821, "505": 325, "503": 338, "501": 522}, "direccion": "BELGRANO 269"}}, {"geometry": {"type": "Point", "coordinates": [-64.15753616999253, -31.410499244959233]}, "properties": {"establecim": "COL SAN RAMON NONATO", "overall_total": 129, "fake_id": "544-550", "seccion": "1", "circuito": "00006", "votos": {"217": 187, "512": 100, "47": 357, "191": 60, "9005": 0, "514": 2342, "9006": 5637, "3": 55, "9004": 14, "9003": 19, "9002": 0, "9001": 1516, "505": 312, "503": 264, "501": 282}, "direccion": "AVDA PATRIA 282 B\u00b0ALTO GRAL  PA"}}, {"geometry": {"type": "Point", "coordinates": [-64.15032482481784, -31.391752169611784]}, "properties": {"establecim": "ESC ARISTOBULO DEL VALLE", "overall_total": 177, "fake_id": "2367-2376", "seccion": "1", "circuito": "00013", "votos": {"217": 294, "512": 138, "47": 540, "191": 109, "9005": 0, "514": 3394, "9006": 7148, "3": 73, "9004": 45, "9003": 18, "9002": 0, "9001": 1245, "505": 380, "503": 291, "501": 444}, "direccion": "M DE JAUREGUI 1657 B\u00b0L N  ALEM"}}, {"geometry": {"type": "Point", "coordinates": [-64.57285640000002, -32.1751529]}, "properties": {"establecim": "ESC PROV D VELEZ SARFIELD", "overall_total": 3, "fake_id": "3085-3085", "seccion": "2", "circuito": "00015", "votos": {"217": 28, "512": 6, "47": 52, "191": 2, "9005": 0, "514": 253, "9006": 661, "3": 0, "9004": 4, "9003": 2, "9002": 0, "9001": 204, "505": 99, "503": 3, "501": 5}, "direccion": "AYLLU 0"}}, {"geometry": {"type": "Point", "coordinates": [-64.39894978736413, -32.21479858617304]}, "properties": {"establecim": "ESCUELA B. ROLDAN", "overall_total": 54, "fake_id": "3092-3101", "seccion": "2", "circuito": "00017", "votos": {"217": 400, "512": 83, "47": 426, "191": 47, "9005": 0, "514": 3317, "9006": 8519, "3": 44, "9004": 66, "9003": 21, "9002": 0, "9001": 2604, "505": 1072, "503": 156, "501": 229}, "direccion": "TUCUMAN 121"}}, {"geometry": {"type": "Point", "coordinates": [-64.42026029600852, -32.213740082102206]}, "properties": {"establecim": "ESCUELA R. OBLIGADO", "overall_total": 76, "fake_id": "3102-3111", "seccion": "2", "circuito": "00017", "votos": {"217": 425, "512": 77, "47": 383, "191": 63, "9005": 0, "514": 3324, "9006": 8388, "3": 28, "9004": 59, "9003": 29, "9002": 0, "9001": 2403, "505": 1133, "503": 155, "501": 233}, "direccion": "CAMINO A HOTELES DE U.T.E.  PUBLICA 0"}}, {"geometry": {"type": "Point", "coordinates": [-64.48340059999997, -32.30300539999998]}, "properties": {"establecim": "ESC PROV DOMINGO F SARMIENTO", "overall_total": 6, "fake_id": "3112-3114", "seccion": "2", "circuito": "00018", "votos": {"217": 28, "512": 8, "47": 268, "191": 9, "9005": 0, "514": 877, "9006": 2287, "3": 8, "9004": 12, "9003": 9, "9002": 0, "9001": 705, "505": 313, "503": 11, "501": 33}, "direccion": "SARMIENTO 376"}}, {"geometry": {"type": "Point", "coordinates": [-64.48321562413902, -32.30215400138417]}, "properties": {"establecim": "INST DR D VELEZ SARSFIELD", "overall_total": 6, "fake_id": "3115-3116", "seccion": "2", "circuito": "00018", "votos": {"217": 15, "512": 3, "47": 164, "191": 4, "9005": 0, "514": 582, "9006": 1506, "3": 2, "9004": 2, "9003": 3, "9002": 0, "9001": 462, "505": 232, "503": 10, "501": 21}, "direccion": "SARMIENTO 236"}}, {"geometry": {"type": "Point", "coordinates": [-64.75644109699995, -32.095461360399995]}, "properties": {"establecim": "ESC. PROV. FRENCH Y BERUTTI", "overall_total": 22, "fake_id": "3121-3125", "seccion": "2", "circuito": "00019", "votos": {"217": 67, "512": 14, "47": 424, "191": 24, "9005": 0, "514": 1703, "9006": 4130, "3": 5, "9004": 23, "9003": 23, "9002": 0, "9001": 1072, "505": 612, "503": 38, "501": 103}, "direccion": "LOS CONDORES"}}, {"geometry": {"type": "Point", "coordinates": [-64.57588339829994, -31.91989306539999]}, "properties": {"establecim": "ESC PROV PEDRO B PALACIOS", "overall_total": 15, "fake_id": "3129-3131", "seccion": "2", "circuito": "00020", "votos": {"217": 355, "512": 14, "47": 177, "191": 22, "9005": 0, "514": 1031, "9006": 2424, "3": 11, "9004": 13, "9003": 7, "9002": 0, "9001": 555, "505": 97, "503": 43, "501": 84}, "direccion": "MANUEL BELGRANO S/N"}}, {"geometry": {"type": "Point", "coordinates": [-64.5906076622, -32.5293922822]}, "properties": {"establecim": "ESC. PROV. D.F. SARMIENTO", "overall_total": 11, "fake_id": "3155-3158", "seccion": "2", "circuito": "00022", "votos": {"217": 52, "512": 9, "47": 407, "191": 17, "9005": 0, "514": 1062, "9006": 2728, "3": 4, "9004": 13, "9003": 10, "9002": 0, "9001": 833, "505": 240, "503": 20, "501": 50}, "direccion": "SARMIENTO 0"}}, {"geometry": {"type": "Point", "coordinates": [-64.75612589450002, -32.0952685676]}, "properties": {"establecim": "ESC.PROV. FRENCH Y BERUTTI", "overall_total": 7, "fake_id": "3159-3161", "seccion": "2", "circuito": "00023", "votos": {"217": 451, "512": 10, "47": 81, "191": 16, "9005": 0, "514": 1028, "9006": 2670, "3": 8, "9004": 12, "9003": 10, "9002": 0, "9001": 821, "505": 168, "503": 25, "501": 33}, "direccion": "CORDOBA 0"}}, {"geometry": {"type": "Point", "coordinates": [-64.480212, -32.186157499999986]}, "properties": {"establecim": "ESC PROV PRIMERA JUNTA", "overall_total": 34, "fake_id": "3162-3168", "seccion": "2", "circuito": "00024", "votos": {"217": 235, "512": 28, "47": 251, "191": 28, "9005": 1, "514": 1872, "9006": 4720, "3": 16, "9004": 36, "9003": 16, "9002": 0, "9001": 1424, "505": 555, "503": 63, "501": 161}, "direccion": "AMADEO SABATTINI 143"}}, {"geometry": {"type": "Point", "coordinates": [-64.37451966126167, -31.972506243580565]}, "properties": {"establecim": "COLEGIO SAN JOSE", "overall_total": 20, "fake_id": "3183-3186", "seccion": "2", "circuito": "00025", "votos": {"217": 33, "512": 11, "47": 329, "191": 19, "9005": 0, "514": 1295, "9006": 3415, "3": 13, "9004": 7, "9003": 25, "9002": 0, "9001": 1050, "505": 531, "503": 18, "501": 64}, "direccion": "SAN AGUSTIN"}}, {"geometry": {"type": "Point", "coordinates": [-64.37760192328378, -31.976113141009677]}, "properties": {"establecim": "ESC. PROV.GRAL. SAN MARTIN", "overall_total": 26, "fake_id": "3178-3182", "seccion": "2", "circuito": "00025", "votos": {"217": 52, "512": 26, "47": 432, "191": 21, "9005": 0, "514": 1620, "9006": 4280, "3": 27, "9004": 0, "9003": 32, "9002": 0, "9001": 1322, "505": 637, "503": 18, "501": 67}, "direccion": "SAN AGUSTIN"}}, {"geometry": {"type": "Point", "coordinates": [-64.53870519417471, -32.0669002523095]}, "properties": {"establecim": "PRIM-EL MUNDO DE LOS CHICOS", "overall_total": 23, "fake_id": "3189-3194", "seccion": "2", "circuito": "00026", "votos": {"217": 448, "512": 26, "47": 298, "191": 39, "9005": 0, "514": 2040, "9006": 5148, "3": 16, "9004": 31, "9003": 17, "9002": 0, "9001": 1554, "505": 455, "503": 66, "501": 135}, "direccion": "GUEMES 162"}}, {"geometry": {"type": "Point", "coordinates": [-64.26760919999995, -31.008296599999966]}, "properties": {"establecim": "ESCUELA DR. PABLO RUEDA", "overall_total": 51, "fake_id": "3223-3230", "seccion": "3", "circuito": "00027", "votos": {"217": 289, "512": 36, "47": 404, "191": 69, "9005": 1, "514": 2719, "9006": 6979, "3": 35, "9004": 35, "9003": 30, "9002": 0, "9001": 2130, "505": 564, "503": 167, "501": 449}, "direccion": "LA GRANJA"}}, {"geometry": {"type": "Point", "coordinates": [-64.34095355672561, -31.340545503388675]}, "properties": {"establecim": "ESC ELADIO DIEZ", "overall_total": 112, "fake_id": "3231-3238", "seccion": "3", "circuito": "00028", "votos": {"217": 250, "512": 74, "47": 310, "191": 53, "9005": 0, "514": 2739, "9006": 7072, "3": 38, "9004": 38, "9003": 24, "9002": 4, "9001": 2165, "505": 730, "503": 148, "501": 387}, "direccion": "ALVEAR ESQ SARMIENTO"}}, {"geometry": {"type": "Point", "coordinates": [-64.33615497875356, -31.34018885365282]}, "properties": {"establecim": "ESCUELA PROV.J.J.PASO-CENMA", "overall_total": 150, "fake_id": "3257-3267", "seccion": "3", "circuito": "00028", "votos": {"217": 356, "512": 115, "47": 433, "191": 109, "9005": 1, "514": 3747, "9006": 9722, "3": 76, "9004": 66, "9003": 43, "9002": 1, "9001": 2987, "505": 884, "503": 214, "501": 540}, "direccion": "CALERA"}}, {"geometry": {"type": "Point", "coordinates": [-64.33473403461319, -31.342952878749163]}, "properties": {"establecim": "INSTITUTO D.F.SARMIENTO", "overall_total": 238, "fake_id": "3239-3256", "seccion": "3", "circuito": "00028", "votos": {"217": 589, "512": 164, "47": 717, "191": 167, "9005": 1, "514": 6164, "9006": 15737, "3": 102, "9004": 99, "9003": 67, "9002": 3, "9001": 4785, "505": 1464, "503": 342, "501": 835}, "direccion": "CALERA"}}, {"geometry": {"type": "Point", "coordinates": [-64.33474766856175, -31.343082823321517]}, "properties": {"establecim": "INSTITUTO JESUS MARIA", "overall_total": 106, "fake_id": "3268-3276", "seccion": "3", "circuito": "00028", "votos": {"217": 234, "512": 83, "47": 283, "191": 81, "9005": 1, "514": 2734, "9006": 6938, "3": 48, "9004": 62, "9003": 14, "9002": 0, "9001": 2102, "505": 692, "503": 148, "501": 350}, "direccion": "CALERA"}}, {"geometry": {"type": "Point", "coordinates": [-64.06294497965098, -31.02093559788337]}, "properties": {"establecim": "ESC. PRESBITERO BONORIS", "overall_total": 83, "fake_id": "3327-3337", "seccion": "3", "circuito": "00029", "votos": {"217": 311, "512": 76, "47": 807, "191": 70, "9005": 2, "514": 3798, "9006": 9695, "3": 43, "9004": 79, "9003": 30, "9002": 0, "9001": 2953, "505": 741, "503": 152, "501": 550}, "direccion": "COLONIA CAROYA 0"}}, {"geometry": {"type": "Point", "coordinates": [-64.06637282156196, -31.021225046876598]}, "properties": {"establecim": "ESC. PROV. GRAL SAN MARTIN", "overall_total": 68, "fake_id": "3317-3326", "seccion": "3", "circuito": "00029", "votos": {"217": 303, "512": 74, "47": 814, "191": 72, "9005": 0, "514": 3455, "9006": 8983, "3": 39, "9004": 49, "9003": 28, "9002": 12, "9001": 2752, "505": 681, "503": 154, "501": 482}, "direccion": "MAESTRA OLGA PROSDOCIMO  3580"}}, {"geometry": {"type": "Point", "coordinates": [-64.09041662206603, -31.008653143942148]}, "properties": {"establecim": "ESC.PROV. M. BELGRANO", "overall_total": 80, "fake_id": "3307-3316", "seccion": "3", "circuito": "00029", "votos": {"217": 266, "512": 63, "47": 835, "191": 73, "9005": 0, "514": 3453, "9006": 8726, "3": 46, "9004": 56, "9003": 24, "9002": 0, "9001": 2501, "505": 674, "503": 167, "501": 488}, "direccion": "COLONIA CAROYA"}}, {"geometry": {"type": "Point", "coordinates": [-64.04333969674035, -31.04643050522676]}, "properties": {"establecim": "ESCUELA M. MORENO", "overall_total": 59, "fake_id": "3338-3345", "seccion": "3", "circuito": "00029", "votos": {"217": 247, "512": 64, "47": 618, "191": 72, "9005": 1, "514": 2765, "9006": 7121, "3": 26, "9004": 48, "9003": 26, "9002": 0, "9001": 2177, "505": 468, "503": 107, "501": 443}, "direccion": "JUSTINIANO CELIZ HEREDIA 650"}}, {"geometry": {"type": "Point", "coordinates": [-64.06294497965098, -31.02093559788337]}, "properties": {"establecim": "IPEM 165 ANEXO J.BONORIS", "overall_total": 65, "fake_id": "3346-3351", "seccion": "3", "circuito": "00029", "votos": {"217": 171, "512": 33, "47": 464, "191": 55, "9005": 0, "514": 2069, "9006": 5101, "3": 33, "9004": 37, "9003": 15, "9002": 0, "9001": 1375, "505": 368, "503": 95, "501": 321}, "direccion": "COLONIA CAROYA"}}, {"geometry": {"type": "Point", "coordinates": [-64.0675929922478, -31.2282770052648]}, "properties": {"establecim": "ESC PROV DR PABLO RUEDA", "overall_total": 54, "fake_id": "3361-3365", "seccion": "3", "circuito": "00030", "votos": {"217": 184, "512": 32, "47": 401, "191": 33, "9005": 0, "514": 1680, "9006": 4308, "3": 19, "9004": 5, "9003": 24, "9002": 0, "9001": 1314, "505": 252, "503": 68, "501": 242}, "direccion": "PUBLICA S/N"}}, {"geometry": {"type": "Point", "coordinates": [-64.06699950599999, -31.240528600899967]}, "properties": {"establecim": "ESCUELA NACIONAL N\u00b031", "overall_total": 84, "fake_id": "3353-3360", "seccion": "3", "circuito": "00030", "votos": {"217": 237, "512": 61, "47": 600, "191": 60, "9005": 0, "514": 2358, "9006": 5604, "3": 37, "9004": 23, "9003": 28, "9002": 0, "9001": 1351, "505": 350, "503": 100, "501": 315}, "direccion": "PUBLICA-SANTA ELENA RUTA  74KM22"}}, {"geometry": {"type": "Point", "coordinates": [-64.28971409149995, -31.092007633600044]}, "properties": {"establecim": "ESC.PROV.A.ARGENTINA", "overall_total": 25, "fake_id": "3366-3368", "seccion": "3", "circuito": "00031", "votos": {"217": 84, "512": 17, "47": 82, "191": 13, "9005": 0, "514": 965, "9006": 2197, "3": 2, "9004": 8, "9003": 15, "9002": 0, "9001": 504, "505": 264, "503": 36, "501": 182}, "direccion": "EL MANZANO SOBRE RUTA E 53"}}, {"geometry": {"type": "Point", "coordinates": [-64.14065219999996, -31.135245799999975]}, "properties": {"establecim": "ESC PROV GRAL JOSE MARIA PAZ", "overall_total": 74, "fake_id": "3376-3381", "seccion": "3", "circuito": "00032", "votos": {"217": 131, "512": 28, "47": 309, "191": 22, "9005": 1, "514": 1500, "9006": 3868, "3": 8, "9004": 21, "9003": 11, "9002": 0, "9001": 1183, "505": 385, "503": 63, "501": 132}, "direccion": "BUENOS AIRES Y CORDOBA"}}, {"geometry": {"type": "Point", "coordinates": [-64.09092528774853, -30.97700072826506]}, "properties": {"establecim": "ESC,N\u00b021 GENDARMERIA NACIONAL", "overall_total": 70, "fake_id": "3450-3460", "seccion": "3", "circuito": "00033", "votos": {"217": 380, "512": 72, "47": 622, "191": 74, "9005": 0, "514": 3431, "9006": 8556, "3": 33, "9004": 51, "9003": 32, "9002": 0, "9001": 2563, "505": 540, "503": 161, "501": 527}, "direccion": "JESUS MARIA"}}, {"geometry": {"type": "Point", "coordinates": [-64.10391275958835, -30.982676742464687]}, "properties": {"establecim": "ESC.DR. J.M.ESTRADA N\u00b0 221", "overall_total": 93, "fake_id": "3410-3422", "seccion": "3", "circuito": "00033", "votos": {"217": 541, "512": 86, "47": 646, "191": 79, "9005": 0, "514": 4482, "9006": 11107, "3": 53, "9004": 77, "9003": 44, "9002": 1, "9001": 3312, "505": 830, "503": 166, "501": 697}, "direccion": "CATAMARCA Y ESTRADA 0"}}, {"geometry": {"type": "Point", "coordinates": [-64.09424455531119, -30.9858552538995]}, "properties": {"establecim": "ESC.PROV.1ER.TTE.MORANDINI", "overall_total": 94, "fake_id": "3423-3434", "seccion": "3", "circuito": "00033", "votos": {"217": 444, "512": 66, "47": 630, "191": 79, "9005": 0, "514": 3785, "9006": 9480, "3": 38, "9004": 47, "9003": 45, "9002": 0, "9001": 2844, "505": 636, "503": 172, "501": 600}, "direccion": "CHILE -SAN JOSE OBRERO 222"}}, {"geometry": {"type": "Point", "coordinates": [-64.09499566743472, -30.980867434058023]}, "properties": {"establecim": "ESC.PROVC.F.O. DE OCAMPO", "overall_total": 113, "fake_id": "3435-3449", "seccion": "3", "circuito": "00033", "votos": {"217": 561, "512": 106, "47": 714, "191": 89, "9005": 0, "514": 4468, "9006": 10446, "3": 46, "9004": 65, "9003": 49, "9002": 0, "9001": 2607, "505": 791, "503": 177, "501": 660}, "direccion": "AV. DR. FRANCISCO N. DE  LAPRIDA 649 649"}}, {"geometry": {"type": "Point", "coordinates": [-64.09507034005135, -30.986351453557045]}, "properties": {"establecim": "I.P.E.T.N\u00b0 69", "overall_total": 105, "fake_id": "3397-3409", "seccion": "3", "circuito": "00033", "votos": {"217": 564, "512": 85, "47": 758, "191": 85, "9005": 0, "514": 4483, "9006": 11220, "3": 37, "9004": 49, "9003": 54, "9002": 0, "9001": 3368, "505": 751, "503": 179, "501": 702}, "direccion": "JESUS MARIA"}}, {"geometry": {"type": "Point", "coordinates": [-64.09839229805264, -30.98431115750903]}, "properties": {"establecim": "PTE DOMINGO F SARMIENTO", "overall_total": 103, "fake_id": "3382-3396", "seccion": "3", "circuito": "00033", "votos": {"217": 525, "512": 98, "47": 866, "191": 102, "9005": 0, "514": 5167, "9006": 12766, "3": 51, "9004": 61, "9003": 55, "9002": 0, "9001": 3802, "505": 921, "503": 215, "501": 800}, "direccion": "CORDOBA (PARALEA A JUAN B  JUSTO) 1050"}}, {"geometry": {"type": "Point", "coordinates": [-64.1670194356847, -31.27995751819738]}, "properties": {"establecim": "ESC PROV LEOPOLDO LUGONES", "overall_total": 200, "fake_id": "3462-3469", "seccion": "3", "circuito": "00034", "votos": {"217": 318, "512": 63, "47": 317, "191": 55, "9005": 0, "514": 2687, "9006": 6888, "3": 31, "9004": 43, "9003": 20, "9002": 8, "9001": 2097, "505": 561, "503": 179, "501": 309}, "direccion": "VILLA LOS LLANOS 0"}}, {"geometry": {"type": "Point", "coordinates": [-64.18037975217304, -31.299963994880493]}, "properties": {"establecim": "ESC.ATAHUALPA YUPANQUI", "overall_total": 240, "fake_id": "3478-3485", "seccion": "3", "circuito": "00034", "votos": {"217": 288, "512": 82, "47": 256, "191": 58, "9005": 0, "514": 2679, "9006": 6137, "3": 47, "9004": 44, "9003": 45, "9002": 1, "9001": 1328, "505": 568, "503": 193, "501": 308}, "direccion": "BARRIO PARQUE NORTE"}}, {"geometry": {"type": "Point", "coordinates": [-64.16679000010123, -31.26154299490366]}, "properties": {"establecim": "ESC.COM.R. SILIONI", "overall_total": 204, "fake_id": "3470-3477", "seccion": "3", "circuito": "00034", "votos": {"217": 311, "512": 90, "47": 277, "191": 51, "9005": 1, "514": 2676, "9006": 6571, "3": 39, "9004": 38, "9003": 34, "9002": 0, "9001": 1810, "505": 531, "503": 185, "501": 324}, "direccion": "JUAREZ CELMAN"}}, {"geometry": {"type": "Point", "coordinates": [-64.04333579496162, -31.366621692165285]}, "properties": {"establecim": "ESC.CAP.LUIS C.CANDELARIA", "overall_total": 190, "fake_id": "3486-3494", "seccion": "3", "circuito": "00035", "votos": {"217": 286, "512": 72, "47": 520, "191": 48, "9005": 1, "514": 2738, "9006": 6667, "3": 33, "9004": 58, "9003": 45, "9002": 0, "9001": 1830, "505": 364, "503": 207, "501": 275}, "direccion": "MALVINAS ARGENTINAS"}}, {"geometry": {"type": "Point", "coordinates": [-64.04620600009069, -31.374193994835892]}, "properties": {"establecim": "ESC.MUNIC.CIUDAD DE M.ARGENTIN", "overall_total": 166, "fake_id": "3495-3502", "seccion": "3", "circuito": "00035", "votos": {"217": 237, "512": 74, "47": 468, "191": 44, "9005": 0, "514": 2394, "9006": 5636, "3": 34, "9004": 61, "9003": 24, "9002": 0, "9001": 1345, "505": 310, "503": 221, "501": 258}, "direccion": "MALVINAS ARGENTINAS"}}, {"geometry": {"type": "Point", "coordinates": [-64.05376500009136, -31.380629994832002]}, "properties": {"establecim": "I.P.E.M. N\u00b0 24", "overall_total": 254, "fake_id": "3503-3514", "seccion": "3", "circuito": "00035", "votos": {"217": 386, "512": 98, "47": 743, "191": 70, "9005": 0, "514": 3763, "9006": 9681, "3": 50, "9004": 99, "9003": 64, "9002": 0, "9001": 2959, "505": 538, "503": 303, "501": 354}, "direccion": "JUJUY ESQ. SARMIENTO S/N  MALVINAS AR 0"}}, {"geometry": {"type": "Point", "coordinates": [-64.06718895840577, -31.16495027399371]}, "properties": {"establecim": "ESC PROV SARGENTO CABRAL", "overall_total": 2, "fake_id": "3518-3518", "seccion": "3", "circuito": "00036", "votos": {"217": 22, "512": 5, "47": 81, "191": 3, "9005": 0, "514": 280, "9006": 720, "3": 2, "9004": 0, "9003": 4, "9002": 0, "9001": 220, "505": 74, "503": 4, "501": 23}, "direccion": "PUBLICA S/N"}}, {"geometry": {"type": "Point", "coordinates": [-64.32888000042965, -31.164990606356234]}, "properties": {"establecim": "ESC.CONSTANCIO C. VIGIL", "overall_total": 57, "fake_id": "3560-3566", "seccion": "3", "circuito": "00037", "votos": {"217": 229, "512": 41, "47": 297, "191": 62, "9005": 2, "514": 2389, "9006": 5750, "3": 46, "9004": 38, "9003": 19, "9002": 0, "9001": 1549, "505": 252, "503": 216, "501": 553}, "direccion": "1 MAYO B\u00b0 MOREYRA 112"}}, {"geometry": {"type": "Point", "coordinates": [-64.3161380845202, -31.171053760515257]}, "properties": {"establecim": "ESC.PROV.M.FRAGUEIRO", "overall_total": 100, "fake_id": "3529-3539", "seccion": "3", "circuito": "00037", "votos": {"217": 416, "512": 73, "47": 533, "191": 98, "9005": 1, "514": 3760, "9006": 9536, "3": 65, "9004": 66, "9003": 21, "9002": 0, "9001": 2889, "505": 365, "503": 349, "501": 800}, "direccion": "AVENIDA SAN MARTIN 4519"}}, {"geometry": {"type": "Point", "coordinates": [-64.31756197133697, -31.166715478018208]}, "properties": {"establecim": "I.P.E.M.144-MARIANO MORENO", "overall_total": 88, "fake_id": "3540-3548", "seccion": "3", "circuito": "00037", "votos": {"217": 311, "512": 45, "47": 333, "191": 67, "9005": 0, "514": 2728, "9006": 6658, "3": 45, "9004": 67, "9003": 14, "9002": 0, "9001": 1828, "505": 303, "503": 283, "501": 546}, "direccion": "SALTA 191"}}, {"geometry": {"type": "Point", "coordinates": [-64.32208035256443, -31.16659957278304]}, "properties": {"establecim": "INSTITUTO DEL ESPIRITU SANTO", "overall_total": 115, "fake_id": "3549-3559", "seccion": "3", "circuito": "00037", "votos": {"217": 409, "512": 75, "47": 480, "191": 93, "9005": 1, "514": 3756, "9006": 9409, "3": 63, "9004": 82, "9003": 27, "9002": 0, "9001": 2827, "505": 364, "503": 332, "501": 785}, "direccion": "AV. SAN MARTIN 5109"}}, {"geometry": {"type": "Point", "coordinates": [-64.31756197133697, -31.166715478018208]}, "properties": {"establecim": "IPEM N\u00b0 352", "overall_total": 82, "fake_id": "3519-3528", "seccion": "3", "circuito": "00037", "votos": {"217": 334, "512": 88, "47": 422, "191": 92, "9005": 3, "514": 3424, "9006": 7858, "3": 50, "9004": 55, "9003": 29, "9002": 0, "9001": 1820, "505": 365, "503": 322, "501": 772}, "direccion": "NICANOR CEBALLOS 0"}}, {"geometry": {"type": "Point", "coordinates": [-64.29817200011271, -31.136236994979374]}, "properties": {"establecim": "ESC.PROV. J.MALDONADO", "overall_total": 95, "fake_id": "3573-3583", "seccion": "3", "circuito": "00038", "votos": {"217": 353, "512": 62, "47": 381, "191": 69, "9005": 0, "514": 3415, "9006": 8699, "3": 40, "9004": 49, "9003": 20, "9002": 4, "9001": 2637, "505": 546, "503": 275, "501": 753}, "direccion": "DESIDERIO TORRES 360"}}, {"geometry": {"type": "Point", "coordinates": [-64.28823100011188, -31.137853994978364]}, "properties": {"establecim": "ESCUELA RECONQUISTA", "overall_total": 36, "fake_id": "3584-3587", "seccion": "3", "circuito": "00038", "votos": {"217": 168, "512": 29, "47": 134, "191": 36, "9005": 0, "514": 1369, "9006": 3491, "3": 18, "9004": 18, "9003": 7, "9002": 0, "9001": 1061, "505": 210, "503": 103, "501": 302}, "direccion": "CERRITO 0"}}, {"geometry": {"type": "Point", "coordinates": [-64.29477095603941, -31.13789712908942]}, "properties": {"establecim": "INST SECUNDARIO SALSIPUEDES", "overall_total": 51, "fake_id": "3567-3572", "seccion": "3", "circuito": "00038", "votos": {"217": 143, "512": 33, "47": 181, "191": 39, "9005": 0, "514": 1714, "9006": 4416, "3": 18, "9004": 20, "9003": 17, "9002": 0, "9001": 1351, "505": 295, "503": 121, "501": 433}, "direccion": "AV BELGRANO 178"}}, {"geometry": {"type": "Point", "coordinates": [-63.97808837092967, -31.056360140259514]}, "properties": {"establecim": "ESC.PROV. FRAY M.ESQUIU", "overall_total": 1, "fake_id": "3588-3588", "seccion": "3", "circuito": "00039", "votos": {"217": 5, "512": 1, "47": 13, "191": 0, "9005": 0, "514": 77, "9006": 167, "3": 0, "9004": 0, "9003": 0, "9002": 0, "9001": 45, "505": 24, "503": 0, "501": 1}, "direccion": "PUBLICA 0"}}, {"geometry": {"type": "Point", "coordinates": [-64.31005810069665, -31.237253896870506]}, "properties": {"establecim": "ESC.PROV. D.V.SARSFIELD", "overall_total": 112, "fake_id": "3589-3597", "seccion": "3", "circuito": "00040", "votos": {"217": 397, "512": 96, "47": 366, "191": 67, "9005": 0, "514": 3104, "9006": 7605, "3": 47, "9004": 61, "9003": 29, "9002": 0, "9001": 2117, "505": 416, "503": 265, "501": 528}, "direccion": "SARMIENTO Y VELEZ SARSFIELD  0"}}, {"geometry": {"type": "Point", "coordinates": [-64.31735832257071, -31.227747552060944]}, "properties": {"establecim": "I.P.E.M. N\u00b0 23", "overall_total": 100, "fake_id": "3598-3606", "seccion": "3", "circuito": "00040", "votos": {"217": 408, "512": 107, "47": 463, "191": 77, "9005": 0, "514": 3107, "9006": 7620, "3": 55, "9004": 58, "9003": 26, "9002": 0, "9001": 2134, "505": 334, "503": 242, "501": 509}, "direccion": "SPILIMBERGO 869"}}, {"geometry": {"type": "Point", "coordinates": [-64.30581434440002, -31.241577345781568]}, "properties": {"establecim": "I.P.E.M. N\u00b0 78", "overall_total": 204, "fake_id": "3607-3621", "seccion": "3", "circuito": "00040", "votos": {"217": 634, "512": 179, "47": 644, "191": 114, "9005": 0, "514": 5175, "9006": 13222, "3": 97, "9004": 94, "9003": 29, "9002": 0, "9001": 4023, "505": 658, "503": 456, "501": 915}, "direccion": "COSTANERA LOS CIGARRALES B  750"}}, {"geometry": {"type": "Point", "coordinates": [-64.3113097764755, -31.237065940998228]}, "properties": {"establecim": "INST.PARROQ.NTA.SRA DE LOURDES", "overall_total": 158, "fake_id": "3622-3632", "seccion": "3", "circuito": "00040", "votos": {"217": 465, "512": 115, "47": 460, "191": 106, "9005": 1, "514": 3787, "9006": 9554, "3": 56, "9004": 71, "9003": 29, "9002": 11, "9001": 2878, "505": 478, "503": 310, "501": 629}, "direccion": "JUAN MILICH 0"}}, {"geometry": {"type": "Point", "coordinates": [-64.29768682510091, -31.28803683245299]}, "properties": {"establecim": "COLEGIO MARYLAND", "overall_total": 51, "fake_id": "3726-3729", "seccion": "3", "circuito": "00041", "votos": {"217": 157, "512": 50, "47": 269, "191": 36, "9005": 1, "514": 1365, "9006": 3579, "3": 29, "9004": 10, "9003": 6, "9002": 2, "9001": 1107, "505": 157, "503": 95, "501": 244}, "direccion": "GUEMES ESQ ALBERTI"}}, {"geometry": {"type": "Point", "coordinates": [-64.29846764482413, -31.290560066238925]}, "properties": {"establecim": "COLEGIO SAN JOSE", "overall_total": 128, "fake_id": "3667-3678", "seccion": "3", "circuito": "00041", "votos": {"217": 440, "512": 104, "47": 622, "191": 139, "9005": 0, "514": 3771, "9006": 9781, "3": 92, "9004": 52, "9003": 29, "9002": 1, "9001": 3005, "505": 429, "503": 304, "501": 665}, "direccion": "VILLA ALLENDE"}}, {"geometry": {"type": "Point", "coordinates": [-64.2973235133589, -31.295475811749384]}, "properties": {"establecim": "ESC.PROV. J.DE SAN MARTIN", "overall_total": 151, "fake_id": "3654-3666", "seccion": "3", "circuito": "00041", "votos": {"217": 489, "512": 116, "47": 789, "191": 148, "9005": 0, "514": 4453, "9006": 11523, "3": 105, "9004": 36, "9003": 32, "9002": 2, "9001": 3534, "505": 502, "503": 348, "501": 818}, "direccion": "GOYCOECHEA 150"}}, {"geometry": {"type": "Point", "coordinates": [-64.29538380692374, -31.29271683944505]}, "properties": {"establecim": "INST GRAL S.MARTIN/17 DE AGOST", "overall_total": 349, "fake_id": "3687-3715", "seccion": "3", "circuito": "00041", "votos": {"217": 1102, "512": 262, "47": 1674, "191": 350, "9005": 4, "514": 9912, "9006": 25199, "3": 266, "9004": 125, "9003": 81, "9002": 7, "9001": 7502, "505": 1063, "503": 795, "501": 1707}, "direccion": "25 DE MAYO ESQ. TABLADA 0"}}, {"geometry": {"type": "Point", "coordinates": [-64.3056018139397, -31.302162465815798]}, "properties": {"establecim": "INSTITUTO NTA.SRA. DE LUJAN", "overall_total": 128, "fake_id": "3716-3725", "seccion": "3", "circuito": "00041", "votos": {"217": 331, "512": 63, "47": 549, "191": 101, "9005": 2, "514": 3075, "9006": 7919, "3": 69, "9004": 36, "9003": 25, "9002": 0, "9001": 2422, "505": 340, "503": 243, "501": 535}, "direccion": "AV.SAN MARTIN 1070"}}, {"geometry": {"type": "Point", "coordinates": [-64.29854445509086, -31.297142536333908]}, "properties": {"establecim": "INSTITUTO PAULA A.DE SARMIENTO", "overall_total": 95, "fake_id": "3679-3686", "seccion": "3", "circuito": "00041", "votos": {"217": 270, "512": 73, "47": 411, "191": 100, "9005": 0, "514": 2397, "9006": 5932, "3": 66, "9004": 32, "9003": 14, "9002": 0, "9001": 1640, "505": 228, "503": 183, "501": 423}, "direccion": "LAPRIDA/GONZALEZ"}}, {"geometry": {"type": "Point", "coordinates": [-65.05273169999992, -30.7943682]}, "properties": {"establecim": "ESCUELA PROV.M. MORENO", "overall_total": 3, "fake_id": "3756-3757", "seccion": "4", "circuito": "00042", "votos": {"217": 20, "512": 3, "47": 84, "191": 1, "9005": 0, "514": 563, "9006": 1443, "3": 1, "9004": 2, "9003": 8, "9002": 0, "9001": 440, "505": 310, "503": 1, "501": 7}, "direccion": "PUBLICA S/N"}}, {"geometry": {"type": "Point", "coordinates": [-64.80669199794835, -30.72613330891401]}, "properties": {"establecim": "ESC.E. BAVIO", "overall_total": 72, "fake_id": "3791-3803", "seccion": "4", "circuito": "00044", "votos": {"217": 770, "512": 63, "47": 700, "191": 38, "9005": 0, "514": 4144, "9006": 9838, "3": 22, "9004": 53, "9003": 52, "9002": 0, "9001": 2593, "505": 922, "503": 107, "501": 302}, "direccion": "PELLEGRINI 180"}}, {"geometry": {"type": "Point", "coordinates": [-64.80925632938687, -30.723894447074994]}, "properties": {"establecim": "IPEM 273 M. BELGRANO", "overall_total": 80, "fake_id": "3820-3832", "seccion": "4", "circuito": "00044", "votos": {"217": 789, "512": 62, "47": 750, "191": 28, "9005": 0, "514": 4114, "9006": 10184, "3": 25, "9004": 47, "9003": 42, "9002": 0, "9001": 3036, "505": 866, "503": 100, "501": 245}, "direccion": "PELLEGRINI 445"}}, {"geometry": {"type": "Point", "coordinates": [-64.87718982779995, -30.67213697700003]}, "properties": {"establecim": "ESC PROV MANUEL BELGRANO", "overall_total": 5, "fake_id": "3835-3837", "seccion": "4", "circuito": "00045", "votos": {"217": 78, "512": 12, "47": 213, "191": 1, "9005": 0, "514": 603, "9006": 1533, "3": 1, "9004": 3, "9003": 16, "9002": 0, "9001": 465, "505": 114, "503": 9, "501": 13}, "direccion": "PUBLICA S/N"}}, {"geometry": {"type": "Point", "coordinates": [-65.05949830269998, -30.482881140200018]}, "properties": {"establecim": "ESC PROV GRAL SAN MARTIN", "overall_total": 2, "fake_id": "3838-3840", "seccion": "4", "circuito": "00046", "votos": {"217": 73, "512": 4, "47": 55, "191": 1, "9005": 0, "514": 460, "9006": 1056, "3": 1, "9004": 1, "9003": 5, "9002": 0, "9001": 298, "505": 145, "503": 0, "501": 11}, "direccion": "PUBLICA S/N"}}, {"geometry": {"type": "Point", "coordinates": [-65.26128100819999, -30.662183210500025]}, "properties": {"establecim": "ESC PROV JOSE MARIA PAZ", "overall_total": 0, "fake_id": "3842-3842", "seccion": "4", "circuito": "00047", "votos": {"217": 17, "512": 0, "47": 13, "191": 0, "9005": 0, "514": 99, "9006": 225, "3": 0, "9004": 0, "9003": 0, "9002": 0, "9001": 63, "505": 33, "503": 0, "501": 0}, "direccion": "PUBLICA S/N"}}, {"geometry": {"type": "Point", "coordinates": [-65.1028058, -31.0157259]}, "properties": {"establecim": "ESC PROV GRAL SAN MARTIN", "overall_total": 1, "fake_id": "3843-3844", "seccion": "4", "circuito": "00048", "votos": {"217": 26, "512": 3, "47": 99, "191": 0, "9005": 0, "514": 521, "9006": 1283, "3": 1, "9004": 2, "9003": 6, "9002": 0, "9001": 381, "505": 224, "503": 6, "501": 13}, "direccion": "RUTA PROVINCIAL N\u00b015 S/N"}}, {"geometry": {"type": "Point", "coordinates": [-64.19257543242836, -31.447325429691922]}, "properties": {"establecim": "ESC ALMAFUERTE", "overall_total": 148, "fake_id": "187-193", "seccion": "1", "circuito": "0004A", "votos": {"217": 235, "512": 99, "47": 463, "191": 75, "9005": 0, "514": 2419, "9006": 5979, "3": 78, "9004": 34, "9003": 18, "9002": 0, "9001": 1646, "505": 229, "503": 255, "501": 280}, "direccion": "CHANETON 390 B\u00b0 SAN  FERNANDO"}}, {"geometry": {"type": "Point", "coordinates": [-64.19758160866344, -31.453783301775474]}, "properties": {"establecim": "ESC SAN FRANCISCO DE ASIS", "overall_total": 602, "fake_id": "202-229", "seccion": "1", "circuito": "0004A", "votos": {"217": 991, "512": 424, "47": 1571, "191": 300, "9005": 4, "514": 9324, "9006": 24302, "3": 248, "9004": 103, "9003": 53, "9002": 4, "9001": 7487, "505": 1079, "503": 988, "501": 1124}, "direccion": "GUARDADO 184 B\u00b0LAS FLORES"}}, {"geometry": {"type": "Point", "coordinates": [-64.93142359822171, -30.64135357585006]}, "properties": {"establecim": "ESCUELA M. GUEMES", "overall_total": 11, "fake_id": "3846-3848", "seccion": "4", "circuito": "00050", "votos": {"217": 69, "512": 9, "47": 277, "191": 3, "9005": 1, "514": 831, "9006": 1685, "3": 6, "9004": 7, "9003": 20, "9002": 0, "9001": 214, "505": 219, "503": 7, "501": 11}, "direccion": "MEDIA NARANJA"}}, {"geometry": {"type": "Point", "coordinates": [-65.1906047, -30.76681179999998]}, "properties": {"establecim": "ESCUELA ANTARTIDA ARGENTINA", "overall_total": 6, "fake_id": "3851-3853", "seccion": "4", "circuito": "00051", "votos": {"217": 97, "512": 2, "47": 166, "191": 1, "9005": 0, "514": 560, "9006": 1484, "3": 2, "9004": 3, "9003": 4, "9002": 0, "9001": 462, "505": 169, "503": 6, "501": 6}, "direccion": "PUBLICA 0"}}, {"geometry": {"type": "Point", "coordinates": [-64.63735783979993, -30.78313392590001]}, "properties": {"establecim": "ESC PROV PTE ROQUE SAENZ PE\u00d1A", "overall_total": 25, "fake_id": "3859-3864", "seccion": "4", "circuito": "00054", "votos": {"217": 556, "512": 40, "47": 223, "191": 44, "9005": 0, "514": 1981, "9006": 4891, "3": 25, "9004": 35, "9003": 14, "9002": 0, "9001": 1455, "505": 283, "503": 140, "501": 70}, "direccion": "LIBERTAD 1043"}}, {"geometry": {"type": "Point", "coordinates": [-65.385460000213, -30.637199996109867]}, "properties": {"establecim": "ESC.PROV.B.RIVADAVIA", "overall_total": 11, "fake_id": "3866-3873", "seccion": "4", "circuito": "00055", "votos": {"217": 513, "512": 19, "47": 669, "191": 3, "9005": 1, "514": 2578, "9006": 5645, "3": 4, "9004": 14, "9003": 27, "9002": 1, "9001": 1452, "505": 313, "503": 10, "501": 30}, "direccion": "AVDA. MALVINAS ARGENTINAS  0"}}, {"geometry": {"type": "Point", "coordinates": [-64.98239308315581, -30.8594187908139]}, "properties": {"establecim": "E.N.E.T. N\u00b01", "overall_total": 14, "fake_id": "3887-3891", "seccion": "4", "circuito": "00056", "votos": {"217": 135, "512": 17, "47": 504, "191": 17, "9005": 1, "514": 1680, "9006": 4174, "3": 15, "9004": 22, "9003": 26, "9002": 0, "9001": 1247, "505": 393, "503": 30, "501": 73}, "direccion": "JUAN BAUTISTA ALBERDI 2200"}}, {"geometry": {"type": "Point", "coordinates": [-65.01161186267791, -30.84602487778934]}, "properties": {"establecim": "ESC NICOLAS AVELLANEDA", "overall_total": 11, "fake_id": "3892-3894", "seccion": "4", "circuito": "00056", "votos": {"217": 75, "512": 11, "47": 289, "191": 11, "9005": 0, "514": 1009, "9006": 2581, "3": 10, "9004": 28, "9003": 9, "9002": 11, "9001": 776, "505": 272, "503": 19, "501": 50}, "direccion": "DEAN FUNES ESQ CORRIENTES"}}, {"geometry": {"type": "Point", "coordinates": [-64.98681697056809, -30.85622280956618]}, "properties": {"establecim": "ESC.PADRE B.DE LAS CASAS", "overall_total": 30, "fake_id": "3875-3882", "seccion": "4", "circuito": "00056", "votos": {"217": 232, "512": 35, "47": 722, "191": 15, "9005": 1, "514": 2705, "9006": 6825, "3": 28, "9004": 34, "9003": 36, "9002": 1, "9001": 2060, "505": 742, "503": 40, "501": 144}, "direccion": "JOSE IGNACIO PERALTA 249"}}, {"geometry": {"type": "Point", "coordinates": [-64.98681697056809, -30.85622280956618]}, "properties": {"establecim": "INSTITUTO SANTO DOMINGO", "overall_total": 13, "fake_id": "3883-3886", "seccion": "4", "circuito": "00056", "votos": {"217": 104, "512": 9, "47": 388, "191": 9, "9005": 0, "514": 1348, "9006": 3117, "3": 7, "9004": 12, "9003": 18, "9002": 10, "9001": 754, "505": 373, "503": 21, "501": 51}, "direccion": "SOTO"}}, {"geometry": {"type": "Point", "coordinates": [-65.23782816669994, -30.746871224499994]}, "properties": {"establecim": "ESC.PROV.J.J.CASTELLI", "overall_total": 5, "fake_id": "3895-3896", "seccion": "4", "circuito": "00057", "votos": {"217": 60, "512": 5, "47": 88, "191": 3, "9005": 0, "514": 598, "9006": 1514, "3": 2, "9004": 0, "9003": 8, "9002": 0, "9001": 458, "505": 272, "503": 6, "501": 9}, "direccion": "PUBLICA 0"}}, {"geometry": {"type": "Point", "coordinates": [-64.1655928741446, -31.41078512896411]}, "properties": {"establecim": "ESC RAMON J CARCANO", "overall_total": 153, "fake_id": "554-567", "seccion": "1", "circuito": "0006C", "votos": {"217": 428, "512": 139, "47": 906, "191": 226, "9005": 0, "514": 4743, "9006": 11916, "3": 138, "9004": 61, "9003": 20, "9002": 1, "9001": 3590, "505": 388, "503": 504, "501": 619}, "direccion": "VIAMONTE 446 B\u00b0GRAL.PAZ"}}, {"geometry": {"type": "Point", "coordinates": [-63.1638, -32.20011280000004]}, "properties": {"establecim": "ESC.PROV. A.ARGENTINA", "overall_total": 8, "fake_id": "3984-3987", "seccion": "6", "circuito": "00073", "votos": {"217": 304, "512": 10, "47": 130, "191": 8, "9005": 0, "514": 1149, "9006": 2770, "3": 5, "9004": 6, "9003": 5, "9002": 1, "9001": 698, "505": 350, "503": 2, "501": 94}, "direccion": "CORDOBA ESQ ANTARTIDA  ARGENTINA"}}, {"geometry": {"type": "Point", "coordinates": [-63.503903963034226, -32.360864067191045]}, "properties": {"establecim": "ESC.PROV.D.V.SARSFIELD", "overall_total": 7, "fake_id": "3993-3996", "seccion": "6", "circuito": "00074", "votos": {"217": 181, "512": 12, "47": 496, "191": 23, "9005": 1, "514": 1233, "9006": 3291, "3": 1, "9004": 4, "9003": 34, "9002": 0, "9001": 1029, "505": 160, "503": 21, "501": 89}, "direccion": "RIVADAVIA 410"}}, {"geometry": {"type": "Point", "coordinates": [-63.503903963034226, -32.360864067191045]}, "properties": {"establecim": "INST. SEC. COM. SAN JOSE", "overall_total": 12, "fake_id": "3988-3992", "seccion": "6", "circuito": "00074", "votos": {"217": 192, "512": 10, "47": 624, "191": 46, "9005": 0, "514": 1540, "9006": 4168, "3": 11, "9004": 12, "9003": 35, "9002": 0, "9001": 1314, "505": 229, "503": 29, "501": 114}, "direccion": "ARROYO CABRAL"}}, {"geometry": {"type": "Point", "coordinates": [-63.24318089999994, -32.661211899999984]}, "properties": {"establecim": "ESC.PROV.GRAL SAN MARTIN", "overall_total": 4, "fake_id": "3997-3999", "seccion": "6", "circuito": "00075", "votos": {"217": 55, "512": 14, "47": 214, "191": 9, "9005": 0, "514": 898, "9006": 2442, "3": 3, "9004": 9, "9003": 7, "9002": 0, "9001": 772, "505": 398, "503": 8, "501": 51}, "direccion": "25 DE MAYO 55"}}, {"geometry": {"type": "Point", "coordinates": [-63.27851010519998, -33.07823783149996]}, "properties": {"establecim": "ESC PROV M R DE LA TORRE", "overall_total": 6, "fake_id": "4000-4002", "seccion": "6", "circuito": "00076", "votos": {"217": 85, "512": 8, "47": 418, "191": 12, "9005": 0, "514": 960, "9006": 2500, "3": 5, "9004": 1, "9003": 11, "9002": 0, "9001": 770, "505": 151, "503": 15, "501": 58}, "direccion": "DIESCISEIS 582"}}, {"geometry": {"type": "Point", "coordinates": [-63.129869571076284, -32.909610458356674]}, "properties": {"establecim": "ESC.PROV. 12 DE OCTUBRE", "overall_total": 15, "fake_id": "4008-4012", "seccion": "6", "circuito": "00077", "votos": {"217": 543, "512": 20, "47": 499, "191": 13, "9005": 0, "514": 1721, "9006": 4599, "3": 9, "9004": 16, "9003": 25, "9002": 0, "9001": 1439, "505": 191, "503": 19, "501": 89}, "direccion": "ETRURIA"}}, {"geometry": {"type": "Point", "coordinates": [-63.129869571076284, -32.909610458356674]}, "properties": {"establecim": "INSTITUTO SEC. GRAL PAZ", "overall_total": 5, "fake_id": "4003-4007", "seccion": "6", "circuito": "00077", "votos": {"217": 455, "512": 11, "47": 590, "191": 26, "9005": 0, "514": 1721, "9006": 4669, "3": 18, "9004": 13, "9003": 18, "9002": 0, "9001": 1474, "505": 198, "503": 31, "501": 109}, "direccion": "BV.SRMIENTO Y S.NICOLA 390"}}, {"geometry": {"type": "Point", "coordinates": [-63.2412265290914, -32.802119334933266]}, "properties": {"establecim": "ESC ESTEBAN ECHEVERRIA", "overall_total": 22, "fake_id": "4013-4016", "seccion": "6", "circuito": "00078", "votos": {"217": 176, "512": 16, "47": 289, "191": 14, "9005": 0, "514": 1346, "9006": 3219, "3": 8, "9004": 18, "9003": 24, "9002": 0, "9001": 798, "505": 380, "503": 7, "501": 121}, "direccion": "GENERAL PAZ 556"}}, {"geometry": {"type": "Point", "coordinates": [-63.123950200850246, -32.040239961052016]}, "properties": {"establecim": "ESC.PROV. 25 DE MAYO", "overall_total": 21, "fake_id": "4017-4024", "seccion": "6", "circuito": "00079", "votos": {"217": 423, "512": 48, "47": 597, "191": 33, "9005": 0, "514": 2716, "9006": 6870, "3": 14, "9004": 19, "9003": 52, "9002": 0, "9001": 2077, "505": 590, "503": 47, "501": 233}, "direccion": "LA PLAYOSA"}}, {"geometry": {"type": "Point", "coordinates": [-64.18173059580508, -31.394679958709357]}, "properties": {"establecim": "INST CORAZON DE MARIA", "overall_total": 219, "fake_id": "685-697", "seccion": "1", "circuito": "0007B", "votos": {"217": 497, "512": 172, "47": 736, "191": 175, "9005": 0, "514": 4478, "9006": 11294, "3": 90, "9004": 80, "9003": 27, "9002": 6, "9001": 3405, "505": 399, "503": 486, "501": 524}, "direccion": "A DEL VISO 445 B\u00b0ALTA  CORDOBA"}}, {"geometry": {"type": "Point", "coordinates": [-64.18804935665528, -31.39629841639877]}, "properties": {"establecim": "ESC. GARCIA FAURE", "overall_total": 113, "fake_id": "739-747", "seccion": "1", "circuito": "0007D", "votos": {"217": 271, "512": 103, "47": 515, "191": 126, "9005": 0, "514": 3012, "9006": 7161, "3": 58, "9004": 16, "9003": 20, "9002": 0, "9001": 1953, "505": 258, "503": 315, "501": 401}, "direccion": "JERONIMO LUIS DE CABRERA  834"}}, {"geometry": {"type": "Point", "coordinates": [-64.18693686549541, -31.366455983854266]}, "properties": {"establecim": "ESC ARTURO CAPDEVILA", "overall_total": 318, "fake_id": "819-830", "seccion": "1", "circuito": "0007G", "votos": {"217": 475, "512": 207, "47": 570, "191": 135, "9005": 0, "514": 4136, "9006": 10649, "3": 90, "9004": 87, "9003": 21, "9002": 0, "9001": 3234, "505": 471, "503": 431, "501": 474}, "direccion": "AVELLANEDA 4100  B\u00b0MFRAGUEIRO"}}, {"geometry": {"type": "Point", "coordinates": [-64.18693686549541, -31.366455983854266]}, "properties": {"establecim": "J DE INF ARTURO CAPDEVILA", "overall_total": 55, "fake_id": "843-844", "seccion": "1", "circuito": "0007G", "votos": {"217": 91, "512": 29, "47": 93, "191": 18, "9005": 0, "514": 686, "9006": 1752, "3": 23, "9004": 14, "9003": 5, "9002": 0, "9001": 533, "505": 58, "503": 63, "501": 84}, "direccion": "AVELLANEDA 4100 B\u00b0M  FRAGUEIRO"}}, {"geometry": {"type": "Point", "coordinates": [-63.478286699999984, -32.542345599999976]}, "properties": {"establecim": "ESC.PROV.J.V.GONZALEZ", "overall_total": 3, "fake_id": "4025-4026", "seccion": "6", "circuito": "00080", "votos": {"217": 42, "512": 8, "47": 90, "191": 4, "9005": 0, "514": 603, "9006": 1349, "3": 5, "9004": 0, "9003": 4, "9002": 0, "9001": 248, "505": 273, "503": 1, "501": 68}, "direccion": "9 DE JULIO 350"}}, {"geometry": {"type": "Point", "coordinates": [-63.23368666019999, -32.30450454299996]}, "properties": {"establecim": "ESC.PROV. ISLAS MALVINAS", "overall_total": 0, "fake_id": "4027-4027", "seccion": "6", "circuito": "00081", "votos": {"217": 12, "512": 3, "47": 11, "191": 7, "9005": 0, "514": 77, "9006": 193, "3": 1, "9004": 2, "9003": 0, "9002": 0, "9001": 58, "505": 14, "503": 1, "501": 7}, "direccion": "RUTA PROV N 158 0"}}, {"geometry": {"type": "Point", "coordinates": [-63.409349068799955, -32.612244258500006]}, "properties": {"establecim": "ESC PROV CMTE L PIEDRABUENA", "overall_total": 0, "fake_id": "4028-4029", "seccion": "6", "circuito": "00082", "votos": {"217": 181, "512": 6, "47": 145, "191": 4, "9005": 0, "514": 529, "9006": 1196, "3": 2, "9004": 0, "9003": 19, "9002": 0, "9001": 222, "505": 48, "503": 5, "501": 35}, "direccion": "FELIPE LORENZATTI 875"}}, {"geometry": {"type": "Point", "coordinates": [-63.34053902759996, -32.7470387648]}, "properties": {"establecim": "ESC.PROV.D.F.SARMIENTO", "overall_total": 38, "fake_id": "4030-4033", "seccion": "6", "circuito": "00083", "votos": {"217": 90, "512": 13, "47": 207, "191": 19, "9005": 0, "514": 1141, "9006": 2495, "3": 11, "9004": 27, "9003": 18, "9002": 0, "9001": 458, "505": 339, "503": 14, "501": 120}, "direccion": "PASCO"}}, {"geometry": {"type": "Point", "coordinates": [-63.2488296, -32.527799199999976]}, "properties": {"establecim": "ESC PROV JOSE DE SAN MARTIN", "overall_total": 0, "fake_id": "4034-4034", "seccion": "6", "circuito": "00084", "votos": {"217": 5, "512": 2, "47": 12, "191": 0, "9005": 0, "514": 50, "9006": 120, "3": 0, "9004": 0, "9003": 5, "9002": 0, "9001": 35, "505": 7, "503": 0, "501": 4}, "direccion": "PUBLICA S/N"}}, {"geometry": {"type": "Point", "coordinates": [-62.930106799999955, -32.25004130000003]}, "properties": {"establecim": "ESC.PROV.M.GUEMES", "overall_total": 5, "fake_id": "4035-4036", "seccion": "6", "circuito": "00086", "votos": {"217": 48, "512": 17, "47": 238, "191": 10, "9005": 0, "514": 654, "9006": 1694, "3": 1, "9004": 5, "9003": 8, "9002": 0, "9001": 520, "505": 118, "503": 17, "501": 53}, "direccion": "ANTONIO CONRERO 24"}}, {"geometry": {"type": "Point", "coordinates": [-63.434691302599965, -32.69466448719998]}, "properties": {"establecim": "ESC. A. CAPDEVILA", "overall_total": 20, "fake_id": "4037-4042", "seccion": "6", "circuito": "00087", "votos": {"217": 146, "512": 31, "47": 483, "191": 31, "9005": 0, "514": 1915, "9006": 4961, "3": 18, "9004": 6, "9003": 44, "9002": 0, "9001": 1523, "505": 524, "503": 35, "501": 185}, "direccion": "TICINO"}}, {"geometry": {"type": "Point", "coordinates": [-63.461953661239804, -32.2913386262478]}, "properties": {"establecim": "ESC.R.DE ESCALADA", "overall_total": 23, "fake_id": "4043-4051", "seccion": "6", "circuito": "00088", "votos": {"217": 253, "512": 38, "47": 435, "191": 29, "9005": 0, "514": 2892, "9006": 7526, "3": 8, "9004": 25, "9003": 18, "9002": 0, "9001": 2317, "505": 1124, "503": 69, "501": 295}, "direccion": "TIO PUJIO"}}, {"geometry": {"type": "Point", "coordinates": [-63.2492097782163, -32.41293132566267]}, "properties": {"establecim": "CENMA N\u00b0 96", "overall_total": 23, "fake_id": "4239-4246", "seccion": "6", "circuito": "00089", "votos": {"217": 763, "512": 59, "47": 399, "191": 53, "9005": 0, "514": 2758, "9006": 6819, "3": 48, "9004": 39, "9003": 21, "9002": 0, "9001": 1896, "505": 346, "503": 75, "501": 339}, "direccion": "SANTA FE 643"}}, {"geometry": {"type": "Point", "coordinates": [-63.24975375939299, -32.41230056533812]}, "properties": {"establecim": "ESC.COM.A.OCAMPO", "overall_total": 23, "fake_id": "4200-4211", "seccion": "6", "circuito": "00089", "votos": {"217": 1042, "512": 69, "47": 533, "191": 86, "9005": 2, "514": 3790, "9006": 9724, "3": 61, "9004": 52, "9003": 41, "9002": 1, "9001": 2967, "505": 443, "503": 108, "501": 506}, "direccion": "CATAMARCA 650"}}, {"geometry": {"type": "Point", "coordinates": [-63.246078927860836, -32.41781150734939]}, "properties": {"establecim": "ESC.DR. J.BIANCO", "overall_total": 25, "fake_id": "4064-4075", "seccion": "6", "circuito": "00089", "votos": {"217": 1155, "512": 62, "47": 638, "191": 93, "9005": 1, "514": 4154, "9006": 10616, "3": 64, "9004": 45, "9003": 35, "9002": 1, "9001": 3231, "505": 511, "503": 137, "501": 464}, "direccion": "BELGRANO 302"}}, {"geometry": {"type": "Point", "coordinates": [-63.24345985132633, -32.40928987722655]}, "properties": {"establecim": "ESC.J.INGENIEROS", "overall_total": 37, "fake_id": "4226-4238", "seccion": "6", "circuito": "00089", "votos": {"217": 1103, "512": 65, "47": 629, "191": 106, "9005": 0, "514": 4138, "9006": 10678, "3": 50, "9004": 65, "9003": 29, "9002": 0, "9001": 3265, "505": 515, "503": 132, "501": 544}, "direccion": "SANTA FE 1271"}}, {"geometry": {"type": "Point", "coordinates": [-63.24525059029585, -32.40411656600996]}, "properties": {"establecim": "ESC.REP.DEL PARAGUAY", "overall_total": 22, "fake_id": "4076-4085", "seccion": "6", "circuito": "00089", "votos": {"217": 749, "512": 58, "47": 639, "191": 100, "9005": 1, "514": 3450, "9006": 8944, "3": 62, "9004": 36, "9003": 26, "9002": 1, "9001": 2747, "505": 444, "503": 108, "501": 501}, "direccion": "CHILE 565"}}, {"geometry": {"type": "Point", "coordinates": [-63.25421926827582, -32.413095660309445]}, "properties": {"establecim": "ESCUELA J.MARMOL", "overall_total": 27, "fake_id": "4054-4063", "seccion": "6", "circuito": "00089", "votos": {"217": 991, "512": 56, "47": 464, "191": 158, "9005": 0, "514": 3466, "9006": 8947, "3": 39, "9004": 40, "9003": 34, "9002": 0, "9001": 2730, "505": 386, "503": 111, "501": 445}, "direccion": "NAC. UNIDAS 385"}}, {"geometry": {"type": "Point", "coordinates": [-63.2495, -32.4049]}, "properties": {"establecim": "INST.LA SANTISIMA TRINIDAD", "overall_total": 92, "fake_id": "4116-4141", "seccion": "6", "circuito": "00089", "votos": {"217": 2390, "512": 175, "47": 1325, "191": 230, "9005": 1, "514": 8961, "9006": 22005, "3": 114, "9004": 117, "9003": 89, "9002": 0, "9001": 6018, "505": 1043, "503": 306, "501": 1144}, "direccion": "SARSFIELD 1072"}}, {"geometry": {"type": "Point", "coordinates": [-63.1481429000128, -32.46656179504918]}, "properties": {"establecim": "INSTITUTO DEL ROSARIO", "overall_total": 88, "fake_id": "4086-4115", "seccion": "6", "circuito": "00089", "votos": {"217": 2669, "512": 184, "47": 1499, "191": 231, "9005": 9, "514": 10003, "9006": 25562, "3": 146, "9004": 135, "9003": 96, "9002": 0, "9001": 7689, "505": 1199, "503": 337, "501": 1277}, "direccion": "BV.ALVEAR 68"}}, {"geometry": {"type": "Point", "coordinates": [-63.2471, -32.4117]}, "properties": {"establecim": "INSTITUTO SAN ANTONIO", "overall_total": 8, "fake_id": "4247-4250", "seccion": "6", "circuito": "00089", "votos": {"217": 354, "512": 22, "47": 232, "191": 35, "9005": 0, "514": 1380, "9006": 3551, "3": 26, "9004": 20, "9003": 9, "9002": 7, "9001": 1080, "505": 153, "503": 40, "501": 185}, "direccion": "RUCCI 141"}}, {"geometry": {"type": "Point", "coordinates": [-63.242728109821506, -32.419792324513935]}, "properties": {"establecim": "IPEM N\u00b0275 EX COLEGIO NACIONAL", "overall_total": 44, "fake_id": "4185-4199", "seccion": "6", "circuito": "00089", "votos": {"217": 1297, "512": 89, "47": 765, "191": 114, "9005": 4, "514": 4834, "9006": 12165, "3": 58, "9004": 65, "9003": 46, "9002": 5, "9001": 3535, "505": 587, "503": 154, "501": 568}, "direccion": "S.DEL ESTERO 618"}}, {"geometry": {"type": "Point", "coordinates": [-64.16588208510126, -31.3984379671678]}, "properties": {"establecim": "ESC DEAN FUNES", "overall_total": 190, "fake_id": "881-890", "seccion": "1", "circuito": "0008B", "votos": {"217": 321, "512": 140, "47": 515, "191": 90, "9005": 4, "514": 3452, "9006": 8544, "3": 80, "9004": 61, "9003": 16, "9002": 1, "9001": 2545, "505": 405, "503": 319, "501": 405}, "direccion": "ANA M JANER 1551  B\u00b0PUEYRREDON"}}, {"geometry": {"type": "Point", "coordinates": [-64.16458511500123, -31.401150605871308]}, "properties": {"establecim": "INST OBISPO CAIXAL", "overall_total": 159, "fake_id": "873-880", "seccion": "1", "circuito": "0008B", "votos": {"217": 240, "512": 88, "47": 478, "191": 83, "9005": 0, "514": 2763, "9006": 6903, "3": 67, "9004": 45, "9003": 26, "9002": 0, "9001": 2070, "505": 301, "503": 264, "501": 319}, "direccion": "ANA M JANER 1250  B\u00b0PUEYRREDON"}}, {"geometry": {"type": "Point", "coordinates": [-64.1674254899678, -31.403140902836626]}, "properties": {"establecim": "INST SAGRADO CORAZON", "overall_total": 210, "fake_id": "891-900", "seccion": "1", "circuito": "0008B", "votos": {"217": 298, "512": 134, "47": 539, "191": 113, "9005": 1, "514": 3456, "9006": 8326, "3": 76, "9004": 51, "9003": 28, "9002": 4, "9001": 2298, "505": 371, "503": 346, "501": 401}, "direccion": "ROMA 1153 B\u00b0PUEYRREDON"}}, {"geometry": {"type": "Point", "coordinates": [-63.24835746844768, -32.43693243881911]}, "properties": {"establecim": "ESC.BME.MITRE", "overall_total": 27, "fake_id": "4251-4258", "seccion": "6", "circuito": "00090", "votos": {"217": 910, "512": 48, "47": 347, "191": 45, "9005": 1, "514": 2761, "9006": 7367, "3": 31, "9004": 24, "9003": 36, "9002": 0, "9001": 2303, "505": 525, "503": 65, "501": 244}, "direccion": "MITRE 1147"}}, {"geometry": {"type": "Point", "coordinates": [-63.250582233245524, -32.43688806803237]}, "properties": {"establecim": "ESC.REP.DE BOLIVIA", "overall_total": 6, "fake_id": "4293-4296", "seccion": "6", "circuito": "00090", "votos": {"217": 247, "512": 4, "47": 77, "191": 11, "9005": 0, "514": 688, "9006": 1751, "3": 4, "9004": 10, "9003": 10, "9002": 0, "9001": 564, "505": 47, "503": 11, "501": 72}, "direccion": "D.FUNES 1250"}}, {"geometry": {"type": "Point", "coordinates": [-63.24606996238263, -32.43613192984504]}, "properties": {"establecim": "INSTITUTO INMAC.CONCEPCION", "overall_total": 41, "fake_id": "4269-4281", "seccion": "6", "circuito": "00090", "votos": {"217": 1452, "512": 63, "47": 520, "191": 101, "9005": 0, "514": 4491, "9006": 11203, "3": 25, "9004": 49, "9003": 42, "9002": 1, "9001": 3096, "505": 881, "503": 91, "501": 350}, "direccion": "CABANILLAS 400"}}, {"geometry": {"type": "Point", "coordinates": [-64.20659939999994, -30.595175099999974]}, "properties": {"establecim": "ESC.PROV.FRAY M. ESQUIU", "overall_total": 1, "fake_id": "4297-4298", "seccion": "7", "circuito": "00091", "votos": {"217": 17, "512": 2, "47": 144, "191": 0, "9005": 1, "514": 437, "9006": 1160, "3": 0, "9004": 6, "9003": 4, "9002": 0, "9001": 362, "505": 178, "503": 2, "501": 6}, "direccion": "PUBLICA S/N"}}, {"geometry": {"type": "Point", "coordinates": [-64.55737205639993, -30.615762728099988]}, "properties": {"establecim": "ESC.PROV.R. DE NICARAGUA", "overall_total": 0, "fake_id": "4304-4304", "seccion": "7", "circuito": "00093", "votos": {"217": 9, "512": 2, "47": 58, "191": 0, "9005": 0, "514": 312, "9006": 820, "3": 0, "9004": 0, "9003": 0, "9002": 0, "9001": 254, "505": 183, "503": 1, "501": 1}, "direccion": "COPACABANA"}}, {"geometry": {"type": "Point", "coordinates": [-64.6662511129, -30.469242164100017]}, "properties": {"establecim": "ESC PROV GRAL M GUEMES", "overall_total": 0, "fake_id": "4305-4306", "seccion": "7", "circuito": "00094", "votos": {"217": 15, "512": 1, "47": 178, "191": 3, "9005": 0, "514": 604, "9006": 1586, "3": 1, "9004": 2, "9003": 6, "9002": 5, "9001": 489, "505": 270, "503": 5, "501": 7}, "direccion": "PUBLICA S/N"}}, {"geometry": {"type": "Point", "coordinates": [-64.34243799193925, -30.429313454052565]}, "properties": {"establecim": "ESC.A.M.SOBRAL", "overall_total": 56, "fake_id": "4347-4355", "seccion": "7", "circuito": "00095", "votos": {"217": 261, "512": 22, "47": 954, "191": 35, "9005": 1, "514": 3105, "9006": 7877, "3": 17, "9004": 33, "9003": 45, "9002": 0, "9001": 2251, "505": 913, "503": 60, "501": 124}, "direccion": "SANTIAGO DEL ESTERO Y LAS  HERAS 0"}}, {"geometry": {"type": "Point", "coordinates": [-64.3484045381451, -30.412754057512505]}, "properties": {"establecim": "ESC.AMANDA SUAREZ CORDOBA", "overall_total": 16, "fake_id": "4356-4358", "seccion": "7", "circuito": "00095", "votos": {"217": 92, "512": 10, "47": 321, "191": 17, "9005": 0, "514": 1034, "9006": 2744, "3": 12, "9004": 14, "9003": 15, "9002": 0, "9001": 855, "505": 289, "503": 22, "501": 47}, "direccion": "SANTA ROSA ESQ. AMADEO  SABATTINI 0"}}, {"geometry": {"type": "Point", "coordinates": [-64.36233725145702, -30.414813764432484]}, "properties": {"establecim": "ESC.M.J.G.DE BELGRANO", "overall_total": 51, "fake_id": "4316-4325", "seccion": "7", "circuito": "00095", "votos": {"217": 273, "512": 39, "47": 1054, "191": 24, "9005": 1, "514": 3465, "9006": 8935, "3": 17, "9004": 65, "9003": 24, "9002": 0, "9001": 2763, "505": 940, "503": 68, "501": 151}, "direccion": "JERONIMO L DE CABRERA L  ALGARROBO 451"}}, {"geometry": {"type": "Point", "coordinates": [-64.35575509561767, -30.423730280605582]}, "properties": {"establecim": "ESC.PEDRO N.ARIAS", "overall_total": 65, "fake_id": "4326-4336", "seccion": "7", "circuito": "00095", "votos": {"217": 313, "512": 47, "47": 1147, "191": 28, "9005": 1, "514": 3814, "9006": 9599, "3": 27, "9004": 39, "9003": 44, "9002": 0, "9001": 2746, "505": 1098, "503": 70, "501": 160}, "direccion": "CORDOBA 87"}}, {"geometry": {"type": "Point", "coordinates": [-64.34954777941618, -30.42784394664007]}, "properties": {"establecim": "ESC.PROV. M.MORENO", "overall_total": 43, "fake_id": "4337-4346", "seccion": "7", "circuito": "00095", "votos": {"217": 283, "512": 36, "47": 992, "191": 48, "9005": 0, "514": 3465, "9006": 8663, "3": 28, "9004": 46, "9003": 45, "9002": 0, "9001": 2464, "505": 988, "503": 65, "501": 160}, "direccion": "DORREGO OBRAS SANITARIA  326"}}, {"geometry": {"type": "Point", "coordinates": [-64.34912350719446, -30.42000853920329]}, "properties": {"establecim": "ESC.PROV.GRAL SAN MARTIN", "overall_total": 47, "fake_id": "4307-4315", "seccion": "7", "circuito": "00095", "votos": {"217": 274, "512": 26, "47": 915, "191": 24, "9005": 0, "514": 3123, "9006": 8103, "3": 24, "9004": 47, "9003": 27, "9002": 0, "9001": 2490, "505": 894, "503": 72, "501": 140}, "direccion": "DEAN FUNES"}}, {"geometry": {"type": "Point", "coordinates": [-64.36537157019998, -30.580031133800002]}, "properties": {"establecim": "ESCUELA FERNANDO FADER", "overall_total": 0, "fake_id": "4361-4361", "seccion": "7", "circuito": "00097", "votos": {"217": 4, "512": 1, "47": 34, "191": 0, "9005": 0, "514": 91, "9006": 207, "3": 0, "9004": 0, "9003": 0, "9002": 0, "9001": 58, "505": 16, "503": 1, "501": 2}, "direccion": "PUBLICA S/N"}}, {"geometry": {"type": "Point", "coordinates": [-64.53872684400002, -30.409496724900013]}, "properties": {"establecim": "ESCUELA FRAY GUILLERMO BUTLER", "overall_total": 0, "fake_id": "4362-4362", "seccion": "7", "circuito": "00098", "votos": {"217": 12, "512": 0, "47": 14, "191": 0, "9005": 0, "514": 61, "9006": 159, "3": 0, "9004": 2, "9003": 2, "9002": 0, "9001": 49, "505": 17, "503": 0, "501": 2}, "direccion": "PUBLICA S/N"}}, {"geometry": {"type": "Point", "coordinates": [-64.4946300001302, -30.217119996370027]}, "properties": {"establecim": "ESC.CIUDAD DE BS.AIRES", "overall_total": 13, "fake_id": "4363-4368", "seccion": "7", "circuito": "00099", "votos": {"217": 74, "512": 20, "47": 876, "191": 25, "9005": 1, "514": 1976, "9006": 4859, "3": 7, "9004": 23, "9003": 26, "9002": 0, "9001": 1310, "505": 407, "503": 28, "501": 73}, "direccion": "QUILINO ESTACION"}}, {"geometry": {"type": "Point", "coordinates": [-64.4946300001302, -30.217119996370027]}, "properties": {"establecim": "ESC.PROV.M.BELGRANO", "overall_total": 11, "fake_id": "4369-4374", "seccion": "7", "circuito": "00099", "votos": {"217": 75, "512": 17, "47": 807, "191": 8, "9005": 0, "514": 1974, "9006": 4786, "3": 4, "9004": 21, "9003": 28, "9002": 9, "9001": 1275, "505": 472, "503": 19, "501": 66}, "direccion": "QUILINO ESTACION"}}, {"geometry": {"type": "Point", "coordinates": [-64.20784329076528, -31.3743149937587]}, "properties": {"establecim": "ESC MAHATMA GANDHI", "overall_total": 81, "fake_id": "966-972", "seccion": "1", "circuito": "0009A", "votos": {"217": 199, "512": 87, "47": 352, "191": 62, "9005": 0, "514": 2038, "9006": 5220, "3": 46, "9004": 32, "9003": 9, "9002": 0, "9001": 1591, "505": 203, "503": 217, "501": 303}, "direccion": "TALAVERA DE MADRID 3261  B\u00b0LA FRANCE"}}, {"geometry": {"type": "Point", "coordinates": [-64.21225116900388, -31.376901123513772]}, "properties": {"establecim": "ESC CONGRESO DE TUCUMAN", "overall_total": 53, "fake_id": "989-994", "seccion": "1", "circuito": "0009B", "votos": {"217": 189, "512": 63, "47": 395, "191": 83, "9005": 4, "514": 2041, "9006": 4960, "3": 68, "9004": 16, "9003": 8, "9002": 0, "9001": 1332, "505": 193, "503": 203, "501": 312}, "direccion": "MALVINO 2772 B\u00b0LAS  MARGARITAS"}}, {"geometry": {"type": "Point", "coordinates": [-64.20872478159227, -31.38860732861772]}, "properties": {"establecim": "ESC PRESIDENTE KENNEDY", "overall_total": 110, "fake_id": "1142-1149", "seccion": "1", "circuito": "0009G", "votos": {"217": 261, "512": 95, "47": 463, "191": 123, "9005": 0, "514": 2694, "9006": 6473, "3": 71, "9004": 21, "9003": 12, "9002": 0, "9001": 1762, "505": 226, "503": 257, "501": 378}, "direccion": "JULIAN PAZ 1851 VILLA CABRERA"}}, {"geometry": {"type": "Point", "coordinates": [-64.2175977191167, -31.38364136182539]}, "properties": {"establecim": "INSTITUTO PE\u00d1A", "overall_total": 123, "fake_id": "1132-1141", "seccion": "1", "circuito": "0009G", "votos": {"217": 339, "512": 139, "47": 567, "191": 140, "9005": 0, "514": 3373, "9006": 8420, "3": 79, "9004": 26, "9003": 11, "9002": 0, "9001": 2524, "505": 275, "503": 351, "501": 473}, "direccion": "CIUDAD DE TAMPA 2954 VILLA  CABRERA"}}, {"geometry": {"type": "Point", "coordinates": [-64.46677189989994, -30.207553615499965]}, "properties": {"establecim": "ESC.PROV.D.V.SARSFIELD", "overall_total": 6, "fake_id": "4375-4377", "seccion": "7", "circuito": "00100", "votos": {"217": 31, "512": 6, "47": 285, "191": 6, "9005": 0, "514": 593, "9006": 1565, "3": 1, "9004": 0, "9003": 1, "9002": 0, "9001": 486, "505": 119, "503": 10, "501": 21}, "direccion": "VELEZ SARSFIELD 0"}}, {"geometry": {"type": "Point", "coordinates": [-64.44612852199994, -30.45417307109997]}, "properties": {"establecim": "ESC PROV JOAQUIN V GONZALEZ", "overall_total": 1, "fake_id": "4378-4378", "seccion": "7", "circuito": "00101", "votos": {"217": 4, "512": 1, "47": 29, "191": 0, "9005": 0, "514": 91, "9006": 213, "3": 1, "9004": 0, "9003": 2, "9002": 0, "9001": 61, "505": 22, "503": 1, "501": 0}, "direccion": "PUBLICA S/N"}}, {"geometry": {"type": "Point", "coordinates": [-63.65632130005618, -33.29645319459257]}, "properties": {"establecim": "ESC.EL GRAN CAPITAN", "overall_total": 5, "fake_id": "4379-4384", "seccion": "8", "circuito": "00102", "votos": {"217": 543, "512": 21, "47": 296, "191": 11, "9005": 0, "514": 2040, "9006": 5317, "3": 24, "9004": 20, "9003": 31, "9002": 0, "9001": 1640, "505": 526, "503": 33, "501": 127}, "direccion": "ALEJANDRO"}}, {"geometry": {"type": "Point", "coordinates": [-63.65632130005618, -33.29645319459257]}, "properties": {"establecim": "ESC.MISIONEROS SALESIANOS", "overall_total": 13, "fake_id": "4385-4392", "seccion": "8", "circuito": "00102", "votos": {"217": 684, "512": 19, "47": 343, "191": 25, "9005": 0, "514": 2710, "9006": 7004, "3": 30, "9004": 44, "9003": 17, "9002": 0, "9001": 2147, "505": 781, "503": 35, "501": 156}, "direccion": "ALEJANDRO"}}, {"geometry": {"type": "Point", "coordinates": [-63.66874116231271, -33.02575626509767]}, "properties": {"establecim": "ESC.SE\u00d1OR DE LA BUENA MUERTE", "overall_total": 1, "fake_id": "4394-4396", "seccion": "8", "circuito": "00105", "votos": {"217": 62, "512": 1, "47": 70, "191": 2, "9005": 0, "514": 306, "9006": 808, "3": 3, "9004": 0, "9003": 11, "9002": 0, "9001": 251, "505": 81, "503": 3, "501": 17}, "direccion": "BENGOLEA"}}, {"geometry": {"type": "Point", "coordinates": [-63.87395000007332, -32.81290999485688]}, "properties": {"establecim": "ESC,PROV.E.F.OLMOS", "overall_total": 9, "fake_id": "4423-4425", "seccion": "8", "circuito": "00106", "votos": {"217": 157, "512": 13, "47": 182, "191": 15, "9005": 0, "514": 1012, "9006": 2622, "3": 5, "9004": 14, "9003": 23, "9002": 0, "9001": 805, "505": 249, "503": 16, "501": 122}, "direccion": "CABRERA"}}, {"geometry": {"type": "Point", "coordinates": [-63.87395000007332, -32.81290999485688]}, "properties": {"establecim": "ESC.FRAY PIO BENTIVOGLIO", "overall_total": 22, "fake_id": "4416-4422", "seccion": "8", "circuito": "00106", "votos": {"217": 303, "512": 46, "47": 484, "191": 41, "9005": 0, "514": 2356, "9006": 6026, "3": 11, "9004": 26, "9003": 42, "9002": 0, "9001": 1835, "505": 594, "503": 42, "501": 224}, "direccion": "MAIPU BARRIO ARGENTIN 962"}}, {"geometry": {"type": "Point", "coordinates": [-63.87395000007332, -32.81290999485688]}, "properties": {"establecim": "ESC.PROV.J.M.PAZ", "overall_total": 26, "fake_id": "4407-4415", "seccion": "8", "circuito": "00106", "votos": {"217": 389, "512": 27, "47": 714, "191": 46, "9005": 0, "514": 3035, "9006": 7841, "3": 11, "9004": 44, "9003": 35, "9002": 0, "9001": 2403, "505": 718, "503": 89, "501": 304}, "direccion": "CABRERA"}}, {"geometry": {"type": "Point", "coordinates": [-63.87395000007332, -32.81290999485688]}, "properties": {"establecim": "INST. G.L.DE CABRERA", "overall_total": 19, "fake_id": "4397-4406", "seccion": "8", "circuito": "00106", "votos": {"217": 433, "512": 41, "47": 800, "191": 43, "9005": 0, "514": 3374, "9006": 8770, "3": 14, "9004": 51, "9003": 41, "9002": 0, "9001": 2688, "505": 808, "503": 64, "501": 394}, "direccion": "CABRERA"}}, {"geometry": {"type": "Point", "coordinates": [-64.0484289, -33.02470049999997]}, "properties": {"establecim": "ESC TTE CNEL J DUATE ARDOY", "overall_total": 5, "fake_id": "4432-4434", "seccion": "8", "circuito": "00108", "votos": {"217": 35, "512": 5, "47": 209, "191": 4, "9005": 0, "514": 951, "9006": 2549, "3": 0, "9004": 18, "9003": 9, "9002": 0, "9001": 799, "505": 436, "503": 21, "501": 57}, "direccion": "SARMIENTO 182"}}, {"geometry": {"type": "Point", "coordinates": [-63.78612000006516, -32.75642999488808]}, "properties": {"establecim": "ESC.PROV.GRAL SAN MARTIN", "overall_total": 64, "fake_id": "4441-4452", "seccion": "8", "circuito": "00109", "votos": {"217": 420, "512": 73, "47": 662, "191": 75, "9005": 0, "514": 4045, "9006": 10561, "3": 84, "9004": 94, "9003": 60, "9002": 0, "9001": 3253, "505": 1028, "503": 102, "501": 601}, "direccion": "BV SAN MARTIN 251"}}, {"geometry": {"type": "Point", "coordinates": [-63.786123691397, -32.75643173478411]}, "properties": {"establecim": "INST.TEC.ADRIAN P. URQUIA", "overall_total": 37, "fake_id": "4453-4461", "seccion": "8", "circuito": "00109", "votos": {"217": 313, "512": 56, "47": 465, "191": 59, "9005": 0, "514": 3025, "9006": 7260, "3": 79, "9004": 58, "9003": 45, "9002": 0, "9001": 1855, "505": 770, "503": 73, "501": 425}, "direccion": "GENERAL DEHEZA"}}, {"geometry": {"type": "Point", "coordinates": [-63.78612000006516, -32.75642999488808]}, "properties": {"establecim": "INSTITUTO SEC. 25 DE MAYO", "overall_total": 26, "fake_id": "4435-4440", "seccion": "8", "circuito": "00109", "votos": {"217": 192, "512": 41, "47": 353, "191": 32, "9005": 0, "514": 2019, "9006": 4907, "3": 54, "9004": 41, "9003": 24, "9002": 0, "9001": 1305, "505": 502, "503": 52, "501": 266}, "direccion": "DEHEZA"}}, {"geometry": {"type": "Point", "coordinates": [-64.25122867566485, -31.4358691985505]}, "properties": {"establecim": "ESC CADETES FUERZA AEREA", "overall_total": 344, "fake_id": "1279-1289", "seccion": "1", "circuito": "0010E", "votos": {"217": 492, "512": 164, "47": 429, "191": 71, "9005": 0, "514": 3739, "9006": 9096, "3": 95, "9004": 82, "9003": 36, "9002": 0, "9001": 2414, "505": 449, "503": 334, "501": 447}, "direccion": "LEOPOLDO CASAVEGA 2320"}}, {"geometry": {"type": "Point", "coordinates": [-64.25122867566485, -31.4358691985505]}, "properties": {"establecim": "J DE INF CADETES FUERZA AEREA", "overall_total": 31, "fake_id": "1298-1298", "seccion": "1", "circuito": "0010E", "votos": {"217": 37, "512": 12, "47": 45, "191": 6, "9005": 0, "514": 339, "9006": 871, "3": 14, "9004": 15, "9003": 6, "9002": 0, "9001": 266, "505": 33, "503": 29, "501": 38}, "direccion": "LEOPOLDO CASAVEGA 2320"}}, {"geometry": {"type": "Point", "coordinates": [-64.23744886508506, -31.43893471215556]}, "properties": {"establecim": "COL NUESTRA SE\u00d1ORA DE FATIMA", "overall_total": 244, "fake_id": "1323-1335", "seccion": "1", "circuito": "0010F", "votos": {"217": 486, "512": 214, "47": 660, "191": 101, "9005": 0, "514": 4412, "9006": 11179, "3": 201, "9004": 73, "9003": 19, "9002": 1, "9001": 3244, "505": 470, "503": 481, "501": 573}, "direccion": "VARELA ORTIZ 2600 B\u00b0  MATIENZO"}}, {"geometry": {"type": "Point", "coordinates": [-63.542358800000024, -33.66491779999997]}, "properties": {"establecim": "ESC CARLOS MARIA DE ALVEAR", "overall_total": 0, "fake_id": "4462-4462", "seccion": "8", "circuito": "00110", "votos": {"217": 1, "512": 1, "47": 1, "191": 0, "9005": 0, "514": 58, "9006": 110, "3": 1, "9004": 0, "9003": 1, "9002": 0, "9001": 26, "505": 18, "503": 0, "501": 3}, "direccion": "PUBLICA S/N"}}, {"geometry": {"type": "Point", "coordinates": [-63.6386182899692, -33.66586107222445]}, "properties": {"establecim": "ESC PROV DOMINGO F SARMIENTO", "overall_total": 4, "fake_id": "4464-4467", "seccion": "8", "circuito": "00111", "votos": {"217": 182, "512": 9, "47": 168, "191": 11, "9005": 0, "514": 1228, "9006": 3062, "3": 5, "9004": 5, "9003": 20, "9002": 0, "9001": 917, "505": 395, "503": 6, "501": 112}, "direccion": "CARLOS ALBERTO MAYOL S/N"}}, {"geometry": {"type": "Point", "coordinates": [-63.293723828508014, -33.42013629249501]}, "properties": {"establecim": "ESC.FORTIN HEROICO", "overall_total": 40, "fake_id": "4487-4498", "seccion": "8", "circuito": "00112", "votos": {"217": 480, "512": 24, "47": 668, "191": 57, "9005": 0, "514": 4155, "9006": 10731, "3": 57, "9004": 69, "9003": 32, "9002": 0, "9001": 3298, "505": 1228, "503": 91, "501": 532}, "direccion": "ACOSTA 673"}}, {"geometry": {"type": "Point", "coordinates": [-63.293310989412966, -33.4190360815334]}, "properties": {"establecim": "ESC.NAC.DE COMERCIO", "overall_total": 44, "fake_id": "4476-4486", "seccion": "8", "circuito": "00112", "votos": {"217": 383, "512": 42, "47": 635, "191": 33, "9005": 0, "514": 3451, "9006": 8881, "3": 39, "9004": 67, "9003": 22, "9002": 0, "9001": 2715, "505": 952, "503": 71, "501": 427}, "direccion": "V.SARSFIELD 651"}}, {"geometry": {"type": "Point", "coordinates": [-63.299674224371934, -33.420995689647015]}, "properties": {"establecim": "INST.NTA.M.DE LAS MERCEDES", "overall_total": 35, "fake_id": "4468-4475", "seccion": "8", "circuito": "00112", "votos": {"217": 309, "512": 28, "47": 514, "191": 21, "9005": 0, "514": 2767, "9006": 7269, "3": 23, "9004": 48, "9003": 20, "9002": 0, "9001": 2251, "505": 789, "503": 59, "501": 405}, "direccion": "9 DE JULIO 271"}}, {"geometry": {"type": "Point", "coordinates": [-63.47159744908135, -33.398534012704594]}, "properties": {"establecim": "ESC DOMINGO F SARMIENTO", "overall_total": 4, "fake_id": "4499-4500", "seccion": "8", "circuito": "00113", "votos": {"217": 243, "512": 5, "47": 74, "191": 4, "9005": 0, "514": 609, "9006": 1629, "3": 2, "9004": 5, "9003": 2, "9002": 0, "9001": 510, "505": 139, "503": 4, "501": 28}, "direccion": "SRITA BERNARDINA BAIGORRI  229"}}, {"geometry": {"type": "Point", "coordinates": [-63.905567, -33.0447044]}, "properties": {"establecim": "ESCUELA PROV.FRENCH Y BERUTTI", "overall_total": 2, "fake_id": "4501-4502", "seccion": "8", "circuito": "00114", "votos": {"217": 12, "512": 4, "47": 51, "191": 3, "9005": 0, "514": 294, "9006": 806, "3": 2, "9004": 3, "9003": 5, "9002": 0, "9001": 256, "505": 143, "503": 7, "501": 24}, "direccion": "25 DE MAYO 135"}}, {"geometry": {"type": "Point", "coordinates": [-63.8605318, -33.19901590000002]}, "properties": {"establecim": "ESC.CAP. F.D.ZARCO", "overall_total": 10, "fake_id": "4503-4506", "seccion": "8", "circuito": "00116", "votos": {"217": 172, "512": 21, "47": 210, "191": 5, "9005": 0, "514": 1370, "9006": 3518, "3": 6, "9004": 2, "9003": 41, "9002": 0, "9001": 1074, "505": 524, "503": 19, "501": 64}, "direccion": "MANUEL DE LA LASTR 623"}}, {"geometry": {"type": "Point", "coordinates": [-63.43422950003715, -33.18285559465409]}, "properties": {"establecim": "INSTITUTO DR.M. BELGRANO", "overall_total": 9, "fake_id": "4508-4513", "seccion": "8", "circuito": "00117", "votos": {"217": 342, "512": 19, "47": 448, "191": 18, "9005": 0, "514": 2042, "9006": 5376, "3": 8, "9004": 3, "9003": 24, "9002": 0, "9001": 1667, "505": 661, "503": 22, "501": 113}, "direccion": "SANTA EUFEMIA"}}, {"geometry": {"type": "Point", "coordinates": [-63.50573000003836, -33.03205999473611]}, "properties": {"establecim": "ESC.MARTIN GUERRICO", "overall_total": 13, "fake_id": "4521-4527", "seccion": "8", "circuito": "00118", "votos": {"217": 414, "512": 34, "47": 345, "191": 33, "9005": 0, "514": 2357, "9006": 6067, "3": 15, "9004": 23, "9003": 27, "9002": 0, "9001": 1855, "505": 684, "503": 65, "501": 202}, "direccion": "UCACHA"}}, {"geometry": {"type": "Point", "coordinates": [-63.50573000003836, -33.03205999473611]}, "properties": {"establecim": "ESC.PROV.J.B.ALBERDI", "overall_total": 23, "fake_id": "4514-4520", "seccion": "8", "circuito": "00118", "votos": {"217": 425, "512": 24, "47": 403, "191": 33, "9005": 0, "514": 2359, "9006": 6079, "3": 22, "9004": 10, "9003": 33, "9002": 0, "9001": 1860, "505": 617, "503": 47, "501": 223}, "direccion": "UCACHA"}}, {"geometry": {"type": "Point", "coordinates": [-62.62235999993887, -33.60715999442508]}, "properties": {"establecim": "ESC.PROV.D.F.SARMIENTO", "overall_total": 2, "fake_id": "4532-4536", "seccion": "9", "circuito": "00119", "votos": {"217": 143, "512": 17, "47": 254, "191": 13, "9005": 0, "514": 1671, "9006": 4272, "3": 38, "9004": 1, "9003": 10, "9002": 0, "9001": 1301, "505": 672, "503": 19, "501": 131}, "direccion": "HIPOLITO IRIGOYEN 476"}}, {"geometry": {"type": "Point", "coordinates": [-62.62235999993887, -33.60715999442508]}, "properties": {"establecim": "INSTITUTO SEC. V.SARSFIELD", "overall_total": 5, "fake_id": "4528-4531", "seccion": "9", "circuito": "00119", "votos": {"217": 114, "512": 16, "47": 212, "191": 10, "9005": 0, "514": 1340, "9006": 3378, "3": 18, "9004": 0, "9003": 11, "9002": 0, "9001": 1019, "505": 500, "503": 20, "501": 113}, "direccion": "HIPOLITO YRIGOYEN 757"}}, {"geometry": {"type": "Point", "coordinates": [-64.21811238758178, -31.40322451069207]}, "properties": {"establecim": "ESC JOSE MARIA PAZ", "overall_total": 297, "fake_id": "1656-1670", "seccion": "1", "circuito": "0011A", "votos": {"217": 510, "512": 235, "47": 732, "191": 148, "9005": 2, "514": 5138, "9006": 12367, "3": 112, "9004": 63, "9003": 32, "9002": 0, "9001": 3497, "505": 478, "503": 544, "501": 579}, "direccion": "AV COLON 2772 B\u00b0 ALTO  ALBERDI"}}, {"geometry": {"type": "Point", "coordinates": [-64.22217824653008, -31.422611799631564]}, "properties": {"establecim": "ESC SANTISIMA TRINIDAD", "overall_total": 130, "fake_id": "1769-1776", "seccion": "1", "circuito": "0011D", "votos": {"217": 284, "512": 129, "47": 461, "191": 78, "9005": 0, "514": 2705, "9006": 6965, "3": 83, "9004": 41, "9003": 19, "9002": 8, "9001": 2126, "505": 237, "503": 312, "501": 352}, "direccion": "BLAMEY LAFORE 1248 - B\u00b0SAN  RAFAEL B"}}, {"geometry": {"type": "Point", "coordinates": [-64.2310150056885, -31.42295842408258]}, "properties": {"establecim": "ESC JOSE MARMOL", "overall_total": 271, "fake_id": "1788-1798", "seccion": "1", "circuito": "0011E", "votos": {"217": 350, "512": 196, "47": 479, "191": 105, "9005": 1, "514": 3442, "9006": 8315, "3": 91, "9004": 79, "9003": 22, "9002": 5, "9001": 2160, "505": 379, "503": 369, "501": 366}, "direccion": "AV LOS PLATANOS 1346"}}, {"geometry": {"type": "Point", "coordinates": [-62.40288999990912, -33.641119994407354]}, "properties": {"establecim": "ESC.PROV.SGTO.CABRAL", "overall_total": 8, "fake_id": "4546-4555", "seccion": "9", "circuito": "00120", "votos": {"217": 201, "512": 24, "47": 747, "191": 25, "9005": 0, "514": 3364, "9006": 8244, "3": 16, "9004": 46, "9003": 31, "9002": 64, "9001": 2284, "505": 1063, "503": 54, "501": 317}, "direccion": "INTENDENTE MELQUIOT 922"}}, {"geometry": {"type": "Point", "coordinates": [-62.40288999990912, -33.641119994407354]}, "properties": {"establecim": "ESC.R.ESCALADA DE SAN MARTIN", "overall_total": 11, "fake_id": "4537-4545", "seccion": "9", "circuito": "00120", "votos": {"217": 133, "512": 29, "47": 638, "191": 18, "9005": 0, "514": 2705, "9006": 6743, "3": 9, "9004": 28, "9003": 31, "9002": 0, "9001": 2019, "505": 764, "503": 25, "501": 333}, "direccion": "AV. ESPA? 779"}}, {"geometry": {"type": "Point", "coordinates": [-62.303919999889104, -33.12331999468671]}, "properties": {"establecim": "ESC JOSE MARIA PAZ", "overall_total": 11, "fake_id": "4556-4561", "seccion": "9", "circuito": "00121", "votos": {"217": 158, "512": 20, "47": 431, "191": 19, "9005": 0, "514": 1993, "9006": 5234, "3": 19, "9004": 14, "9003": 32, "9002": 0, "9001": 1620, "505": 707, "503": 26, "501": 184}, "direccion": "BALDISSERA"}}, {"geometry": {"type": "Point", "coordinates": [-62.608901352899935, -33.25744597559997]}, "properties": {"establecim": "ESC PROV DOMINGO F SARMIENTO", "overall_total": 0, "fake_id": "4562-4562", "seccion": "9", "circuito": "00122", "votos": {"217": 29, "512": 3, "47": 19, "191": 0, "9005": 0, "514": 161, "9006": 439, "3": 0, "9004": 0, "9003": 3, "9002": 0, "9001": 139, "505": 83, "503": 2, "501": 0}, "direccion": "PUBLICA S/N"}}, {"geometry": {"type": "Point", "coordinates": [-62.093539999855494, -33.12810999468461]}, "properties": {"establecim": "ESC JUAN BAUTISTA ALBERDI", "overall_total": 7, "fake_id": "4570-4574", "seccion": "9", "circuito": "00123", "votos": {"217": 92, "512": 13, "47": 415, "191": 17, "9005": 0, "514": 1647, "9006": 4293, "3": 5, "9004": 0, "9003": 36, "9002": 0, "9001": 1323, "505": 611, "503": 17, "501": 110}, "direccion": "CAMILO ALDAO"}}, {"geometry": {"type": "Point", "coordinates": [-62.093539999855494, -33.12810999468461]}, "properties": {"establecim": "IPEM N\u00b0151 J URBIZU", "overall_total": 6, "fake_id": "4563-4569", "seccion": "9", "circuito": "00123", "votos": {"217": 148, "512": 19, "47": 633, "191": 22, "9005": 0, "514": 2316, "9006": 6016, "3": 9, "9004": 0, "9003": 32, "9002": 0, "9001": 1850, "505": 792, "503": 16, "501": 173}, "direccion": "BV JOSE M ALDAO 1160"}}, {"geometry": {"type": "Point", "coordinates": [-62.3389569999435, -33.47301419449749]}, "properties": {"establecim": "ESC.SEC.TOMAS THOMAS", "overall_total": 4, "fake_id": "4575-4578", "seccion": "9", "circuito": "00124", "votos": {"217": 388, "512": 9, "47": 144, "191": 3, "9005": 0, "514": 1076, "9006": 2410, "3": 5, "9004": 8, "9003": 7, "9002": 0, "9001": 445, "505": 264, "503": 11, "501": 46}, "direccion": "CORDOBA 138"}}, {"geometry": {"type": "Point", "coordinates": [-62.19110653337109, -33.28270159469849]}, "properties": {"establecim": "COLEGIO JUAN XXIII", "overall_total": 33, "fake_id": "4586-4591", "seccion": "9", "circuito": "00125", "votos": {"217": 275, "512": 26, "47": 388, "191": 32, "9005": 0, "514": 2045, "9006": 5004, "3": 11, "9004": 12, "9003": 42, "9002": 0, "9001": 1341, "505": 536, "503": 43, "501": 220}, "direccion": "CORRAL DE BUSTOS"}}, {"geometry": {"type": "Point", "coordinates": [-62.184620246709834, -33.27722910371567]}, "properties": {"establecim": "ESC HIPOLITO IRIGOYEN", "overall_total": 26, "fake_id": "4600-4604", "seccion": "9", "circuito": "00125", "votos": {"217": 273, "512": 25, "47": 315, "191": 22, "9005": 0, "514": 1698, "9006": 3845, "3": 6, "9004": 0, "9003": 58, "9002": 0, "9001": 800, "505": 434, "503": 29, "501": 159}, "direccion": "CORRAL DE BUSTOS"}}, {"geometry": {"type": "Point", "coordinates": [-62.18784254962177, -33.289537201002055]}, "properties": {"establecim": "ESC NOR SUP MAESTROS ARGENTINO", "overall_total": 39, "fake_id": "4592-4599", "seccion": "9", "circuito": "00125", "votos": {"217": 430, "512": 27, "47": 519, "191": 46, "9005": 0, "514": 2717, "9006": 7013, "3": 10, "9004": 5, "9003": 57, "9002": 0, "9001": 2148, "505": 677, "503": 44, "501": 294}, "direccion": "CORRAL DE BUSTOS"}}, {"geometry": {"type": "Point", "coordinates": [-62.183419117571546, -33.28554788315895]}, "properties": {"establecim": "ESC R ESCALADA DE SAN MARTIN", "overall_total": 40, "fake_id": "4579-4585", "seccion": "9", "circuito": "00125", "votos": {"217": 305, "512": 37, "47": 444, "191": 34, "9005": 2, "514": 2383, "9006": 6195, "3": 9, "9004": 8, "9003": 62, "9002": 14, "9001": 1898, "505": 640, "503": 46, "501": 273}, "direccion": "CORRAL DE BUSTOS"}}, {"geometry": {"type": "Point", "coordinates": [-61.80618999980508, -33.00789999475131]}, "properties": {"establecim": "COLEGIO SANTA JUANA DE ARCO", "overall_total": 10, "fake_id": "4605-4611", "seccion": "9", "circuito": "00126", "votos": {"217": 84, "512": 42, "47": 422, "191": 39, "9005": 0, "514": 1977, "9006": 5057, "3": 3, "9004": 0, "9003": 37, "9002": 0, "9001": 1540, "505": 730, "503": 26, "501": 147}, "direccion": "CRUZ ALTA"}}, {"geometry": {"type": "Point", "coordinates": [-61.80618999980508, -33.00789999475131]}, "properties": {"establecim": "ESC LIB GRAL SAN MARTIN", "overall_total": 6, "fake_id": "4619-4623", "seccion": "9", "circuito": "00126", "votos": {"217": 87, "512": 21, "47": 323, "191": 26, "9005": 0, "514": 1638, "9006": 4202, "3": 8, "9004": 3, "9003": 38, "9002": 0, "9001": 1282, "505": 626, "503": 30, "501": 114}, "direccion": "RIVADAVIA 1252 B\u00b0RIVADAVIA"}}, {"geometry": {"type": "Point", "coordinates": [-62.599424599965644, -33.396084594538685]}, "properties": {"establecim": "ESC DALMACIO VELEZ SARSFIELD", "overall_total": 8, "fake_id": "4624-4630", "seccion": "9", "circuito": "00127", "votos": {"217": 193, "512": 18, "47": 631, "191": 19, "9005": 0, "514": 2165, "9006": 5533, "3": 4, "9004": 0, "9003": 28, "9002": 0, "9001": 1684, "505": 550, "503": 21, "501": 212}, "direccion": "AV CORDOBA 324"}}, {"geometry": {"type": "Point", "coordinates": [-62.22781999987489, -32.944269994784776]}, "properties": {"establecim": "ESC MARIANO MORENO", "overall_total": 10, "fake_id": "4636-4640", "seccion": "9", "circuito": "00128", "votos": {"217": 195, "512": 10, "47": 302, "191": 28, "9005": 0, "514": 1718, "9006": 4458, "3": 8, "9004": 6, "9003": 33, "9002": 0, "9001": 1370, "505": 637, "503": 30, "501": 111}, "direccion": "INRIVILLE"}}, {"geometry": {"type": "Point", "coordinates": [-62.22781999987489, -32.944269994784776]}, "properties": {"establecim": "INST JOSE MARIA PAZ", "overall_total": 5, "fake_id": "4631-4635", "seccion": "9", "circuito": "00128", "votos": {"217": 216, "512": 19, "47": 273, "191": 32, "9005": 0, "514": 1710, "9006": 4172, "3": 9, "9004": 0, "9003": 37, "9002": 0, "9001": 1090, "505": 647, "503": 33, "501": 101}, "direccion": "INRIVILLE"}}, {"geometry": {"type": "Point", "coordinates": [-62.380307143781096, -33.31810934893243]}, "properties": {"establecim": "INST SEC ISLA VERDE", "overall_total": 20, "fake_id": "4642-4653", "seccion": "9", "circuito": "00129", "votos": {"217": 318, "512": 64, "47": 765, "191": 24, "9005": 0, "514": 4099, "9006": 10225, "3": 16, "9004": 5, "9003": 72, "9002": 0, "9001": 3063, "505": 1447, "503": 71, "501": 261}, "direccion": "LIBERTAD 446"}}, {"geometry": {"type": "Point", "coordinates": [-62.17531069999995, -33.31144939999995]}, "properties": {"establecim": "ESC.PROV.GRAL SAN MARTIN", "overall_total": 4, "fake_id": "4654-4655", "seccion": "9", "circuito": "00130", "votos": {"217": 82, "512": 6, "47": 69, "191": 3, "9005": 0, "514": 654, "9006": 1746, "3": 1, "9004": 6, "9003": 4, "9002": 0, "9001": 546, "505": 315, "503": 3, "501": 53}, "direccion": "ISLAS MALVINAS 0"}}, {"geometry": {"type": "Point", "coordinates": [-62.30049999988356, -32.6585699949426]}, "properties": {"establecim": "ESC DE COMERCIO Y BACHILLERATO", "overall_total": 11, "fake_id": "4672-4682", "seccion": "9", "circuito": "00131", "votos": {"217": 1160, "512": 27, "47": 387, "191": 27, "9005": 1, "514": 3360, "9006": 8840, "3": 17, "9004": 26, "9003": 13, "9002": 1, "9001": 2739, "505": 894, "503": 36, "501": 141}, "direccion": "LEONES"}}, {"geometry": {"type": "Point", "coordinates": [-62.30049999988356, -32.6585699949426]}, "properties": {"establecim": "ESC JOAQUIN V GONZALEZ", "overall_total": 12, "fake_id": "4656-4664", "seccion": "9", "circuito": "00131", "votos": {"217": 994, "512": 22, "47": 335, "191": 31, "9005": 1, "514": 3029, "9006": 8027, "3": 115, "9004": 19, "9003": 17, "9002": 0, "9001": 2499, "505": 783, "503": 36, "501": 134}, "direccion": "RAMON INFANTE 422"}}, {"geometry": {"type": "Point", "coordinates": [-62.30049999988356, -32.6585699949426]}, "properties": {"establecim": "IPEM N\u00b0256-LIB GRAL SAN MARTIN", "overall_total": 10, "fake_id": "4665-4671", "seccion": "9", "circuito": "00131", "votos": {"217": 805, "512": 21, "47": 281, "191": 24, "9005": 1, "514": 2346, "9006": 6222, "3": 9, "9004": 11, "9003": 13, "9002": 0, "9001": 1938, "505": 626, "503": 35, "501": 102}, "direccion": "LEONES"}}, {"geometry": {"type": "Point", "coordinates": [-62.023899999841426, -32.98462999476322]}, "properties": {"establecim": "ESC GENERAL SAN MARTIN", "overall_total": 7, "fake_id": "4684-4691", "seccion": "9", "circuito": "00132", "votos": {"217": 120, "512": 27, "47": 609, "191": 30, "9005": 1, "514": 2474, "9006": 6309, "3": 8, "9004": 8, "9003": 25, "9002": 0, "9001": 1789, "505": 1079, "503": 33, "501": 99}, "direccion": "LOS SURGENTES"}}, {"geometry": {"type": "Point", "coordinates": [-62.099789087654514, -32.699289733876896]}, "properties": {"establecim": "COLEGIO SAGRADO CORAZON", "overall_total": 19, "fake_id": "4692-4704", "seccion": "9", "circuito": "00133", "votos": {"217": 422, "512": 37, "47": 455, "191": 46, "9005": 0, "514": 4094, "9006": 10246, "3": 26, "9004": 17, "9003": 42, "9002": 0, "9001": 2942, "505": 1211, "503": 55, "501": 880}, "direccion": "LARDIZABAL 545"}}, {"geometry": {"type": "Point", "coordinates": [-62.1011931720468, -32.69725290817774]}, "properties": {"establecim": "ESC BERNARDINO RIVADAVIA", "overall_total": 19, "fake_id": "4722-4732", "seccion": "9", "circuito": "00133", "votos": {"217": 376, "512": 33, "47": 425, "191": 38, "9005": 0, "514": 3751, "9006": 9312, "3": 21, "9004": 49, "9003": 30, "9002": 0, "9001": 2646, "505": 1002, "503": 50, "501": 872}, "direccion": "SAN MARTIN 694"}}, {"geometry": {"type": "Point", "coordinates": [-62.10836695727947, -32.703114019754416]}, "properties": {"establecim": "ESC MARIANO MORENO", "overall_total": 9, "fake_id": "4745-4752", "seccion": "9", "circuito": "00133", "votos": {"217": 268, "512": 28, "47": 271, "191": 30, "9005": 1, "514": 2723, "9006": 6690, "3": 12, "9004": 12, "9003": 39, "9002": 1, "9001": 1859, "505": 755, "503": 41, "501": 641}, "direccion": "SAN JUAN 1090 SUR"}}, {"geometry": {"type": "Point", "coordinates": [-62.10881118158329, -32.691679482487494]}, "properties": {"establecim": "ESC NORMAL SUP DR M BELGRANO", "overall_total": 26, "fake_id": "4705-4721", "seccion": "9", "circuito": "00133", "votos": {"217": 570, "512": 83, "47": 625, "191": 62, "9005": 0, "514": 5459, "9006": 13587, "3": 33, "9004": 42, "9003": 42, "9002": 0, "9001": 3925, "505": 1439, "503": 76, "501": 1205}, "direccion": "R SAENZ PE\u00d1A Y S DEL ESTERO"}}, {"geometry": {"type": "Point", "coordinates": [-62.11063128381531, -32.69337848204046]}, "properties": {"establecim": "ESCUELA BARTOLOME MITRE", "overall_total": 11, "fake_id": "4753-4757", "seccion": "9", "circuito": "00133", "votos": {"217": 192, "512": 23, "47": 185, "191": 15, "9005": 0, "514": 1700, "9006": 4151, "3": 18, "9004": 20, "9003": 12, "9002": 0, "9001": 1091, "505": 503, "503": 31, "501": 350}, "direccion": "HIPOLITO YRIGOYEN 1409  NOROESTE"}}, {"geometry": {"type": "Point", "coordinates": [-62.10279817821192, -32.68698123328811]}, "properties": {"establecim": "IPEM N\u00b051 NICOLAS AVELLANEDA", "overall_total": 22, "fake_id": "4733-4744", "seccion": "9", "circuito": "00133", "votos": {"217": 416, "512": 46, "47": 414, "191": 49, "9005": 0, "514": 4081, "9006": 10047, "3": 25, "9004": 37, "9003": 52, "9002": 0, "9001": 2869, "505": 1115, "503": 75, "501": 846}, "direccion": "MARCOS JUAREZ"}}, {"geometry": {"type": "Point", "coordinates": [-62.45617999991054, -32.91550999480029]}, "properties": {"establecim": "ESC JOSE MANUEL ESTRADA", "overall_total": 13, "fake_id": "4758-4765", "seccion": "9", "circuito": "00134", "votos": {"217": 345, "512": 15, "47": 500, "191": 36, "9005": 0, "514": 2762, "9006": 7184, "3": 19, "9004": 24, "9003": 29, "9002": 0, "9001": 2211, "505": 1063, "503": 34, "501": 133}, "direccion": "MONTE BUEY"}}, {"geometry": {"type": "Point", "coordinates": [-62.45617999991054, -32.91550999480029]}, "properties": {"establecim": "ESC MANUEL BELGRANO", "overall_total": 5, "fake_id": "4766-4771", "seccion": "9", "circuito": "00134", "votos": {"217": 294, "512": 18, "47": 417, "191": 23, "9005": 0, "514": 2072, "9006": 5452, "3": 9, "9004": 5, "9003": 24, "9002": 0, "9001": 1690, "505": 753, "503": 32, "501": 110}, "direccion": "MONTE BUEY"}}, {"geometry": {"type": "Point", "coordinates": [-62.267972, -33.24807]}, "properties": {"establecim": "ESC.PROV.GRAL SAN MARTIN", "overall_total": 4, "fake_id": "4773-4773", "seccion": "9", "circuito": "00135", "votos": {"217": 29, "512": 0, "47": 25, "191": 2, "9005": 0, "514": 344, "9006": 624, "3": 2, "9004": 0, "9003": 8, "9002": 0, "9001": 0, "505": 191, "503": 8, "501": 11}, "direccion": "AV ITALIA 448"}}, {"geometry": {"type": "Point", "coordinates": [-61.91638999981731, -32.73078999490326]}, "properties": {"establecim": "ESC 9 DE JULIO", "overall_total": 6, "fake_id": "4779-4781", "seccion": "9", "circuito": "00136", "votos": {"217": 62, "512": 11, "47": 248, "191": 12, "9005": 0, "514": 926, "9006": 2406, "3": 3, "9004": 13, "9003": 7, "9002": 0, "9001": 740, "505": 285, "503": 11, "501": 82}, "direccion": "ALSINA 517 SUR"}}, {"geometry": {"type": "Point", "coordinates": [-61.91638999981731, -32.73078999490326]}, "properties": {"establecim": "ESC ROQUE SAENZ PE\u00d1A", "overall_total": 7, "fake_id": "4774-4778", "seccion": "9", "circuito": "00136", "votos": {"217": 84, "512": 19, "47": 410, "191": 7, "9005": 0, "514": 1544, "9006": 3996, "3": 7, "9004": 13, "9003": 18, "9002": 0, "9001": 1226, "505": 512, "503": 13, "501": 136}, "direccion": "ROCA"}}, {"geometry": {"type": "Point", "coordinates": [-62.10206692052254, -32.40890318088168]}, "properties": {"establecim": "INSTITUTO MANUEL BELGRANO", "overall_total": 4, "fake_id": "4782-4784", "seccion": "9", "circuito": "00137", "votos": {"217": 24, "512": 5, "47": 103, "191": 3, "9005": 0, "514": 503, "9006": 1331, "3": 4, "9004": 0, "9003": 13, "9002": 0, "9001": 414, "505": 196, "503": 4, "501": 58}, "direccion": "SAIRA"}}, {"geometry": {"type": "Point", "coordinates": [-65.28251172079999, -31.04115450779996]}, "properties": {"establecim": "ESC PROV COMTE ROSENDO LEAL", "overall_total": 4, "fake_id": "4785-4787", "seccion": "10", "circuito": "00138", "votos": {"217": 42, "512": 10, "47": 131, "191": 6, "9005": 1, "514": 758, "9006": 1521, "3": 4, "9004": 7, "9003": 6, "9002": 0, "9001": 186, "505": 343, "503": 12, "501": 11}, "direccion": "CESAR MANUEL VERA S/N"}}, {"geometry": {"type": "Point", "coordinates": [-65.34106074554008, -31.089135662527053]}, "properties": {"establecim": "ESC PROV JERONIMO CORTES", "overall_total": 0, "fake_id": "4792-4792", "seccion": "10", "circuito": "00139", "votos": {"217": 11, "512": 3, "47": 23, "191": 1, "9005": 0, "514": 208, "9006": 520, "3": 0, "9004": 1, "9003": 1, "9002": 0, "9001": 156, "505": 108, "503": 0, "501": 8}, "direccion": "PUBLICA S/N"}}, {"geometry": {"type": "Point", "coordinates": [-64.16019117468787, -31.388821080087048]}, "properties": {"establecim": "ESC VICENTE F LOPEZ", "overall_total": 367, "fake_id": "2682-2695", "seccion": "1", "circuito": "0013J", "votos": {"217": 482, "512": 169, "47": 658, "191": 122, "9005": 2, "514": 4822, "9006": 11282, "3": 95, "9004": 92, "9003": 29, "9002": 0, "9001": 2845, "505": 665, "503": 365, "501": 569}, "direccion": "TISSERA 1551 B\u00b0 L N ALEM"}}, {"geometry": {"type": "Point", "coordinates": [-64.13330886549669, -31.385196238581408]}, "properties": {"establecim": "ESC DR ANTONIO NORES", "overall_total": 185, "fake_id": "2723-2731", "seccion": "1", "circuito": "0013N", "votos": {"217": 264, "512": 142, "47": 525, "191": 74, "9005": 0, "514": 3107, "9006": 7639, "3": 64, "9004": 53, "9003": 14, "9002": 0, "9001": 2129, "505": 349, "503": 346, "501": 387}, "direccion": "ALSINA 2032 B\u00b0YOFRE N"}}, {"geometry": {"type": "Point", "coordinates": [-65.30273585179992, -31.222911548799996]}, "properties": {"establecim": "ESC PROV GREGORIA PEREZ", "overall_total": 0, "fake_id": "4795-4795", "seccion": "10", "circuito": "00140", "votos": {"217": 17, "512": 1, "47": 35, "191": 0, "9005": 0, "514": 243, "9006": 571, "3": 0, "9004": 4, "9003": 3, "9002": 0, "9001": 164, "505": 101, "503": 2, "501": 1}, "direccion": "PUBLICA S/N"}}, {"geometry": {"type": "Point", "coordinates": [-65.43002651800002, -30.806119862300008]}, "properties": {"establecim": "ESC PRIMARIA JORGE LUIS BORGES", "overall_total": 0, "fake_id": "4797-4797", "seccion": "10", "circuito": "00141", "votos": {"217": 5, "512": 1, "47": 8, "191": 0, "9005": 0, "514": 89, "9006": 201, "3": 0, "9004": 0, "9003": 0, "9002": 0, "9001": 56, "505": 42, "503": 0, "501": 0}, "direccion": "PIEDRITA BLANCA"}}, {"geometry": {"type": "Point", "coordinates": [-65.10396393786681, -31.17493269056101]}, "properties": {"establecim": "ESC.SEC.J.L.DE CABRERA", "overall_total": 18, "fake_id": "4799-4804", "seccion": "10", "circuito": "00142", "votos": {"217": 125, "512": 18, "47": 315, "191": 11, "9005": 0, "514": 1830, "9006": 4818, "3": 6, "9004": 20, "9003": 17, "9002": 0, "9001": 1494, "505": 874, "503": 24, "501": 66}, "direccion": "RIVADAVIA E IRIGOYEN 0"}}, {"geometry": {"type": "Point", "coordinates": [-65.44692488329997, -31.413954378]}, "properties": {"establecim": "ESC PROV MARIANO MORENO", "overall_total": 4, "fake_id": "4806-4808", "seccion": "11", "circuito": "00144", "votos": {"217": 129, "512": 8, "47": 58, "191": 1, "9005": 0, "514": 1000, "9006": 2222, "3": 3, "9004": 7, "9003": 13, "9002": 0, "9001": 612, "505": 371, "503": 4, "501": 12}, "direccion": "PUBLICA S/N"}}, {"geometry": {"type": "Point", "coordinates": [-65.09016968558369, -31.31837172465572]}, "properties": {"establecim": "ESC GENERAL JOSE DE SAN MARTIN", "overall_total": 23, "fake_id": "4814-4819", "seccion": "11", "circuito": "00146", "votos": {"217": 107, "512": 17, "47": 411, "191": 6, "9005": 0, "514": 1773, "9006": 4305, "3": 19, "9004": 29, "9003": 12, "9002": 0, "9001": 1145, "505": 637, "503": 35, "501": 91}, "direccion": "AV CURA BROCHERO 150"}}, {"geometry": {"type": "Point", "coordinates": [-64.2349468798198, -31.372775495154816]}, "properties": {"establecim": "ESC JUAN ZORRILA DE SAN MARTIN", "overall_total": 79, "fake_id": "2856-2867", "seccion": "1", "circuito": "0014D", "votos": {"217": 275, "512": 91, "47": 783, "191": 240, "9005": 0, "514": 3742, "9006": 9408, "3": 134, "9004": 17, "9003": 25, "9002": 0, "9001": 2833, "505": 219, "503": 212, "501": 758}, "direccion": "JOSE E BUSTOS 1875 C DE LAS  ROSAS"}}, {"geometry": {"type": "Point", "coordinates": [-64.57231734721722, -32.1868979461095]}, "properties": {"establecim": "ESC.PROV.R.SAENZ PE\u00d1A", "overall_total": 2, "fake_id": "3086-3087", "seccion": "2", "circuito": "0015A", "votos": {"217": 50, "512": 2, "47": 34, "191": 6, "9005": 0, "514": 416, "9006": 1088, "3": 4, "9004": 7, "9003": 2, "9002": 0, "9001": 336, "505": 208, "503": 5, "501": 16}, "direccion": "CALLE 6 0"}}, {"geometry": {"type": "Point", "coordinates": [-64.73785855399998, -31.916138677]}, "properties": {"establecim": "ESC. JOAQUIN V. GONZALEZ", "overall_total": 2, "fake_id": "3091-3091", "seccion": "2", "circuito": "0016C", "votos": {"217": 7, "512": 4, "47": 13, "191": 2, "9005": 0, "514": 96, "9006": 260, "3": 1, "9004": 3, "9003": 3, "9002": 0, "9001": 82, "505": 36, "503": 4, "501": 7}, "direccion": "PUBLICA 0"}}, {"geometry": {"type": "Point", "coordinates": [-64.52314, -32.2405168]}, "properties": {"establecim": "ESC.PROV.PADRE FELIX ENRIQUE", "overall_total": 1, "fake_id": "3120-3120", "seccion": "2", "circuito": "0018D", "votos": {"217": 6, "512": 3, "47": 13, "191": 2, "9005": 0, "514": 94, "9006": 162, "3": 0, "9004": 0, "9003": 0, "9002": 0, "9001": 0, "505": 31, "503": 4, "501": 8}, "direccion": "VILLA QUILLINZO"}}, {"geometry": {"type": "Point", "coordinates": [-64.55461649690263, -31.981051964383283]}, "properties": {"establecim": "COLEGIO ARGENTINO GERMANO", "overall_total": 14, "fake_id": "3147-3151", "seccion": "2", "circuito": "0020A", "votos": {"217": 192, "512": 27, "47": 270, "191": 69, "9005": 0, "514": 1644, "9006": 4175, "3": 9, "9004": 30, "9003": 16, "9002": 0, "9001": 1265, "505": 351, "503": 54, "501": 234}, "direccion": "VILLA GRAL.BELGRANO"}}, {"geometry": {"type": "Point", "coordinates": [-64.56208067689688, -31.985605778088342]}, "properties": {"establecim": "ESC. DE COM. D. DE ROJAS", "overall_total": 21, "fake_id": "3140-3146", "seccion": "2", "circuito": "0020A", "votos": {"217": 273, "512": 41, "47": 351, "191": 73, "9005": 0, "514": 2307, "9006": 5614, "3": 18, "9004": 39, "9003": 24, "9002": 0, "9001": 1527, "505": 532, "503": 88, "501": 320}, "direccion": "VILLA GRAL.BELGRANO"}}, {"geometry": {"type": "Point", "coordinates": [-64.56287382385902, -31.985568949664312]}, "properties": {"establecim": "ESC.GRAL J. DE SAN MARTIN", "overall_total": 28, "fake_id": "3132-3139", "seccion": "2", "circuito": "0020A", "votos": {"217": 308, "512": 52, "47": 417, "191": 117, "9005": 1, "514": 2644, "9006": 6430, "3": 21, "9004": 37, "9003": 15, "9002": 0, "9001": 1753, "505": 566, "503": 101, "501": 370}, "direccion": "VILLA GRAL.BELGRANO"}}, {"geometry": {"type": "Point", "coordinates": [-63.39152849349996, -30.181420243000016]}, "properties": {"establecim": "ESC PROV PRIMERA JUNTA", "overall_total": 0, "fake_id": "5988-5988", "seccion": "15", "circuito": "00224", "votos": {"217": 2, "512": 0, "47": 4, "191": 0, "9005": 0, "514": 50, "9006": 86, "3": 0, "9004": 0, "9003": 0, "9002": 0, "9001": 18, "505": 12, "503": 0, "501": 0}, "direccion": "ENCRUCIJADA"}}, {"geometry": {"type": "Point", "coordinates": [-63.5161985, -29.7218491]}, "properties": {"establecim": "ESC GRAL SAN MARTIN", "overall_total": 8, "fake_id": "5989-5991", "seccion": "15", "circuito": "00225", "votos": {"217": 50, "512": 8, "47": 67, "191": 1, "9005": 0, "514": 842, "9006": 1814, "3": 2, "9004": 2, "9003": 13, "9002": 0, "9001": 388, "505": 417, "503": 2, "501": 14}, "direccion": "PUBLICA S/N"}}, {"geometry": {"type": "Point", "coordinates": [-63.62746769999996, -29.802707599999977]}, "properties": {"establecim": "ESC PRO MARTIN GUEMES", "overall_total": 8, "fake_id": "5993-5994", "seccion": "15", "circuito": "00226", "votos": {"217": 28, "512": 8, "47": 55, "191": 3, "9005": 0, "514": 446, "9006": 1044, "3": 2, "9004": 0, "9003": 11, "9002": 0, "9001": 299, "505": 164, "503": 5, "501": 15}, "direccion": "PUBLICA S/N"}}, {"geometry": {"type": "Point", "coordinates": [-63.82536760512387, -30.075879657618604]}, "properties": {"establecim": "ESC.PROV.CNEL.F.DE BEDOYA", "overall_total": 15, "fake_id": "5997-5998", "seccion": "15", "circuito": "00227", "votos": {"217": 40, "512": 9, "47": 93, "191": 1, "9005": 0, "514": 634, "9006": 1598, "3": 5, "9004": 0, "9003": 24, "9002": 0, "9001": 482, "505": 282, "503": 5, "501": 8}, "direccion": "RAYO CORTADO"}}, {"geometry": {"type": "Point", "coordinates": [-63.592564718609, -30.159823881897676]},