{"type": "FeatureCollection", "features": [{"geometry": {"type": "Point", "coordinates": [-64.18965445684096, -31.414637452814794]}, "type": "Feature", "properties": {"establecim": "CENTRO EDUC.NIVEL MEDIO ADULTO", "overall_total": 1658, "fake_id": "1-7", "seccion": "1", "circuito": "00001", "votos": {"217": 95, "512": 156, "47": 67, "191": 389, "9005": 26, "514": 68, "9006": 0, "3": 91, "9004": 17, "9003": 3, "505": 225, "503": 315, "501": 206}, "direccion": "DEAN FUNES 417"}}, {"geometry": {"type": "Point", "coordinates": [-64.18654762070709, -31.41924332268387]}, "type": "Feature", "properties": {"establecim": "COL NAC DE MONSERRAT", "overall_total": 4031, "fake_id": "20-36", "seccion": "1", "circuito": "00001", "votos": {"217": 231, "512": 490, "47": 150, "191": 991, "9005": 46, "514": 183, "9006": 4, "3": 205, "9004": 31, "9003": 1, "505": 465, "503": 708, "501": 526}, "direccion": "OBISPO TREJO 294"}}, {"geometry": {"type": "Point", "coordinates": [-64.18878752908263, -31.417706629701698]}, "type": "Feature", "properties": {"establecim": "ESC NUESTRA SE\u00d1ORA DEL HUERTO", "overall_total": 2821, "fake_id": "8-19", "seccion": "1", "circuito": "00001", "votos": {"217": 176, "512": 325, "47": 108, "191": 677, "9005": 34, "514": 101, "9006": 1, "3": 130, "9004": 23, "9003": 0, "505": 338, "503": 522, "501": 386}, "direccion": "BELGRANO 269"}}, {"geometry": {"type": "Point", "coordinates": [-64.15753616999253, -31.410499244959233]}, "type": "Feature", "properties": {"establecim": "COL SAN RAMON NONATO", "overall_total": 1779, "fake_id": "544-550", "seccion": "1", "circuito": "00006", "votos": {"217": 60, "512": 312, "47": 55, "191": 357, "9005": 14, "514": 100, "9006": 0, "3": 129, "9004": 19, "9003": 0, "505": 264, "503": 282, "501": 187}, "direccion": "AVDA PATRIA 282 B\u00b0ALTO GRAL  PA"}}, {"geometry": {"type": "Point", "coordinates": [-64.15032482481784, -31.391752169611784]}, "type": "Feature", "properties": {"establecim": "ESC ARISTOBULO DEL VALLE", "overall_total": 2509, "fake_id": "2367-2376", "seccion": "1", "circuito": "00013", "votos": {"217": 109, "512": 380, "47": 73, "191": 540, "9005": 45, "514": 138, "9006": 0, "3": 177, "9004": 18, "9003": 0, "505": 291, "503": 444, "501": 294}, "direccion": "M DE JAUREGUI 1657 B\u00b0L N  ALEM"}}, {"geometry": {"type": "Point", "coordinates": [-64.57285640000002, -32.1751529]}, "type": "Feature", "properties": {"establecim": "ESC PROV D VELEZ SARFIELD", "overall_total": 204, "fake_id": "3085-3085", "seccion": "2", "circuito": "00015", "votos": {"217": 2, "512": 99, "47": 0, "191": 52, "9005": 4, "514": 6, "9006": 0, "3": 3, "9004": 2, "9003": 0, "505": 3, "503": 5, "501": 28}, "direccion": "AYLLU 0"}}, {"geometry": {"type": "Point", "coordinates": [-64.39894978736413, -32.21479858617304]}, "type": "Feature", "properties": {"establecim": "ESCUELA B. ROLDAN", "overall_total": 2598, "fake_id": "3092-3101", "seccion": "2", "circuito": "00017", "votos": {"217": 47, "512": 1072, "47": 44, "191": 426, "9005": 66, "514": 83, "9006": 0, "3": 54, "9004": 21, "9003": 0, "505": 156, "503": 229, "501": 400}, "direccion": "TUCUMAN 121"}}, {"geometry": {"type": "Point", "coordinates": [-64.42026029600852, -32.213740082102206]}, "type": "Feature", "properties": {"establecim": "ESCUELA R. OBLIGADO", "overall_total": 2661, "fake_id": "3102-3111", "seccion": "2", "circuito": "00017", "votos": {"217": 63, "512": 1133, "47": 28, "191": 383, "9005": 59, "514": 77, "9006": 0, "3": 76, "9004": 29, "9003": 0, "505": 155, "503": 233, "501": 425}, "direccion": "CAMINO A HOTELES DE U.T.E.  PUBLICA 0"}}, {"geometry": {"type": "Point", "coordinates": [-64.48340059999997, -32.30300539999998]}, "type": "Feature", "properties": {"establecim": "ESC PROV DOMINGO F SARMIENTO", "overall_total": 705, "fake_id": "3112-3114", "seccion": "2", "circuito": "00018", "votos": {"217": 9, "512": 313, "47": 8, "191": 268, "9005": 12, "514": 8, "9006": 0, "3": 6, "9004": 9, "9003": 0, "505": 11, "503": 33, "501": 28}, "direccion": "SARMIENTO 376"}}, {"geometry": {"type": "Point", "coordinates": [-64.48321562413902, -32.30215400138417]}, "type": "Feature", "properties": {"establecim": "INST DR D VELEZ SARSFIELD", "overall_total": 462, "fake_id": "3115-3116", "seccion": "2", "circuito": "00018", "votos": {"217": 4, "512": 232, "47": 2, "191": 164, "9005": 2, "514": 3, "9006": 0, "3": 6, "9004": 3, "9003": 0, "505": 10, "503": 21, "501": 15}, "direccion": "SARMIENTO 236"}}, {"geometry": {"type": "Point", "coordinates": [-64.75644109699995, -32.095461360399995]}, "type": "Feature", "properties": {"establecim": "ESC. PROV. FRENCH Y BERUTTI", "overall_total": 1355, "fake_id": "3121-3125", "seccion": "2", "circuito": "00019", "votos": {"217": 24, "512": 612, "47": 5, "191": 424, "9005": 23, "514": 14, "9006": 0, "3": 22, "9004": 23, "9003": 0, "505": 38, "503": 103, "501": 67}, "direccion": "LOS CONDORES"}}, {"geometry": {"type": "Point", "coordinates": [-64.57588339829994, -31.91989306539999]}, "type": "Feature", "properties": {"establecim": "ESC PROV PEDRO B PALACIOS", "overall_total": 838, "fake_id": "3129-3131", "seccion": "2", "circuito": "00020", "votos": {"217": 22, "512": 97, "47": 11, "191": 177, "9005": 13, "514": 14, "9006": 0, "3": 15, "9004": 7, "9003": 0, "505": 43, "503": 84, "501": 355}, "direccion": "MANUEL BELGRANO S/N"}}, {"geometry": {"type": "Point", "coordinates": [-64.5906076622, -32.5293922822]}, "type": "Feature", "properties": {"establecim": "ESC. PROV. D.F. SARMIENTO", "overall_total": 833, "fake_id": "3155-3158", "seccion": "2", "circuito": "00022", "votos": {"217": 17, "512": 240, "47": 4, "191": 407, "9005": 13, "514": 9, "9006": 0, "3": 11, "9004": 10, "9003": 0, "505": 20, "503": 50, "501": 52}, "direccion": "SARMIENTO 0"}}, {"geometry": {"type": "Point", "coordinates": [-64.75612589450002, -32.0952685676]}, "type": "Feature", "properties": {"establecim": "ESC.PROV. FRENCH Y BERUTTI", "overall_total": 821, "fake_id": "3159-3161", "seccion": "2", "circuito": "00023", "votos": {"217": 16, "512": 168, "47": 8, "191": 81, "9005": 12, "514": 10, "9006": 0, "3": 7, "9004": 10, "9003": 0, "505": 25, "503": 33, "501": 451}, "direccion": "CORDOBA 0"}}, {"geometry": {"type": "Point", "coordinates": [-64.480212, -32.186157499999986]}, "type": "Feature", "properties": {"establecim": "ESC PROV PRIMERA JUNTA", "overall_total": 1424, "fake_id": "3162-3168", "seccion": "2", "circuito": "00024", "votos": {"217": 28, "512": 555, "47": 16, "191": 251, "9005": 36, "514": 28, "9006": 1, "3": 34, "9004": 16, "9003": 0, "505": 63, "503": 161, "501": 235}, "direccion": "AMADEO SABATTINI 143"}}, {"geometry": {"type": "Point", "coordinates": [-64.37451966126167, -31.972506243580565]}, "type": "Feature", "properties": {"establecim": "COLEGIO SAN JOSE", "overall_total": 1070, "fake_id": "3183-3186", "seccion": "2", "circuito": "00025", "votos": {"217": 19, "512": 531, "47": 13, "191": 329, "9005": 7, "514": 11, "9006": 0, "3": 20, "9004": 25, "9003": 0, "505": 18, "503": 64, "501": 33}, "direccion": "SAN AGUSTIN"}}, {"geometry": {"type": "Point", "coordinates": [-64.37760192328378, -31.976113141009677]}, "type": "Feature", "properties": {"establecim": "ESC. PROV.GRAL. SAN MARTIN", "overall_total": 1338, "fake_id": "3178-3182", "seccion": "2", "circuito": "00025", "votos": {"217": 21, "512": 637, "47": 27, "191": 432, "9005": 0, "514": 26, "9006": 0, "3": 26, "9004": 32, "9003": 0, "505": 18, "503": 67, "501": 52}, "direccion": "SAN AGUSTIN"}}, {"geometry": {"type": "Point", "coordinates": [-64.53870519417471, -32.0669002523095]}, "type": "Feature", "properties": {"establecim": "PRIM-EL MUNDO DE LOS CHICOS", "overall_total": 1554, "fake_id": "3189-3194", "seccion": "2", "circuito": "00026", "votos": {"217": 39, "512": 455, "47": 16, "191": 298, "9005": 31, "514": 26, "9006": 0, "3": 23, "9004": 17, "9003": 0, "505": 66, "503": 135, "501": 448}, "direccion": "GUEMES 162"}}, {"geometry": {"type": "Point", "coordinates": [-64.26760919999995, -31.008296599999966]}, "type": "Feature", "properties": {"establecim": "ESCUELA DR. PABLO RUEDA", "overall_total": 2130, "fake_id": "3223-3230", "seccion": "3", "circuito": "00027", "votos": {"217": 69, "512": 564, "47": 35, "191": 404, "9005": 35, "514": 36, "9006": 1, "3": 51, "9004": 30, "9003": 0, "505": 167, "503": 449, "501": 289}, "direccion": "LA GRANJA"}}, {"geometry": {"type": "Point", "coordinates": [-64.34095355672561, -31.340545503388675]}, "type": "Feature", "properties": {"establecim": "ESC ELADIO DIEZ", "overall_total": 2168, "fake_id": "3231-3238", "seccion": "3", "circuito": "00028", "votos": {"217": 53, "512": 730, "47": 38, "191": 310, "9005": 38, "514": 74, "9006": 0, "3": 112, "9004": 24, "9003": 4, "505": 148, "503": 387, "501": 250}, "direccion": "ALVEAR ESQ SARMIENTO"}}, {"geometry": {"type": "Point", "coordinates": [-64.33615497875356, -31.34018885365282]}, "type": "Feature", "properties": {"establecim": "ESCUELA PROV.J.J.PASO-CENMA", "overall_total": 2988, "fake_id": "3257-3267", "seccion": "3", "circuito": "00028", "votos": {"217": 109, "512": 884, "47": 76, "191": 433, "9005": 66, "514": 115, "9006": 1, "3": 150, "9004": 43, "9003": 1, "505": 214, "503": 540, "501": 356}, "direccion": "CALERA"}}, {"geometry": {"type": "Point", "coordinates": [-64.33473403461319, -31.342952878749163]}, "type": "Feature", "properties": {"establecim": "INSTITUTO D.F.SARMIENTO", "overall_total": 4788, "fake_id": "3239-3256", "seccion": "3", "circuito": "00028", "votos": {"217": 167, "512": 1464, "47": 102, "191": 717, "9005": 99, "514": 164, "9006": 1, "3": 238, "9004": 67, "9003": 3, "505": 342, "503": 835, "501": 589}, "direccion": "CALERA"}}, {"geometry": {"type": "Point", "coordinates": [-64.33474766856175, -31.343082823321517]}, "type": "Feature", "properties": {"establecim": "INSTITUTO JESUS MARIA", "overall_total": 2102, "fake_id": "3268-3276", "seccion": "3", "circuito": "00028", "votos": {"217": 81, "512": 692, "47": 48, "191": 283, "9005": 62, "514": 83, "9006": 1, "3": 106, "9004": 14, "9003": 0, "505": 148, "503": 350, "501": 234}, "direccion": "CALERA"}}, {"geometry": {"type": "Point", "coordinates": [-64.06294497965098, -31.02093559788337]}, "type": "Feature", "properties": {"establecim": "ESC. PRESBITERO BONORIS", "overall_total": 2944, "fake_id": "3327-3337", "seccion": "3", "circuito": "00029", "votos": {"217": 70, "512": 741, "47": 43, "191": 807, "9005": 79, "514": 76, "9006": 2, "3": 83, "9004": 30, "9003": 0, "505": 152, "503": 550, "501": 311}, "direccion": "COLONIA CAROYA 0"}}, {"geometry": {"type": "Point", "coordinates": [-64.06637282156196, -31.021225046876598]}, "type": "Feature", "properties": {"establecim": "ESC. PROV. GRAL SAN MARTIN", "overall_total": 2776, "fake_id": "3317-3326", "seccion": "3", "circuito": "00029", "votos": {"217": 72, "512": 681, "47": 39, "191": 814, "9005": 49, "514": 74, "9006": 0, "3": 68, "9004": 28, "9003": 12, "505": 154, "503": 482, "501": 303}, "direccion": "MAESTRA OLGA PROSDOCIMO  3580"}}, {"geometry": {"type": "Point", "coordinates": [-64.09041662206603, -31.008653143942148]}, "type": "Feature", "properties": {"establecim": "ESC.PROV. M. BELGRANO", "overall_total": 2772, "fake_id": "3307-3316", "seccion": "3", "circuito": "00029", "votos": {"217": 73, "512": 674, "47": 46, "191": 835, "9005": 56, "514": 63, "9006": 0, "3": 80, "9004": 24, "9003": 0, "505": 167, "503": 488, "501": 266}, "direccion": "COLONIA CAROYA"}}, {"geometry": {"type": "Point", "coordinates": [-64.04333969674035, -31.04643050522676]}, "type": "Feature", "properties": {"establecim": "ESCUELA M. MORENO", "overall_total": 2179, "fake_id": "3338-3345", "seccion": "3", "circuito": "00029", "votos": {"217": 72, "512": 468, "47": 26, "191": 618, "9005": 48, "514": 64, "9006": 1, "3": 59, "9004": 26, "9003": 0, "505": 107, "503": 443, "501": 247}, "direccion": "JUSTINIANO CELIZ HEREDIA 650"}}, {"geometry": {"type": "Point", "coordinates": [-64.06294497965098, -31.02093559788337]}, "type": "Feature", "properties": {"establecim": "IPEM 165 ANEXO J.BONORIS", "overall_total": 1657, "fake_id": "3346-3351", "seccion": "3", "circuito": "00029", "votos": {"217": 55, "512": 368, "47": 33, "191": 464, "9005": 37, "514": 33, "9006": 0, "3": 65, "9004": 15, "9003": 0, "505": 95, "503": 321, "501": 171}, "direccion": "COLONIA CAROYA"}}, {"geometry": {"type": "Point", "coordinates": [-64.0675929922478, -31.2282770052648]}, "type": "Feature", "properties": {"establecim": "ESC PROV DR PABLO RUEDA", "overall_total": 1314, "fake_id": "3361-3365", "seccion": "3", "circuito": "00030", "votos": {"217": 33, "512": 252, "47": 19, "191": 401, "9005": 5, "514": 32, "9006": 0, "3": 54, "9004": 24, "9003": 0, "505": 68, "503": 242, "501": 184}, "direccion": "PUBLICA S/N"}}, {"geometry": {"type": "Point", "coordinates": [-64.06699950599999, -31.240528600899967]}, "type": "Feature", "properties": {"establecim": "ESCUELA NACIONAL N\u00b031", "overall_total": 1895, "fake_id": "3353-3360", "seccion": "3", "circuito": "00030", "votos": {"217": 60, "512": 350, "47": 37, "191": 600, "9005": 23, "514": 61, "9006": 0, "3": 84, "9004": 28, "9003": 0, "505": 100, "503": 315, "501": 237}, "direccion": "PUBLICA-SANTA ELENA RUTA  74KM22"}}, {"geometry": {"type": "Point", "coordinates": [-64.28971409149995, -31.092007633600044]}, "type": "Feature", "properties": {"establecim": "ESC.PROV.A.ARGENTINA", "overall_total": 728, "fake_id": "3366-3368", "seccion": "3", "circuito": "00031", "votos": {"217": 13, "512": 264, "47": 2, "191": 82, "9005": 8, "514": 17, "9006": 0, "3": 25, "9004": 15, "9003": 0, "505": 36, "503": 182, "501": 84}, "direccion": "EL MANZANO SOBRE RUTA E 53"}}, {"geometry": {"type": "Point", "coordinates": [-64.14065219999996, -31.135245799999975]}, "type": "Feature", "properties": {"establecim": "ESC PROV GRAL JOSE MARIA PAZ", "overall_total": 1185, "fake_id": "3376-3381", "seccion": "3", "circuito": "00032", "votos": {"217": 22, "512": 385, "47": 8, "191": 309, "9005": 21, "514": 28, "9006": 1, "3": 74, "9004": 11, "9003": 0, "505": 63, "503": 132, "501": 131}, "direccion": "BUENOS AIRES Y CORDOBA"}}, {"geometry": {"type": "Point", "coordinates": [-64.09092528774853, -30.97700072826506]}, "type": "Feature", "properties": {"establecim": "ESC,N\u00b021 GENDARMERIA NACIONAL", "overall_total": 2562, "fake_id": "3450-3460", "seccion": "3", "circuito": "00033", "votos": {"217": 74, "512": 540, "47": 33, "191": 622, "9005": 51, "514": 72, "9006": 0, "3": 70, "9004": 32, "9003": 0, "505": 161, "503": 527, "501": 380}, "direccion": "JESUS MARIA"}}, {"geometry": {"type": "Point", "coordinates": [-64.10391275958835, -30.982676742464687]}, "type": "Feature", "properties": {"establecim": "ESC.DR. J.M.ESTRADA N\u00b0 221", "overall_total": 3313, "fake_id": "3410-3422", "seccion": "3", "circuito": "00033", "votos": {"217": 79, "512": 830, "47": 53, "191": 646, "9005": 77, "514": 86, "9006": 0, "3": 93, "9004": 44, "9003": 1, "505": 166, "503": 697, "501": 541}, "direccion": "CATAMARCA Y ESTRADA 0"}}, {"geometry": {"type": "Point", "coordinates": [-64.09424455531119, -30.9858552538995]}, "type": "Feature", "properties": {"establecim": "ESC.PROV.1ER.TTE.MORANDINI", "overall_total": 2851, "fake_id": "3423-3434", "seccion": "3", "circuito": "00033", "votos": {"217": 79, "512": 636, "47": 38, "191": 630, "9005": 47, "514": 66, "9006": 0, "3": 94, "9004": 45, "9003": 0, "505": 172, "503": 600, "501": 444}, "direccion": "CHILE -SAN JOSE OBRERO 222"}}, {"geometry": {"type": "Point", "coordinates": [-64.09499566743472, -30.980867434058023]}, "type": "Feature", "properties": {"establecim": "ESC.PROVC.F.O. DE OCAMPO", "overall_total": 3371, "fake_id": "3435-3449", "seccion": "3", "circuito": "00033", "votos": {"217": 89, "512": 791, "47": 46, "191": 714, "9005": 65, "514": 106, "9006": 0, "3": 113, "9004": 49, "9003": 0, "505": 177, "503": 660, "501": 561}, "direccion": "AV. DR. FRANCISCO N. DE  LAPRIDA 649 649"}}, {"geometry": {"type": "Point", "coordinates": [-64.09507034005135, -30.986351453557045]}, "type": "Feature", "properties": {"establecim": "I.P.E.T.N\u00b0 69", "overall_total": 3369, "fake_id": "3397-3409", "seccion": "3", "circuito": "00033", "votos": {"217": 85, "512": 751, "47": 37, "191": 758, "9005": 49, "514": 85, "9006": 0, "3": 105, "9004": 54, "9003": 0, "505": 179, "503": 702, "501": 564}, "direccion": "JESUS MARIA"}}, {"geometry": {"type": "Point", "coordinates": [-64.09839229805264, -30.98431115750903]}, "type": "Feature", "properties": {"establecim": "PTE DOMINGO F SARMIENTO", "overall_total": 3797, "fake_id": "3382-3396", "seccion": "3", "circuito": "00033", "votos": {"217": 102, "512": 921, "47": 51, "191": 866, "9005": 61, "514": 98, "9006": 0, "3": 103, "9004": 55, "9003": 0, "505": 215, "503": 800, "501": 525}, "direccion": "CORDOBA (PARALEA A JUAN B  JUSTO) 1050"}}, {"geometry": {"type": "Point", "coordinates": [-64.1670194356847, -31.27995751819738]}, "type": "Feature", "properties": {"establecim": "ESC PROV LEOPOLDO LUGONES", "overall_total": 2104, "fake_id": "3462-3469", "seccion": "3", "circuito": "00034", "votos": {"217": 55, "512": 561, "47": 31, "191": 317, "9005": 43, "514": 63, "9006": 0, "3": 200, "9004": 20, "9003": 8, "505": 179, "503": 309, "501": 318}, "direccion": "VILLA LOS LLANOS 0"}}, {"geometry": {"type": "Point", "coordinates": [-64.18037975217304, -31.299963994880493]}, "type": "Feature", "properties": {"establecim": "ESC.ATAHUALPA YUPANQUI", "overall_total": 2130, "fake_id": "3478-3485", "seccion": "3", "circuito": "00034", "votos": {"217": 58, "512": 568, "47": 47, "191": 256, "9005": 44, "514": 82, "9006": 0, "3": 240, "9004": 45, "9003": 1, "505": 193, "503": 308, "501": 288}, "direccion": "BARRIO PARQUE NORTE"}}, {"geometry": {"type": "Point", "coordinates": [-64.16679000010123, -31.26154299490366]}, "type": "Feature", "properties": {"establecim": "ESC.COM.R. SILIONI", "overall_total": 2085, "fake_id": "3470-3477", "seccion": "3", "circuito": "00034", "votos": {"217": 51, "512": 531, "47": 39, "191": 277, "9005": 38, "514": 90, "9006": 1, "3": 204, "9004": 34, "9003": 0, "505": 185, "503": 324, "501": 311}, "direccion": "JUAREZ CELMAN"}}, {"geometry": {"type": "Point", "coordinates": [-64.04333579496162, -31.366621692165285]}, "type": "Feature", "properties": {"establecim": "ESC.CAP.LUIS C.CANDELARIA", "overall_total": 2099, "fake_id": "3486-3494", "seccion": "3", "circuito": "00035", "votos": {"217": 48, "512": 364, "47": 33, "191": 520, "9005": 58, "514": 72, "9006": 1, "3": 190, "9004": 45, "9003": 0, "505": 207, "503": 275, "501": 286}, "direccion": "MALVINAS ARGENTINAS"}}, {"geometry": {"type": "Point", "coordinates": [-64.04620600009069, -31.374193994835892]}, "type": "Feature", "properties": {"establecim": "ESC.MUNIC.CIUDAD DE M.ARGENTIN", "overall_total": 1897, "fake_id": "3495-3502", "seccion": "3", "circuito": "00035", "votos": {"217": 44, "512": 310, "47": 34, "191": 468, "9005": 61, "514": 74, "9006": 0, "3": 166, "9004": 24, "9003": 0, "505": 221, "503": 258, "501": 237}, "direccion": "MALVINAS ARGENTINAS"}}, {"geometry": {"type": "Point", "coordinates": [-64.05376500009136, -31.380629994832002]}, "type": "Feature", "properties": {"establecim": "I.P.E.M. N\u00b0 24", "overall_total": 2959, "fake_id": "3503-3514", "seccion": "3", "circuito": "00035", "votos": {"217": 70, "512": 538, "47": 50, "191": 743, "9005": 99, "514": 98, "9006": 0, "3": 254, "9004": 64, "9003": 0, "505": 303, "503": 354, "501": 386}, "direccion": "JUJUY ESQ. SARMIENTO S/N  MALVINAS AR 0"}}, {"geometry": {"type": "Point", "coordinates": [-64.06718895840577, -31.16495027399371]}, "type": "Feature", "properties": {"establecim": "ESC PROV SARGENTO CABRAL", "overall_total": 220, "fake_id": "3518-3518", "seccion": "3", "circuito": "00036", "votos": {"217": 3, "512": 74, "47": 2, "191": 81, "9005": 0, "514": 5, "9006": 0, "3": 2, "9004": 4, "9003": 0, "505": 4, "503": 23, "501": 22}, "direccion": "PUBLICA S/N"}}, {"geometry": {"type": "Point", "coordinates": [-64.32888000042965, -31.164990606356234]}, "type": "Feature", "properties": {"establecim": "ESC.CONSTANCIO C. VIGIL", "overall_total": 1812, "fake_id": "3560-3566", "seccion": "3", "circuito": "00037", "votos": {"217": 62, "512": 252, "47": 46, "191": 297, "9005": 38, "514": 41, "9006": 2, "3": 57, "9004": 19, "9003": 0, "505": 216, "503": 553, "501": 229}, "direccion": "1 MAYO B\u00b0 MOREYRA 112"}}, {"geometry": {"type": "Point", "coordinates": [-64.3161380845202, -31.171053760515257]}, "type": "Feature", "properties": {"establecim": "ESC.PROV.M.FRAGUEIRO", "overall_total": 2887, "fake_id": "3529-3539", "seccion": "3", "circuito": "00037", "votos": {"217": 98, "512": 365, "47": 65, "191": 533, "9005": 66, "514": 73, "9006": 1, "3": 100, "9004": 21, "9003": 0, "505": 349, "503": 800, "501": 416}, "direccion": "AVENIDA SAN MARTIN 4519"}}, {"geometry": {"type": "Point", "coordinates": [-64.31756197133697, -31.166715478018208]}, "type": "Feature", "properties": {"establecim": "I.P.E.M.144-MARIANO MORENO", "overall_total": 2102, "fake_id": "3540-3548", "seccion": "3", "circuito": "00037", "votos": {"217": 67, "512": 303, "47": 45, "191": 333, "9005": 67, "514": 45, "9006": 0, "3": 88, "9004": 14, "9003": 0, "505": 283, "503": 546, "501": 311}, "direccion": "SALTA 191"}}, {"geometry": {"type": "Point", "coordinates": [-64.32208035256443, -31.16659957278304]}, "type": "Feature", "properties": {"establecim": "INSTITUTO DEL ESPIRITU SANTO", "overall_total": 2826, "fake_id": "3549-3559", "seccion": "3", "circuito": "00037", "votos": {"217": 93, "512": 364, "47": 63, "191": 480, "9005": 82, "514": 75, "9006": 1, "3": 115, "9004": 27, "9003": 0, "505": 332, "503": 785, "501": 409}, "direccion": "AV. SAN MARTIN 5109"}}, {"geometry": {"type": "Point", "coordinates": [-64.31756197133697, -31.166715478018208]}, "type": "Feature", "properties": {"establecim": "IPEM N\u00b0 352", "overall_total": 2614, "fake_id": "3519-3528", "seccion": "3", "circuito": "00037", "votos": {"217": 92, "512": 365, "47": 50, "191": 422, "9005": 55, "514": 88, "9006": 3, "3": 82, "9004": 29, "9003": 0, "505": 322, "503": 772, "501": 334}, "direccion": "NICANOR CEBALLOS 0"}}, {"geometry": {"type": "Point", "coordinates": [-64.29817200011271, -31.136236994979374]}, "type": "Feature", "properties": {"establecim": "ESC.PROV. J.MALDONADO", "overall_total": 2647, "fake_id": "3573-3583", "seccion": "3", "circuito": "00038", "votos": {"217": 69, "512": 546, "47": 40, "191": 381, "9005": 49, "514": 62, "9006": 0, "3": 95, "9004": 20, "9003": 4, "505": 275, "503": 753, "501": 353}, "direccion": "DESIDERIO TORRES 360"}}, {"geometry": {"type": "Point", "coordinates": [-64.28823100011188, -31.137853994978364]}, "type": "Feature", "properties": {"establecim": "ESCUELA RECONQUISTA", "overall_total": 1061, "fake_id": "3584-3587", "seccion": "3", "circuito": "00038", "votos": {"217": 36, "512": 210, "47": 18, "191": 134, "9005": 18, "514": 29, "9006": 0, "3": 36, "9004": 7, "9003": 0, "505": 103, "503": 302, "501": 168}, "direccion": "CERRITO 0"}}, {"geometry": {"type": "Point", "coordinates": [-64.29477095603941, -31.13789712908942]}, "type": "Feature", "properties": {"establecim": "INST SECUNDARIO SALSIPUEDES", "overall_total": 1351, "fake_id": "3567-3572", "seccion": "3", "circuito": "00038", "votos": {"217": 39, "512": 295, "47": 18, "191": 181, "9005": 20, "514": 33, "9006": 0, "3": 51, "9004": 17, "9003": 0, "505": 121, "503": 433, "501": 143}, "direccion": "AV BELGRANO 178"}}, {"geometry": {"type": "Point", "coordinates": [-63.97808837092967, -31.056360140259514]}, "type": "Feature", "properties": {"establecim": "ESC.PROV. FRAY M.ESQUIU", "overall_total": 45, "fake_id": "3588-3588", "seccion": "3", "circuito": "00039", "votos": {"217": 0, "512": 24, "47": 0, "191": 13, "9005": 0, "514": 1, "9006": 0, "3": 1, "9004": 0, "9003": 0, "505": 0, "503": 1, "501": 5}, "direccion": "PUBLICA 0"}}, {"geometry": {"type": "Point", "coordinates": [-64.31005810069665, -31.237253896870506]}, "type": "Feature", "properties": {"establecim": "ESC.PROV. D.V.SARSFIELD", "overall_total": 2384, "fake_id": "3589-3597", "seccion": "3", "circuito": "00040", "votos": {"217": 67, "512": 416, "47": 47, "191": 366, "9005": 61, "514": 96, "9006": 0, "3": 112, "9004": 29, "9003": 0, "505": 265, "503": 528, "501": 397}, "direccion": "SARMIENTO Y VELEZ SARSFIELD  0"}}, {"geometry": {"type": "Point", "coordinates": [-64.31735832257071, -31.227747552060944]}, "type": "Feature", "properties": {"establecim": "I.P.E.M. N\u00b0 23", "overall_total": 2379, "fake_id": "3598-3606", "seccion": "3", "circuito": "00040", "votos": {"217": 77, "512": 334, "47": 55, "191": 463, "9005": 58, "514": 107, "9006": 0, "3": 100, "9004": 26, "9003": 0, "505": 242, "503": 509, "501": 408}, "direccion": "SPILIMBERGO 869"}}, {"geometry": {"type": "Point", "coordinates": [-64.30581434440002, -31.241577345781568]}, "type": "Feature", "properties": {"establecim": "I.P.E.M. N\u00b0 78", "overall_total": 4024, "fake_id": "3607-3621", "seccion": "3", "circuito": "00040", "votos": {"217": 114, "512": 658, "47": 97, "191": 644, "9005": 94, "514": 179, "9006": 0, "3": 204, "9004": 29, "9003": 0, "505": 456, "503": 915, "501": 634}, "direccion": "COSTANERA LOS CIGARRALES B  750"}}, {"geometry": {"type": "Point", "coordinates": [-64.3113097764755, -31.237065940998228]}, "type": "Feature", "properties": {"establecim": "INST.PARROQ.NTA.SRA DE LOURDES", "overall_total": 2889, "fake_id": "3622-3632", "seccion": "3", "circuito": "00040", "votos": {"217": 106, "512": 478, "47": 56, "191": 460, "9005": 71, "514": 115, "9006": 1, "3": 158, "9004": 29, "9003": 11, "505": 310, "503": 629, "501": 465}, "direccion": "JUAN MILICH 0"}}, {"geometry": {"type": "Point", "coordinates": [-64.29768682510091, -31.28803683245299]}, "type": "Feature", "properties": {"establecim": "COLEGIO MARYLAND", "overall_total": 1107, "fake_id": "3726-3729", "seccion": "3", "circuito": "00041", "votos": {"217": 36, "512": 157, "47": 29, "191": 269, "9005": 10, "514": 50, "9006": 1, "3": 51, "9004": 6, "9003": 2, "505": 95, "503": 244, "501": 157}, "direccion": "GUEMES ESQ ALBERTI"}}, {"geometry": {"type": "Point", "coordinates": [-64.29846764482413, -31.290560066238925]}, "type": "Feature", "properties": {"establecim": "COLEGIO SAN JOSE", "overall_total": 3005, "fake_id": "3667-3678", "seccion": "3", "circuito": "00041", "votos": {"217": 139, "512": 429, "47": 92, "191": 622, "9005": 52, "514": 104, "9006": 0, "3": 128, "9004": 29, "9003": 1, "505": 304, "503": 665, "501": 440}, "direccion": "VILLA ALLENDE"}}, {"geometry": {"type": "Point", "coordinates": [-64.2973235133589, -31.295475811749384]}, "type": "Feature", "properties": {"establecim": "ESC.PROV. J.DE SAN MARTIN", "overall_total": 3536, "fake_id": "3654-3666", "seccion": "3", "circuito": "00041", "votos": {"217": 148, "512": 502, "47": 105, "191": 789, "9005": 36, "514": 116, "9006": 0, "3": 151, "9004": 32, "9003": 2, "505": 348, "503": 818, "501": 489}, "direccion": "GOYCOECHEA 150"}}, {"geometry": {"type": "Point", "coordinates": [-64.29538380692374, -31.29271683944505]}, "type": "Feature", "properties": {"establecim": "INST GRAL S.MARTIN/17 DE AGOST", "overall_total": 7785, "fake_id": "3687-3715", "seccion": "3", "circuito": "00041", "votos": {"217": 350, "512": 1063, "47": 266, "191": 1674, "9005": 125, "514": 262, "9006": 4, "3": 349, "9004": 81, "9003": 7, "505": 795, "503": 1707, "501": 1102}, "direccion": "25 DE MAYO ESQ. TABLADA 0"}}, {"geometry": {"type": "Point", "coordinates": [-64.3056018139397, -31.302162465815798]}, "type": "Feature", "properties": {"establecim": "INSTITUTO NTA.SRA. DE LUJAN", "overall_total": 2422, "fake_id": "3716-3725", "seccion": "3", "circuito": "00041", "votos": {"217": 101, "512": 340, "47": 69, "191": 549, "9005": 36, "514": 63, "9006": 2, "3": 128, "9004": 25, "9003": 0, "505": 243, "503": 535, "501": 331}, "direccion": "AV.SAN MARTIN 1070"}}, {"geometry": {"type": "Point", "coordinates": [-64.29854445509086, -31.297142536333908]}, "type": "Feature", "properties": {"establecim": "INSTITUTO PAULA A.DE SARMIENTO", "overall_total": 1895, "fake_id": "3679-3686", "seccion": "3", "circuito": "00041", "votos": {"217": 100, "512": 228, "47": 66, "191": 411, "9005": 32, "514": 73, "9006": 0, "3": 95, "9004": 14, "9003": 0, "505": 183, "503": 423, "501": 270}, "direccion": "LAPRIDA/GONZALEZ"}}, {"geometry": {"type": "Point", "coordinates": [-65.05273169999992, -30.7943682]}, "type": "Feature", "properties": {"establecim": "ESCUELA PROV.M. MORENO", "overall_total": 440, "fake_id": "3756-3757", "seccion": "4", "circuito": "00042", "votos": {"217": 1, "512": 310, "47": 1, "191": 84, "9005": 2, "514": 3, "9006": 0, "3": 3, "9004": 8, "9003": 0, "505": 1, "503": 7, "501": 20}, "direccion": "PUBLICA S/N"}}, {"geometry": {"type": "Point", "coordinates": [-64.80669199794835, -30.72613330891401]}, "type": "Feature", "properties": {"establecim": "ESC.E. BAVIO", "overall_total": 3101, "fake_id": "3791-3803", "seccion": "4", "circuito": "00044", "votos": {"217": 38, "512": 922, "47": 22, "191": 700, "9005": 53, "514": 63, "9006": 0, "3": 72, "9004": 52, "9003": 0, "505": 107, "503": 302, "501": 770}, "direccion": "PELLEGRINI 180"}}, {"geometry": {"type": "Point", "coordinates": [-64.80925632938687, -30.723894447074994]}, "type": "Feature", "properties": {"establecim": "IPEM 273 M. BELGRANO", "overall_total": 3034, "fake_id": "3820-3832", "seccion": "4", "circuito": "00044", "votos": {"217": 28, "512": 866, "47": 25, "191": 750, "9005": 47, "514": 62, "9006": 0, "3": 80, "9004": 42, "9003": 0, "505": 100, "503": 245, "501": 789}, "direccion": "PELLEGRINI 445"}}, {"geometry": {"type": "Point", "coordinates": [-64.87718982779995, -30.67213697700003]}, "type": "Feature", "properties": {"establecim": "ESC PROV MANUEL BELGRANO", "overall_total": 465, "fake_id": "3835-3837", "seccion": "4", "circuito": "00045", "votos": {"217": 1, "512": 114, "47": 1, "191": 213, "9005": 3, "514": 12, "9006": 0, "3": 5, "9004": 16, "9003": 0, "505": 9, "503": 13, "501": 78}, "direccion": "PUBLICA S/N"}}, {"geometry": {"type": "Point", "coordinates": [-65.05949830269998, -30.482881140200018]}, "type": "Feature", "properties": {"establecim": "ESC PROV GRAL SAN MARTIN", "overall_total": 298, "fake_id": "3838-3840", "seccion": "4", "circuito": "00046", "votos": {"217": 1, "512": 145, "47": 1, "191": 55, "9005": 1, "514": 4, "9006": 0, "3": 2, "9004": 5, "9003": 0, "505": 0, "503": 11, "501": 73}, "direccion": "PUBLICA S/N"}}, {"geometry": {"type": "Point", "coordinates": [-65.26128100819999, -30.662183210500025]}, "type": "Feature", "properties": {"establecim": "ESC PROV JOSE MARIA PAZ", "overall_total": 63, "fake_id": "3842-3842", "seccion": "4", "circuito": "00047", "votos": {"217": 0, "512": 33, "47": 0, "191": 13, "9005": 0, "514": 0, "9006": 0, "3": 0, "9004": 0, "9003": 0, "505": 0, "503": 0, "501": 17}, "direccion": "PUBLICA S/N"}}, {"geometry": {"type": "Point", "coordinates": [-65.1028058, -31.0157259]}, "type": "Feature", "properties": {"establecim": "ESC PROV GRAL SAN MARTIN", "overall_total": 381, "fake_id": "3843-3844", "seccion": "4", "circuito": "00048", "votos": {"217": 0, "512": 224, "47": 1, "191": 99, "9005": 2, "514": 3, "9006": 0, "3": 1, "9004": 6, "9003": 0, "505": 6, "503": 13, "501": 26}, "direccion": "RUTA PROVINCIAL N\u00b015 S/N"}}, {"geometry": {"type": "Point", "coordinates": [-64.19257543242836, -31.447325429691922]}, "type": "Feature", "properties": {"establecim": "ESC ALMAFUERTE", "overall_total": 1914, "fake_id": "187-193", "seccion": "1", "circuito": "0004A", "votos": {"217": 75, "512": 229, "47": 78, "191": 463, "9005": 34, "514": 99, "9006": 0, "3": 148, "9004": 18, "9003": 0, "505": 255, "503": 280, "501": 235}, "direccion": "CHANETON 390 B\u00b0 SAN  FERNANDO"}}, {"geometry": {"type": "Point", "coordinates": [-64.19758160866344, -31.453783301775474]}, "type": "Feature", "properties": {"establecim": "ESC SAN FRANCISCO DE ASIS", "overall_total": 7491, "fake_id": "202-229", "seccion": "1", "circuito": "0004A", "votos": {"217": 300, "512": 1079, "47": 248, "191": 1571, "9005": 103, "514": 424, "9006": 4, "3": 602, "9004": 53, "9003": 4, "505": 988, "503": 1124, "501": 991}, "direccion": "GUARDADO 184 B\u00b0LAS FLORES"}}, {"geometry": {"type": "Point", "coordinates": [-64.93142359822171, -30.64135357585006]}, "type": "Feature", "properties": {"establecim": "ESCUELA M. GUEMES", "overall_total": 640, "fake_id": "3846-3848", "seccion": "4", "circuito": "00050", "votos": {"217": 3, "512": 219, "47": 6, "191": 277, "9005": 7, "514": 9, "9006": 1, "3": 11, "9004": 20, "9003": 0, "505": 7, "503": 11, "501": 69}, "direccion": "MEDIA NARANJA"}}, {"geometry": {"type": "Point", "coordinates": [-65.1906047, -30.76681179999998]}, "type": "Feature", "properties": {"establecim": "ESCUELA ANTARTIDA ARGENTINA", "overall_total": 462, "fake_id": "3851-3853", "seccion": "4", "circuito": "00051", "votos": {"217": 1, "512": 169, "47": 2, "191": 166, "9005": 3, "514": 2, "9006": 0, "3": 6, "9004": 4, "9003": 0, "505": 6, "503": 6, "501": 97}, "direccion": "PUBLICA 0"}}, {"geometry": {"type": "Point", "coordinates": [-64.63735783979993, -30.78313392590001]}, "type": "Feature", "properties": {"establecim": "ESC PROV PTE ROQUE SAENZ PE\u00d1A", "overall_total": 1455, "fake_id": "3859-3864", "seccion": "4", "circuito": "00054", "votos": {"217": 44, "512": 283, "47": 25, "191": 223, "9005": 35, "514": 40, "9006": 0, "3": 25, "9004": 14, "9003": 0, "505": 140, "503": 70, "501": 556}, "direccion": "LIBERTAD 1043"}}, {"geometry": {"type": "Point", "coordinates": [-65.385460000213, -30.637199996109867]}, "type": "Feature", "properties": {"establecim": "ESC.PROV.B.RIVADAVIA", "overall_total": 1615, "fake_id": "3866-3873", "seccion": "4", "circuito": "00055", "votos": {"217": 3, "512": 313, "47": 4, "191": 669, "9005": 14, "514": 19, "9006": 1, "3": 11, "9004": 27, "9003": 1, "505": 10, "503": 30, "501": 513}, "direccion": "AVDA. MALVINAS ARGENTINAS  0"}}, {"geometry": {"type": "Point", "coordinates": [-64.98239308315581, -30.8594187908139]}, "type": "Feature", "properties": {"establecim": "E.N.E.T. N\u00b01", "overall_total": 1247, "fake_id": "3887-3891", "seccion": "4", "circuito": "00056", "votos": {"217": 17, "512": 393, "47": 15, "191": 504, "9005": 22, "514": 17, "9006": 1, "3": 14, "9004": 26, "9003": 0, "505": 30, "503": 73, "501": 135}, "direccion": "JUAN BAUTISTA ALBERDI 2200"}}, {"geometry": {"type": "Point", "coordinates": [-65.01161186267791, -30.84602487778934]}, "type": "Feature", "properties": {"establecim": "ESC NICOLAS AVELLANEDA", "overall_total": 796, "fake_id": "3892-3894", "seccion": "4", "circuito": "00056", "votos": {"217": 11, "512": 272, "47": 10, "191": 289, "9005": 28, "514": 11, "9006": 0, "3": 11, "9004": 9, "9003": 11, "505": 19, "503": 50, "501": 75}, "direccion": "DEAN FUNES ESQ CORRIENTES"}}, {"geometry": {"type": "Point", "coordinates": [-64.98681697056809, -30.85622280956618]}, "type": "Feature", "properties": {"establecim": "ESC.PADRE B.DE LAS CASAS", "overall_total": 2060, "fake_id": "3875-3882", "seccion": "4", "circuito": "00056", "votos": {"217": 15, "512": 742, "47": 28, "191": 722, "9005": 34, "514": 35, "9006": 1, "3": 30, "9004": 36, "9003": 1, "505": 40, "503": 144, "501": 232}, "direccion": "JOSE IGNACIO PERALTA 249"}}, {"geometry": {"type": "Point", "coordinates": [-64.98681697056809, -30.85622280956618]}, "type": "Feature", "properties": {"establecim": "INSTITUTO SANTO DOMINGO", "overall_total": 1015, "fake_id": "3883-3886", "seccion": "4", "circuito": "00056", "votos": {"217": 9, "512": 373, "47": 7, "191": 388, "9005": 12, "514": 9, "9006": 0, "3": 13, "9004": 18, "9003": 10, "505": 21, "503": 51, "501": 104}, "direccion": "SOTO"}}, {"geometry": {"type": "Point", "coordinates": [-65.23782816669994, -30.746871224499994]}, "type": "Feature", "properties": {"establecim": "ESC.PROV.J.J.CASTELLI", "overall_total": 458, "fake_id": "3895-3896", "seccion": "4", "circuito": "00057", "votos": {"217": 3, "512": 272, "47": 2, "191": 88, "9005": 0, "514": 5, "9006": 0, "3": 5, "9004": 8, "9003": 0, "505": 6, "503": 9, "501": 60}, "direccion": "PUBLICA 0"}}, {"geometry": {"type": "Point", "coordinates": [-64.1655928741446, -31.41078512896411]}, "type": "Feature", "properties": {"establecim": "ESC RAMON J CARCANO", "overall_total": 3583, "fake_id": "554-567", "seccion": "1", "circuito": "0006C", "votos": {"217": 226, "512": 388, "47": 138, "191": 906, "9005": 61, "514": 139, "9006": 0, "3": 153, "9004": 20, "9003": 1, "505": 504, "503": 619, "501": 428}, "direccion": "VIAMONTE 446 B\u00b0GRAL.PAZ"}}, {"geometry": {"type": "Point", "coordinates": [-63.1638, -32.20011280000004]}, "type": "Feature", "properties": {"establecim": "ESC.PROV. A.ARGENTINA", "overall_total": 923, "fake_id": "3984-3987", "seccion": "6", "circuito": "00073", "votos": {"217": 8, "512": 350, "47": 5, "191": 130, "9005": 6, "514": 10, "9006": 0, "3": 8, "9004": 5, "9003": 1, "505": 2, "503": 94, "501": 304}, "direccion": "CORDOBA ESQ ANTARTIDA  ARGENTINA"}}, {"geometry": {"type": "Point", "coordinates": [-63.503903963034226, -32.360864067191045]}, "type": "Feature", "properties": {"establecim": "ESC.PROV.D.V.SARSFIELD", "overall_total": 1029, "fake_id": "3993-3996", "seccion": "6", "circuito": "00074", "votos": {"217": 23, "512": 160, "47": 1, "191": 496, "9005": 4, "514": 12, "9006": 1, "3": 7, "9004": 34, "9003": 0, "505": 21, "503": 89, "501": 181}, "direccion": "RIVADAVIA 410"}}, {"geometry": {"type": "Point", "coordinates": [-63.503903963034226, -32.360864067191045]}, "type": "Feature", "properties": {"establecim": "INST. SEC. COM. SAN JOSE", "overall_total": 1314, "fake_id": "3988-3992", "seccion": "6", "circuito": "00074", "votos": {"217": 46, "512": 229, "47": 11, "191": 624, "9005": 12, "514": 10, "9006": 0, "3": 12, "9004": 35, "9003": 0, "505": 29, "503": 114, "501": 192}, "direccion": "ARROYO CABRAL"}}, {"geometry": {"type": "Point", "coordinates": [-63.24318089999994, -32.661211899999984]}, "type": "Feature", "properties": {"establecim": "ESC.PROV.GRAL SAN MARTIN", "overall_total": 772, "fake_id": "3997-3999", "seccion": "6", "circuito": "00075", "votos": {"217": 9, "512": 398, "47": 3, "191": 214, "9005": 9, "514": 14, "9006": 0, "3": 4, "9004": 7, "9003": 0, "505": 8, "503": 51, "501": 55}, "direccion": "25 DE MAYO 55"}}, {"geometry": {"type": "Point", "coordinates": [-63.27851010519998, -33.07823783149996]}, "type": "Feature", "properties": {"establecim": "ESC PROV M R DE LA TORRE", "overall_total": 770, "fake_id": "4000-4002", "seccion": "6", "circuito": "00076", "votos": {"217": 12, "512": 151, "47": 5, "191": 418, "9005": 1, "514": 8, "9006": 0, "3": 6, "9004": 11, "9003": 0, "505": 15, "503": 58, "501": 85}, "direccion": "DIESCISEIS 582"}}, {"geometry": {"type": "Point", "coordinates": [-63.129869571076284, -32.909610458356674]}, "type": "Feature", "properties": {"establecim": "ESC.PROV. 12 DE OCTUBRE", "overall_total": 1439, "fake_id": "4008-4012", "seccion": "6", "circuito": "00077", "votos": {"217": 13, "512": 191, "47": 9, "191": 499, "9005": 16, "514": 20, "9006": 0, "3": 15, "9004": 25, "9003": 0, "505": 19, "503": 89, "501": 543}, "direccion": "ETRURIA"}}, {"geometry": {"type": "Point", "coordinates": [-63.129869571076284, -32.909610458356674]}, "type": "Feature", "properties": {"establecim": "INSTITUTO SEC. GRAL PAZ", "overall_total": 1474, "fake_id": "4003-4007", "seccion": "6", "circuito": "00077", "votos": {"217": 26, "512": 198, "47": 18, "191": 590, "9005": 13, "514": 11, "9006": 0, "3": 5, "9004": 18, "9003": 0, "505": 31, "503": 109, "501": 455}, "direccion": "BV.SRMIENTO Y S.NICOLA 390"}}, {"geometry": {"type": "Point", "coordinates": [-63.2412265290914, -32.802119334933266]}, "type": "Feature", "properties": {"establecim": "ESC ESTEBAN ECHEVERRIA", "overall_total": 1075, "fake_id": "4013-4016", "seccion": "6", "circuito": "00078", "votos": {"217": 14, "512": 380, "47": 8, "191": 289, "9005": 18, "514": 16, "9006": 0, "3": 22, "9004": 24, "9003": 0, "505": 7, "503": 121, "501": 176}, "direccion": "GENERAL PAZ 556"}}, {"geometry": {"type": "Point", "coordinates": [-63.123950200850246, -32.040239961052016]}, "type": "Feature", "properties": {"establecim": "ESC.PROV. 25 DE MAYO", "overall_total": 2077, "fake_id": "4017-4024", "seccion": "6", "circuito": "00079", "votos": {"217": 33, "512": 590, "47": 14, "191": 597, "9005": 19, "514": 48, "9006": 0, "3": 21, "9004": 52, "9003": 0, "505": 47, "503": 233, "501": 423}, "direccion": "LA PLAYOSA"}}, {"geometry": {"type": "Point", "coordinates": [-64.18173059580508, -31.394679958709357]}, "type": "Feature", "properties": {"establecim": "INST CORAZON DE MARIA", "overall_total": 3411, "fake_id": "685-697", "seccion": "1", "circuito": "0007B", "votos": {"217": 175, "512": 399, "47": 90, "191": 736, "9005": 80, "514": 172, "9006": 0, "3": 219, "9004": 27, "9003": 6, "505": 486, "503": 524, "501": 497}, "direccion": "A DEL VISO 445 B\u00b0ALTA  CORDOBA"}}, {"geometry": {"type": "Point", "coordinates": [-64.18804935665528, -31.39629841639877]}, "type": "Feature", "properties": {"establecim": "ESC. GARCIA FAURE", "overall_total": 2196, "fake_id": "739-747", "seccion": "1", "circuito": "0007D", "votos": {"217": 126, "512": 258, "47": 58, "191": 515, "9005": 16, "514": 103, "9006": 0, "3": 113, "9004": 20, "9003": 0, "505": 315, "503": 401, "501": 271}, "direccion": "JERONIMO LUIS DE CABRERA  834"}}, {"geometry": {"type": "Point", "coordinates": [-64.18693686549541, -31.366455983854266]}, "type": "Feature", "properties": {"establecim": "ESC ARTURO CAPDEVILA", "overall_total": 3279, "fake_id": "819-830", "seccion": "1", "circuito": "0007G", "votos": {"217": 135, "512": 471, "47": 90, "191": 570, "9005": 87, "514": 207, "9006": 0, "3": 318, "9004": 21, "9003": 0, "505": 431, "503": 474, "501": 475}, "direccion": "AVELLANEDA 4100  B\u00b0MFRAGUEIRO"}}, {"geometry": {"type": "Point", "coordinates": [-64.18693686549541, -31.366455983854266]}, "type": "Feature", "properties": {"establecim": "J DE INF ARTURO CAPDEVILA", "overall_total": 533, "fake_id": "843-844", "seccion": "1", "circuito": "0007G", "votos": {"217": 18, "512": 58, "47": 23, "191": 93, "9005": 14, "514": 29, "9006": 0, "3": 55, "9004": 5, "9003": 0, "505": 63, "503": 84, "501": 91}, "direccion": "AVELLANEDA 4100 B\u00b0M  FRAGUEIRO"}}, {"geometry": {"type": "Point", "coordinates": [-63.478286699999984, -32.542345599999976]}, "type": "Feature", "properties": {"establecim": "ESC.PROV.J.V.GONZALEZ", "overall_total": 498, "fake_id": "4025-4026", "seccion": "6", "circuito": "00080", "votos": {"217": 4, "512": 273, "47": 5, "191": 90, "9005": 0, "514": 8, "9006": 0, "3": 3, "9004": 4, "9003": 0, "505": 1, "503": 68, "501": 42}, "direccion": "9 DE JULIO 350"}}, {"geometry": {"type": "Point", "coordinates": [-63.23368666019999, -32.30450454299996]}, "type": "Feature", "properties": {"establecim": "ESC.PROV. ISLAS MALVINAS", "overall_total": 58, "fake_id": "4027-4027", "seccion": "6", "circuito": "00081", "votos": {"217": 7, "512": 14, "47": 1, "191": 11, "9005": 2, "514": 3, "9006": 0, "3": 0, "9004": 0, "9003": 0, "505": 1, "503": 7, "501": 12}, "direccion": "RUTA PROV N 158 0"}}, {"geometry": {"type": "Point", "coordinates": [-63.409349068799955, -32.612244258500006]}, "type": "Feature", "properties": {"establecim": "ESC PROV CMTE L PIEDRABUENA", "overall_total": 445, "fake_id": "4028-4029", "seccion": "6", "circuito": "00082", "votos": {"217": 4, "512": 48, "47": 2, "191": 145, "9005": 0, "514": 6, "9006": 0, "3": 0, "9004": 19, "9003": 0, "505": 5, "503": 35, "501": 181}, "direccion": "FELIPE LORENZATTI 875"}}, {"geometry": {"type": "Point", "coordinates": [-63.34053902759996, -32.7470387648]}, "type": "Feature", "properties": {"establecim": "ESC.PROV.D.F.SARMIENTO", "overall_total": 896, "fake_id": "4030-4033", "seccion": "6", "circuito": "00083", "votos": {"217": 19, "512": 339, "47": 11, "191": 207, "9005": 27, "514": 13, "9006": 0, "3": 38, "9004": 18, "9003": 0, "505": 14, "503": 120, "501": 90}, "direccion": "PASCO"}}, {"geometry": {"type": "Point", "coordinates": [-63.2488296, -32.527799199999976]}, "type": "Feature", "properties": {"establecim": "ESC PROV JOSE DE SAN MARTIN", "overall_total": 35, "fake_id": "4034-4034", "seccion": "6", "circuito": "00084", "votos": {"217": 0, "512": 7, "47": 0, "191": 12, "9005": 0, "514": 2, "9006": 0, "3": 0, "9004": 5, "9003": 0, "505": 0, "503": 4, "501": 5}, "direccion": "PUBLICA S/N"}}, {"geometry": {"type": "Point", "coordinates": [-62.930106799999955, -32.25004130000003]}, "type": "Feature", "properties": {"establecim": "ESC.PROV.M.GUEMES", "overall_total": 520, "fake_id": "4035-4036", "seccion": "6", "circuito": "00086", "votos": {"217": 10, "512": 118, "47": 1, "191": 238, "9005": 5, "514": 17, "9006": 0, "3": 5, "9004": 8, "9003": 0, "505": 17, "503": 53, "501": 48}, "direccion": "ANTONIO CONRERO 24"}}, {"geometry": {"type": "Point", "coordinates": [-63.434691302599965, -32.69466448719998]}, "type": "Feature", "properties": {"establecim": "ESC. A. CAPDEVILA", "overall_total": 1523, "fake_id": "4037-4042", "seccion": "6", "circuito": "00087", "votos": {"217": 31, "512": 524, "47": 18, "191": 483, "9005": 6, "514": 31, "9006": 0, "3": 20, "9004": 44, "9003": 0, "505": 35, "503": 185, "501": 146}, "direccion": "TICINO"}}, {"geometry": {"type": "Point", "coordinates": [-63.461953661239804, -32.2913386262478]}, "type": "Feature", "properties": {"establecim": "ESC.R.DE ESCALADA", "overall_total": 2317, "fake_id": "4043-4051", "seccion": "6", "circuito": "00088", "votos": {"217": 29, "512": 1124, "47": 8, "191": 435, "9005": 25, "514": 38, "9006": 0, "3": 23, "9004": 18, "9003": 0, "505": 69, "503": 295, "501": 253}, "direccion": "TIO PUJIO"}}, {"geometry": {"type": "Point", "coordinates": [-63.2492097782163, -32.41293132566267]}, "type": "Feature", "properties": {"establecim": "CENMA N\u00b0 96", "overall_total": 2165, "fake_id": "4239-4246", "seccion": "6", "circuito": "00089", "votos": {"217": 53, "512": 346, "47": 48, "191": 399, "9005": 39, "514": 59, "9006": 0, "3": 23, "9004": 21, "9003": 0, "505": 75, "503": 339, "501": 763}, "direccion": "SANTA FE 643"}}, {"geometry": {"type": "Point", "coordinates": [-63.24975375939299, -32.41230056533812]}, "type": "Feature", "properties": {"establecim": "ESC.COM.A.OCAMPO", "overall_total": 2967, "fake_id": "4200-4211", "seccion": "6", "circuito": "00089", "votos": {"217": 86, "512": 443, "47": 61, "191": 533, "9005": 52, "514": 69, "9006": 2, "3": 23, "9004": 41, "9003": 1, "505": 108, "503": 506, "501": 1042}, "direccion": "CATAMARCA 650"}}, {"geometry": {"type": "Point", "coordinates": [-63.246078927860836, -32.41781150734939]}, "type": "Feature", "properties": {"establecim": "ESC.DR. J.BIANCO", "overall_total": 3231, "fake_id": "4064-4075", "seccion": "6", "circuito": "00089", "votos": {"217": 93, "512": 511, "47": 64, "191": 638, "9005": 45, "514": 62, "9006": 1, "3": 25, "9004": 35, "9003": 1, "505": 137, "503": 464, "501": 1155}, "direccion": "BELGRANO 302"}}, {"geometry": {"type": "Point", "coordinates": [-63.24345985132633, -32.40928987722655]}, "type": "Feature", "properties": {"establecim": "ESC.J.INGENIEROS", "overall_total": 3275, "fake_id": "4226-4238", "seccion": "6", "circuito": "00089", "votos": {"217": 106, "512": 515, "47": 50, "191": 629, "9005": 65, "514": 65, "9006": 0, "3": 37, "9004": 29, "9003": 0, "505": 132, "503": 544, "501": 1103}, "direccion": "SANTA FE 1271"}}, {"geometry": {"type": "Point", "coordinates": [-63.24525059029585, -32.40411656600996]}, "type": "Feature", "properties": {"establecim": "ESC.REP.DEL PARAGUAY", "overall_total": 2747, "fake_id": "4076-4085", "seccion": "6", "circuito": "00089", "votos": {"217": 100, "512": 444, "47": 62, "191": 639, "9005": 36, "514": 58, "9006": 1, "3": 22, "9004": 26, "9003": 1, "505": 108, "503": 501, "501": 749}, "direccion": "CHILE 565"}}, {"geometry": {"type": "Point", "coordinates": [-63.25421926827582, -32.413095660309445]}, "type": "Feature", "properties": {"establecim": "ESCUELA J.MARMOL", "overall_total": 2751, "fake_id": "4054-4063", "seccion": "6", "circuito": "00089", "votos": {"217": 158, "512": 386, "47": 39, "191": 464, "9005": 40, "514": 56, "9006": 0, "3": 27, "9004": 34, "9003": 0, "505": 111, "503": 445, "501": 991}, "direccion": "NAC. UNIDAS 385"}}, {"geometry": {"type": "Point", "coordinates": [-63.2495, -32.4049]}, "type": "Feature", "properties": {"establecim": "INST.LA SANTISIMA TRINIDAD", "overall_total": 7026, "fake_id": "4116-4141", "seccion": "6", "circuito": "00089", "votos": {"217": 230, "512": 1043, "47": 114, "191": 1325, "9005": 117, "514": 175, "9006": 1, "3": 92, "9004": 89, "9003": 0, "505": 306, "503": 1144, "501": 2390}, "direccion": "SARSFIELD 1072"}}, {"geometry": {"type": "Point", "coordinates": [-63.1481429000128, -32.46656179504918]}, "type": "Feature", "properties": {"establecim": "INSTITUTO DEL ROSARIO", "overall_total": 7870, "fake_id": "4086-4115", "seccion": "6", "circuito": "00089", "votos": {"217": 231, "512": 1199, "47": 146, "191": 1499, "9005": 135, "514": 184, "9006": 9, "3": 88, "9004": 96, "9003": 0, "505": 337, "503": 1277, "501": 2669}, "direccion": "BV.ALVEAR 68"}}, {"geometry": {"type": "Point", "coordinates": [-63.2471, -32.4117]}, "type": "Feature", "properties": {"establecim": "INSTITUTO SAN ANTONIO", "overall_total": 1091, "fake_id": "4247-4250", "seccion": "6", "circuito": "00089", "votos": {"217": 35, "512": 153, "47": 26, "191": 232, "9005": 20, "514": 22, "9006": 0, "3": 8, "9004": 9, "9003": 7, "505": 40, "503": 185, "501": 354}, "direccion": "RUCCI 141"}}, {"geometry": {"type": "Point", "coordinates": [-63.242728109821506, -32.419792324513935]}, "type": "Feature", "properties": {"establecim": "IPEM N\u00b0275 EX COLEGIO NACIONAL", "overall_total": 3796, "fake_id": "4185-4199", "seccion": "6", "circuito": "00089", "votos": {"217": 114, "512": 587, "47": 58, "191": 765, "9005": 65, "514": 89, "9006": 4, "3": 44, "9004": 46, "9003": 5, "505": 154, "503": 568, "501": 1297}, "direccion": "S.DEL ESTERO 618"}}, {"geometry": {"type": "Point", "coordinates": [-64.16588208510126, -31.3984379671678]}, "type": "Feature", "properties": {"establecim": "ESC DEAN FUNES", "overall_total": 2547, "fake_id": "881-890", "seccion": "1", "circuito": "0008B", "votos": {"217": 90, "512": 405, "47": 80, "191": 515, "9005": 61, "514": 140, "9006": 4, "3": 190, "9004": 16, "9003": 1, "505": 319, "503": 405, "501": 321}, "direccion": "ANA M JANER 1551  B\u00b0PUEYRREDON"}}, {"geometry": {"type": "Point", "coordinates": [-64.16458511500123, -31.401150605871308]}, "type": "Feature", "properties": {"establecim": "INST OBISPO CAIXAL", "overall_total": 2070, "fake_id": "873-880", "seccion": "1", "circuito": "0008B", "votos": {"217": 83, "512": 301, "47": 67, "191": 478, "9005": 45, "514": 88, "9006": 0, "3": 159, "9004": 26, "9003": 0, "505": 264, "503": 319, "501": 240}, "direccion": "ANA M JANER 1250  B\u00b0PUEYRREDON"}}, {"geometry": {"type": "Point", "coordinates": [-64.1674254899678, -31.403140902836626]}, "type": "Feature", "properties": {"establecim": "INST SAGRADO CORAZON", "overall_total": 2572, "fake_id": "891-900", "seccion": "1", "circuito": "0008B", "votos": {"217": 113, "512": 371, "47": 76, "191": 539, "9005": 51, "514": 134, "9006": 1, "3": 210, "9004": 28, "9003": 4, "505": 346, "503": 401, "501": 298}, "direccion": "ROMA 1153 B\u00b0PUEYRREDON"}}, {"geometry": {"type": "Point", "coordinates": [-63.24835746844768, -32.43693243881911]}, "type": "Feature", "properties": {"establecim": "ESC.BME.MITRE", "overall_total": 2303, "fake_id": "4251-4258", "seccion": "6", "circuito": "00090", "votos": {"217": 45, "512": 525, "47": 31, "191": 347, "9005": 24, "514": 48, "9006": 1, "3": 27, "9004": 36, "9003": 0, "505": 65, "503": 244, "501": 910}, "direccion": "MITRE 1147"}}, {"geometry": {"type": "Point", "coordinates": [-63.250582233245524, -32.43688806803237]}, "type": "Feature", "properties": {"establecim": "ESC.REP.DE BOLIVIA", "overall_total": 499, "fake_id": "4293-4296", "seccion": "6", "circuito": "00090", "votos": {"217": 11, "512": 47, "47": 4, "191": 77, "9005": 10, "514": 4, "9006": 0, "3": 6, "9004": 10, "9003": 0, "505": 11, "503": 72, "501": 247}, "direccion": "D.FUNES 1250"}}, {"geometry": {"type": "Point", "coordinates": [-63.24606996238263, -32.43613192984504]}, "type": "Feature", "properties": {"establecim": "INSTITUTO INMAC.CONCEPCION", "overall_total": 3616, "fake_id": "4269-4281", "seccion": "6", "circuito": "00090", "votos": {"217": 101, "512": 881, "47": 25, "191": 520, "9005": 49, "514": 63, "9006": 0, "3": 41, "9004": 42, "9003": 1, "505": 91, "503": 350, "501": 1452}, "direccion": "CABANILLAS 400"}}, {"geometry": {"type": "Point", "coordinates": [-64.20659939999994, -30.595175099999974]}, "type": "Feature", "properties": {"establecim": "ESC.PROV.FRAY M. ESQUIU", "overall_total": 361, "fake_id": "4297-4298", "seccion": "7", "circuito": "00091", "votos": {"217": 0, "512": 178, "47": 0, "191": 144, "9005": 6, "514": 2, "9006": 1, "3": 1, "9004": 4, "9003": 0, "505": 2, "503": 6, "501": 17}, "direccion": "PUBLICA S/N"}}, {"geometry": {"type": "Point", "coordinates": [-64.55737205639993, -30.615762728099988]}, "type": "Feature", "properties": {"establecim": "ESC.PROV.R. DE NICARAGUA", "overall_total": 254, "fake_id": "4304-4304", "seccion": "7", "circuito": "00093", "votos": {"217": 0, "512": 183, "47": 0, "191": 58, "9005": 0, "514": 2, "9006": 0, "3": 0, "9004": 0, "9003": 0, "505": 1, "503": 1, "501": 9}, "direccion": "COPACABANA"}}, {"geometry": {"type": "Point", "coordinates": [-64.6662511129, -30.469242164100017]}, "type": "Feature", "properties": {"establecim": "ESC PROV GRAL M GUEMES", "overall_total": 493, "fake_id": "4305-4306", "seccion": "7", "circuito": "00094", "votos": {"217": 3, "512": 270, "47": 1, "191": 178, "9005": 2, "514": 1, "9006": 0, "3": 0, "9004": 6, "9003": 5, "505": 5, "503": 7, "501": 15}, "direccion": "PUBLICA S/N"}}, {"geometry": {"type": "Point", "coordinates": [-64.34243799193925, -30.429313454052565]}, "type": "Feature", "properties": {"establecim": "ESC.A.M.SOBRAL", "overall_total": 2521, "fake_id": "4347-4355", "seccion": "7", "circuito": "00095", "votos": {"217": 35, "512": 913, "47": 17, "191": 954, "9005": 33, "514": 22, "9006": 1, "3": 56, "9004": 45, "9003": 0, "505": 60, "503": 124, "501": 261}, "direccion": "SANTIAGO DEL ESTERO Y LAS  HERAS 0"}}, {"geometry": {"type": "Point", "coordinates": [-64.3484045381451, -30.412754057512505]}, "type": "Feature", "properties": {"establecim": "ESC.AMANDA SUAREZ CORDOBA", "overall_total": 855, "fake_id": "4356-4358", "seccion": "7", "circuito": "00095", "votos": {"217": 17, "512": 289, "47": 12, "191": 321, "9005": 14, "514": 10, "9006": 0, "3": 16, "9004": 15, "9003": 0, "505": 22, "503": 47, "501": 92}, "direccion": "SANTA ROSA ESQ. AMADEO  SABATTINI 0"}}, {"geometry": {"type": "Point", "coordinates": [-64.36233725145702, -30.414813764432484]}, "type": "Feature", "properties": {"establecim": "ESC.M.J.G.DE BELGRANO", "overall_total": 2707, "fake_id": "4316-4325", "seccion": "7", "circuito": "00095", "votos": {"217": 24, "512": 940, "47": 17, "191": 1054, "9005": 65, "514": 39, "9006": 1, "3": 51, "9004": 24, "9003": 0, "505": 68, "503": 151, "501": 273}, "direccion": "JERONIMO L DE CABRERA L  ALGARROBO 451"}}, {"geometry": {"type": "Point", "coordinates": [-64.35575509561767, -30.423730280605582]}, "type": "Feature", "properties": {"establecim": "ESC.PEDRO N.ARIAS", "overall_total": 3039, "fake_id": "4326-4336", "seccion": "7", "circuito": "00095", "votos": {"217": 28, "512": 1098, "47": 27, "191": 1147, "9005": 39, "514": 47, "9006": 1, "3": 65, "9004": 44, "9003": 0, "505": 70, "503": 160, "501": 313}, "direccion": "CORDOBA 87"}}, {"geometry": {"type": "Point", "coordinates": [-64.34954777941618, -30.42784394664007]}, "type": "Feature", "properties": {"establecim": "ESC.PROV. M.MORENO", "overall_total": 2734, "fake_id": "4337-4346", "seccion": "7", "circuito": "00095", "votos": {"217": 48, "512": 988, "47": 28, "191": 992, "9005": 46, "514": 36, "9006": 0, "3": 43, "9004": 45, "9003": 0, "505": 65, "503": 160, "501": 283}, "direccion": "DORREGO OBRAS SANITARIA  326"}}, {"geometry": {"type": "Point", "coordinates": [-64.34912350719446, -30.42000853920329]}, "type": "Feature", "properties": {"establecim": "ESC.PROV.GRAL SAN MARTIN", "overall_total": 2490, "fake_id": "4307-4315", "seccion": "7", "circuito": "00095", "votos": {"217": 24, "512": 894, "47": 24, "191": 915, "9005": 47, "514": 26, "9006": 0, "3": 47, "9004": 27, "9003": 0, "505": 72, "503": 140, "501": 274}, "direccion": "DEAN FUNES"}}, {"geometry": {"type": "Point", "coordinates": [-64.36537157019998, -30.580031133800002]}, "type": "Feature", "properties": {"establecim": "ESCUELA FERNANDO FADER", "overall_total": 58, "fake_id": "4361-4361", "seccion": "7", "circuito": "00097", "votos": {"217": 0, "512": 16, "47": 0, "191": 34, "9005": 0, "514": 1, "9006": 0, "3": 0, "9004": 0, "9003": 0, "505": 1, "503": 2, "501": 4}, "direccion": "PUBLICA S/N"}}, {"geometry": {"type": "Point", "coordinates": [-64.53872684400002, -30.409496724900013]}, "type": "Feature", "properties": {"establecim": "ESCUELA FRAY GUILLERMO BUTLER", "overall_total": 49, "fake_id": "4362-4362", "seccion": "7", "circuito": "00098", "votos": {"217": 0, "512": 17, "47": 0, "191": 14, "9005": 2, "514": 0, "9006": 0, "3": 0, "9004": 2, "9003": 0, "505": 0, "503": 2, "501": 12}, "direccion": "PUBLICA S/N"}}, {"geometry": {"type": "Point", "coordinates": [-64.4946300001302, -30.217119996370027]}, "type": "Feature", "properties": {"establecim": "ESC.CIUDAD DE BS.AIRES", "overall_total": 1573, "fake_id": "4363-4368", "seccion": "7", "circuito": "00099", "votos": {"217": 25, "512": 407, "47": 7, "191": 876, "9005": 23, "514": 20, "9006": 1, "3": 13, "9004": 26, "9003": 0, "505": 28, "503": 73, "501": 74}, "direccion": "QUILINO ESTACION"}}, {"geometry": {"type": "Point", "coordinates": [-64.4946300001302, -30.217119996370027]}, "type": "Feature", "properties": {"establecim": "ESC.PROV.M.BELGRANO", "overall_total": 1537, "fake_id": "4369-4374", "seccion": "7", "circuito": "00099", "votos": {"217": 8, "512": 472, "47": 4, "191": 807, "9005": 21, "514": 17, "9006": 0, "3": 11, "9004": 28, "9003": 9, "505": 19, "503": 66, "501": 75}, "direccion": "QUILINO ESTACION"}}, {"geometry": {"type": "Point", "coordinates": [-64.20784329076528, -31.3743149937587]}, "type": "Feature", "properties": {"establecim": "ESC MAHATMA GANDHI", "overall_total": 1591, "fake_id": "966-972", "seccion": "1", "circuito": "0009A", "votos": {"217": 62, "512": 203, "47": 46, "191": 352, "9005": 32, "514": 87, "9006": 0, "3": 81, "9004": 9, "9003": 0, "505": 217, "503": 303, "501": 199}, "direccion": "TALAVERA DE MADRID 3261  B\u00b0LA FRANCE"}}, {"geometry": {"type": "Point", "coordinates": [-64.21225116900388, -31.376901123513772]}, "type": "Feature", "properties": {"establecim": "ESC CONGRESO DE TUCUMAN", "overall_total": 1587, "fake_id": "989-994", "seccion": "1", "circuito": "0009B", "votos": {"217": 83, "512": 193, "47": 68, "191": 395, "9005": 16, "514": 63, "9006": 4, "3": 53, "9004": 8, "9003": 0, "505": 203, "503": 312, "501": 189}, "direccion": "MALVINO 2772 B\u00b0LAS  MARGARITAS"}}, {"geometry": {"type": "Point", "coordinates": [-64.20872478159227, -31.38860732861772]}, "type": "Feature", "properties": {"establecim": "ESC PRESIDENTE KENNEDY", "overall_total": 2017, "fake_id": "1142-1149", "seccion": "1", "circuito": "0009G", "votos": {"217": 123, "512": 226, "47": 71, "191": 463, "9005": 21, "514": 95, "9006": 0, "3": 110, "9004": 12, "9003": 0, "505": 257, "503": 378, "501": 261}, "direccion": "JULIAN PAZ 1851 VILLA CABRERA"}}, {"geometry": {"type": "Point", "coordinates": [-64.2175977191167, -31.38364136182539]}, "type": "Feature", "properties": {"establecim": "INSTITUTO PE\u00d1A", "overall_total": 2523, "fake_id": "1132-1141", "seccion": "1", "circuito": "0009G", "votos": {"217": 140, "512": 275, "47": 79, "191": 567, "9005": 26, "514": 139, "9006": 0, "3": 123, "9004": 11, "9003": 0, "505": 351, "503": 473, "501": 339}, "direccion": "CIUDAD DE TAMPA 2954 VILLA  CABRERA"}}, {"geometry": {"type": "Point", "coordinates": [-64.46677189989994, -30.207553615499965]}, "type": "Feature", "properties": {"establecim": "ESC.PROV.D.V.SARSFIELD", "overall_total": 486, "fake_id": "4375-4377", "seccion": "7", "circuito": "00100", "votos": {"217": 6, "512": 119, "47": 1, "191": 285, "9005": 0, "514": 6, "9006": 0, "3": 6, "9004": 1, "9003": 0, "505": 10, "503": 21, "501": 31}, "direccion": "VELEZ SARSFIELD 0"}}, {"geometry": {"type": "Point", "coordinates": [-64.44612852199994, -30.45417307109997]}, "type": "Feature", "properties": {"establecim": "ESC PROV JOAQUIN V GONZALEZ", "overall_total": 61, "fake_id": "4378-4378", "seccion": "7", "circuito": "00101", "votos": {"217": 0, "512": 22, "47": 1, "191": 29, "9005": 0, "514": 1, "9006": 0, "3": 1, "9004": 2, "9003": 0, "505": 1, "503": 0, "501": 4}, "direccion": "PUBLICA S/N"}}, {"geometry": {"type": "Point", "coordinates": [-63.65632130005618, -33.29645319459257]}, "type": "Feature", "properties": {"establecim": "ESC.EL GRAN CAPITAN", "overall_total": 1637, "fake_id": "4379-4384", "seccion": "8", "circuito": "00102", "votos": {"217": 11, "512": 526, "47": 24, "191": 296, "9005": 20, "514": 21, "9006": 0, "3": 5, "9004": 31, "9003": 0, "505": 33, "503": 127, "501": 543}, "direccion": "ALEJANDRO"}}, {"geometry": {"type": "Point", "coordinates": [-63.65632130005618, -33.29645319459257]}, "type": "Feature", "properties": {"establecim": "ESC.MISIONEROS SALESIANOS", "overall_total": 2147, "fake_id": "4385-4392", "seccion": "8", "circuito": "00102", "votos": {"217": 25, "512": 781, "47": 30, "191": 343, "9005": 44, "514": 19, "9006": 0, "3": 13, "9004": 17, "9003": 0, "505": 35, "503": 156, "501": 684}, "direccion": "ALEJANDRO"}}, {"geometry": {"type": "Point", "coordinates": [-63.66874116231271, -33.02575626509767]}, "type": "Feature", "properties": {"establecim": "ESC.SE\u00d1OR DE LA BUENA MUERTE", "overall_total": 251, "fake_id": "4394-4396", "seccion": "8", "circuito": "00105", "votos": {"217": 2, "512": 81, "47": 3, "191": 70, "9005": 0, "514": 1, "9006": 0, "3": 1, "9004": 11, "9003": 0, "505": 3, "503": 17, "501": 62}, "direccion": "BENGOLEA"}}, {"geometry": {"type": "Point", "coordinates": [-63.87395000007332, -32.81290999485688]}, "type": "Feature", "properties": {"establecim": "ESC,PROV.E.F.OLMOS", "overall_total": 805, "fake_id": "4423-4425", "seccion": "8", "circuito": "00106", "votos": {"217": 15, "512": 249, "47": 5, "191": 182, "9005": 14, "514": 13, "9006": 0, "3": 9, "9004": 23, "9003": 0, "505": 16, "503": 122, "501": 157}, "direccion": "CABRERA"}}, {"geometry": {"type": "Point", "coordinates": [-63.87395000007332, -32.81290999485688]}, "type": "Feature", "properties": {"establecim": "ESC.FRAY PIO BENTIVOGLIO", "overall_total": 1835, "fake_id": "4416-4422", "seccion": "8", "circuito": "00106", "votos": {"217": 41, "512": 594, "47": 11, "191": 484, "9005": 26, "514": 46, "9006": 0, "3": 22, "9004": 42, "9003": 0, "505": 42, "503": 224, "501": 303}, "direccion": "MAIPU BARRIO ARGENTIN 962"}}, {"geometry": {"type": "Point", "coordinates": [-63.87395000007332, -32.81290999485688]}, "type": "Feature", "properties": {"establecim": "ESC.PROV.J.M.PAZ", "overall_total": 2403, "fake_id": "4407-4415", "seccion": "8", "circuito": "00106", "votos": {"217": 46, "512": 718, "47": 11, "191": 714, "9005": 44, "514": 27, "9006": 0, "3": 26, "9004": 35, "9003": 0, "505": 89, "503": 304, "501": 389}, "direccion": "CABRERA"}}, {"geometry": {"type": "Point", "coordinates": [-63.87395000007332, -32.81290999485688]}, "type": "Feature", "properties": {"establecim": "INST. G.L.DE CABRERA", "overall_total": 2708, "fake_id": "4397-4406", "seccion": "8", "circuito": "00106", "votos": {"217": 43, "512": 808, "47": 14, "191": 800, "9005": 51, "514": 41, "9006": 0, "3": 19, "9004": 41, "9003": 0, "505": 64, "503": 394, "501": 433}, "direccion": "CABRERA"}}, {"geometry": {"type": "Point", "coordinates": [-64.0484289, -33.02470049999997]}, "type": "Feature", "properties": {"establecim": "ESC TTE CNEL J DUATE ARDOY", "overall_total": 799, "fake_id": "4432-4434", "seccion": "8", "circuito": "00108", "votos": {"217": 4, "512": 436, "47": 0, "191": 209, "9005": 18, "514": 5, "9006": 0, "3": 5, "9004": 9, "9003": 0, "505": 21, "503": 57, "501": 35}, "direccion": "SARMIENTO 182"}}, {"geometry": {"type": "Point", "coordinates": [-63.78612000006516, -32.75642999488808]}, "type": "Feature", "properties": {"establecim": "ESC.PROV.GRAL SAN MARTIN", "overall_total": 3263, "fake_id": "4441-4452", "seccion": "8", "circuito": "00109", "votos": {"217": 75, "512": 1028, "47": 84, "191": 662, "9005": 94, "514": 73, "9006": 0, "3": 64, "9004": 60, "9003": 0, "505": 102, "503": 601, "501": 420}, "direccion": "BV SAN MARTIN 251"}}, {"geometry": {"type": "Point", "coordinates": [-63.786123691397, -32.75643173478411]}, "type": "Feature", "properties": {"establecim": "INST.TEC.ADRIAN P. URQUIA", "overall_total": 2380, "fake_id": "4453-4461", "seccion": "8", "circuito": "00109", "votos": {"217": 59, "512": 770, "47": 79, "191": 465, "9005": 58, "514": 56, "9006": 0, "3": 37, "9004": 45, "9003": 0, "505": 73, "503": 425, "501": 313}, "direccion": "GENERAL DEHEZA"}}, {"geometry": {"type": "Point", "coordinates": [-63.78612000006516, -32.75642999488808]}, "type": "Feature", "properties": {"establecim": "INSTITUTO SEC. 25 DE MAYO", "overall_total": 1583, "fake_id": "4435-4440", "seccion": "8", "circuito": "00109", "votos": {"217": 32, "512": 502, "47": 54, "191": 353, "9005": 41, "514": 41, "9006": 0, "3": 26, "9004": 24, "9003": 0, "505": 52, "503": 266, "501": 192}, "direccion": "DEHEZA"}}, {"geometry": {"type": "Point", "coordinates": [-64.25122867566485, -31.4358691985505]}, "type": "Feature", "properties": {"establecim": "ESC CADETES FUERZA AEREA", "overall_total": 2943, "fake_id": "1279-1289", "seccion": "1", "circuito": "0010E", "votos": {"217": 71, "512": 449, "47": 95, "191": 429, "9005": 82, "514": 164, "9006": 0, "3": 344, "9004": 36, "9003": 0, "505": 334, "503": 447, "501": 492}, "direccion": "LEOPOLDO CASAVEGA 2320"}}, {"geometry": {"type": "Point", "coordinates": [-64.25122867566485, -31.4358691985505]}, "type": "Feature", "properties": {"establecim": "J DE INF CADETES FUERZA AEREA", "overall_total": 266, "fake_id": "1298-1298", "seccion": "1", "circuito": "0010E", "votos": {"217": 6, "512": 33, "47": 14, "191": 45, "9005": 15, "514": 12, "9006": 0, "3": 31, "9004": 6, "9003": 0, "505": 29, "503": 38, "501": 37}, "direccion": "LEOPOLDO CASAVEGA 2320"}}, {"geometry": {"type": "Point", "coordinates": [-64.23744886508506, -31.43893471215556]}, "type": "Feature", "properties": {"establecim": "COL NUESTRA SE\u00d1ORA DE FATIMA", "overall_total": 3523, "fake_id": "1323-1335", "seccion": "1", "circuito": "0010F", "votos": {"217": 101, "512": 470, "47": 201, "191": 660, "9005": 73, "514": 214, "9006": 0, "3": 244, "9004": 19, "9003": 1, "505": 481, "503": 573, "501": 486}, "direccion": "VARELA ORTIZ 2600 B\u00b0  MATIENZO"}}, {"geometry": {"type": "Point", "coordinates": [-63.542358800000024, -33.66491779999997]}, "type": "Feature", "properties": {"establecim": "ESC CARLOS MARIA DE ALVEAR", "overall_total": 26, "fake_id": "4462-4462", "seccion": "8", "circuito": "00110", "votos": {"217": 0, "512": 18, "47": 1, "191": 1, "9005": 0, "514": 1, "9006": 0, "3": 0, "9004": 1, "9003": 0, "505": 0, "503": 3, "501": 1}, "direccion": "PUBLICA S/N"}}, {"geometry": {"type": "Point", "coordinates": [-63.6386182899692, -33.66586107222445]}, "type": "Feature", "properties": {"establecim": "ESC PROV DOMINGO F SARMIENTO", "overall_total": 917, "fake_id": "4464-4467", "seccion": "8", "circuito": "00111", "votos": {"217": 11, "512": 395, "47": 5, "191": 168, "9005": 5, "514": 9, "9006": 0, "3": 4, "9004": 20, "9003": 0, "505": 6, "503": 112, "501": 182}, "direccion": "CARLOS ALBERTO MAYOL S/N"}}, {"geometry": {"type": "Point", "coordinates": [-63.293723828508014, -33.42013629249501]}, "type": "Feature", "properties": {"establecim": "ESC.FORTIN HEROICO", "overall_total": 3278, "fake_id": "4487-4498", "seccion": "8", "circuito": "00112", "votos": {"217": 57, "512": 1228, "47": 57, "191": 668, "9005": 69, "514": 24, "9006": 0, "3": 40, "9004": 32, "9003": 0, "505": 91, "503": 532, "501": 480}, "direccion": "ACOSTA 673"}}, {"geometry": {"type": "Point", "coordinates": [-63.293310989412966, -33.4190360815334]}, "type": "Feature", "properties": {"establecim": "ESC.NAC.DE COMERCIO", "overall_total": 2715, "fake_id": "4476-4486", "seccion": "8", "circuito": "00112", "votos": {"217": 33, "512": 952, "47": 39, "191": 635, "9005": 67, "514": 42, "9006": 0, "3": 44, "9004": 22, "9003": 0, "505": 71, "503": 427, "501": 383}, "direccion": "V.SARSFIELD 651"}}, {"geometry": {"type": "Point", "coordinates": [-63.299674224371934, -33.420995689647015]}, "type": "Feature", "properties": {"establecim": "INST.NTA.M.DE LAS MERCEDES", "overall_total": 2251, "fake_id": "4468-4475", "seccion": "8", "circuito": "00112", "votos": {"217": 21, "512": 789, "47": 23, "191": 514, "9005": 48, "514": 28, "9006": 0, "3": 35, "9004": 20, "9003": 0, "505": 59, "503": 405, "501": 309}, "direccion": "9 DE JULIO 271"}}, {"geometry": {"type": "Point", "coordinates": [-63.47159744908135, -33.398534012704594]}, "type": "Feature", "properties": {"establecim": "ESC DOMINGO F SARMIENTO", "overall_total": 510, "fake_id": "4499-4500", "seccion": "8", "circuito": "00113", "votos": {"217": 4, "512": 139, "47": 2, "191": 74, "9005": 5, "514": 5, "9006": 0, "3": 4, "9004": 2, "9003": 0, "505": 4, "503": 28, "501": 243}, "direccion": "SRITA BERNARDINA BAIGORRI  229"}}, {"geometry": {"type": "Point", "coordinates": [-63.905567, -33.0447044]}, "type": "Feature", "properties": {"establecim": "ESCUELA PROV.FRENCH Y BERUTTI", "overall_total": 256, "fake_id": "4501-4502", "seccion": "8", "circuito": "00114", "votos": {"217": 3, "512": 143, "47": 2, "191": 51, "9005": 3, "514": 4, "9006": 0, "3": 2, "9004": 5, "9003": 0, "505": 7, "503": 24, "501": 12}, "direccion": "25 DE MAYO 135"}}, {"geometry": {"type": "Point", "coordinates": [-63.8605318, -33.19901590000002]}, "type": "Feature", "properties": {"establecim": "ESC.CAP. F.D.ZARCO", "overall_total": 1074, "fake_id": "4503-4506", "seccion": "8", "circuito": "00116", "votos": {"217": 5, "512": 524, "47": 6, "191": 210, "9005": 2, "514": 21, "9006": 0, "3": 10, "9004": 41, "9003": 0, "505": 19, "503": 64, "501": 172}, "direccion": "MANUEL DE LA LASTR 623"}}, {"geometry": {"type": "Point", "coordinates": [-63.43422950003715, -33.18285559465409]}, "type": "Feature", "properties": {"establecim": "INSTITUTO DR.M. BELGRANO", "overall_total": 1667, "fake_id": "4508-4513", "seccion": "8", "circuito": "00117", "votos": {"217": 18, "512": 661, "47": 8, "191": 448, "9005": 3, "514": 19, "9006": 0, "3": 9, "9004": 24, "9003": 0, "505": 22, "503": 113, "501": 342}, "direccion": "SANTA EUFEMIA"}}, {"geometry": {"type": "Point", "coordinates": [-63.50573000003836, -33.03205999473611]}, "type": "Feature", "properties": {"establecim": "ESC.MARTIN GUERRICO", "overall_total": 1855, "fake_id": "4521-4527", "seccion": "8", "circuito": "00118", "votos": {"217": 33, "512": 684, "47": 15, "191": 345, "9005": 23, "514": 34, "9006": 0, "3": 13, "9004": 27, "9003": 0, "505": 65, "503": 202, "501": 414}, "direccion": "UCACHA"}}, {"geometry": {"type": "Point", "coordinates": [-63.50573000003836, -33.03205999473611]}, "type": "Feature", "properties": {"establecim": "ESC.PROV.J.B.ALBERDI", "overall_total": 1860, "fake_id": "4514-4520", "seccion": "8", "circuito": "00118", "votos": {"217": 33, "512": 617, "47": 22, "191": 403, "9005": 10, "514": 24, "9006": 0, "3": 23, "9004": 33, "9003": 0, "505": 47, "503": 223, "501": 425}, "direccion": "UCACHA"}}, {"geometry": {"type": "Point", "coordinates": [-62.62235999993887, -33.60715999442508]}, "type": "Feature", "properties": {"establecim": "ESC.PROV.D.F.SARMIENTO", "overall_total": 1300, "fake_id": "4532-4536", "seccion": "9", "circuito": "00119", "votos": {"217": 13, "512": 672, "47": 38, "191": 254, "9005": 1, "514": 17, "9006": 0, "3": 2, "9004": 10, "9003": 0, "505": 19, "503": 131, "501": 143}, "direccion": "HIPOLITO IRIGOYEN 476"}}, {"geometry": {"type": "Point", "coordinates": [-62.62235999993887, -33.60715999442508]}, "type": "Feature", "properties": {"establecim": "INSTITUTO SEC. V.SARSFIELD", "overall_total": 1019, "fake_id": "4528-4531", "seccion": "9", "circuito": "00119", "votos": {"217": 10, "512": 500, "47": 18, "191": 212, "9005": 0, "514": 16, "9006": 0, "3": 5, "9004": 11, "9003": 0, "505": 20, "503": 113, "501": 114}, "direccion": "HIPOLITO YRIGOYEN 757"}}, {"geometry": {"type": "Point", "coordinates": [-64.21811238758178, -31.40322451069207]}, "type": "Feature", "properties": {"establecim": "ESC JOSE MARIA PAZ", "overall_total": 3732, "fake_id": "1656-1670", "seccion": "1", "circuito": "0011A", "votos": {"217": 148, "512": 478, "47": 112, "191": 732, "9005": 63, "514": 235, "9006": 2, "3": 297, "9004": 32, "9003": 0, "505": 544, "503": 579, "501": 510}, "direccion": "AV COLON 2772 B\u00b0 ALTO  ALBERDI"}}, {"geometry": {"type": "Point", "coordinates": [-64.22217824653008, -31.422611799631564]}, "type": "Feature", "properties": {"establecim": "ESC SANTISIMA TRINIDAD", "overall_total": 2134, "fake_id": "1769-1776", "seccion": "1", "circuito": "0011D", "votos": {"217": 78, "512": 237, "47": 83, "191": 461, "9005": 41, "514": 129, "9006": 0, "3": 130, "9004": 19, "9003": 8, "505": 312, "503": 352, "501": 284}, "direccion": "BLAMEY LAFORE 1248 - B\u00b0SAN  RAFAEL B"}}, {"geometry": {"type": "Point", "coordinates": [-64.2310150056885, -31.42295842408258]}, "type": "Feature", "properties": {"establecim": "ESC JOSE MARMOL", "overall_total": 2713, "fake_id": "1788-1798", "seccion": "1", "circuito": "0011E", "votos": {"217": 105, "512": 379, "47": 91, "191": 479, "9005": 79, "514": 196, "9006": 1, "3": 271, "9004": 22, "9003": 5, "505": 369, "503": 366, "501": 350}, "direccion": "AV LOS PLATANOS 1346"}}, {"geometry": {"type": "Point", "coordinates": [-62.40288999990912, -33.641119994407354]}, "type": "Feature", "properties": {"establecim": "ESC.PROV.SGTO.CABRAL", "overall_total": 2596, "fake_id": "4546-4555", "seccion": "9", "circuito": "00120", "votos": {"217": 25, "512": 1063, "47": 16, "191": 747, "9005": 46, "514": 24, "9006": 0, "3": 8, "9004": 31, "9003": 64, "505": 54, "503": 317, "501": 201}, "direccion": "INTENDENTE MELQUIOT 922"}}, {"geometry": {"type": "Point", "coordinates": [-62.40288999990912, -33.641119994407354]}, "type": "Feature", "properties": {"establecim": "ESC.R.ESCALADA DE SAN MARTIN", "overall_total": 2019, "fake_id": "4537-4545", "seccion": "9", "circuito": "00120", "votos": {"217": 18, "512": 764, "47": 9, "191": 638, "9005": 28, "514": 29, "9006": 0, "3": 11, "9004": 31, "9003": 0, "505": 25, "503": 333, "501": 133}, "direccion": "AV. ESPA? 779"}}, {"geometry": {"type": "Point", "coordinates": [-62.303919999889104, -33.12331999468671]}, "type": "Feature", "properties": {"establecim": "ESC JOSE MARIA PAZ", "overall_total": 1621, "fake_id": "4556-4561", "seccion": "9", "circuito": "00121", "votos": {"217": 19, "512": 707, "47": 19, "191": 431, "9005": 14, "514": 20, "9006": 0, "3": 11, "9004": 32, "9003": 0, "505": 26, "503": 184, "501": 158}, "direccion": "BALDISSERA"}}, {"geometry": {"type": "Point", "coordinates": [-62.608901352899935, -33.25744597559997]}, "type": "Feature", "properties": {"establecim": "ESC PROV DOMINGO F SARMIENTO", "overall_total": 139, "fake_id": "4562-4562", "seccion": "9", "circuito": "00122", "votos": {"217": 0, "512": 83, "47": 0, "191": 19, "9005": 0, "514": 3, "9006": 0, "3": 0, "9004": 3, "9003": 0, "505": 2, "503": 0, "501": 29}, "direccion": "PUBLICA S/N"}}, {"geometry": {"type": "Point", "coordinates": [-62.093539999855494, -33.12810999468461]}, "type": "Feature", "properties": {"establecim": "ESC JUAN BAUTISTA ALBERDI", "overall_total": 1323, "fake_id": "4570-4574", "seccion": "9", "circuito": "00123", "votos": {"217": 17, "512": 611, "47": 5, "191": 415, "9005": 0, "514": 13, "9006": 0, "3": 7, "9004": 36, "9003": 0, "505": 17, "503": 110, "501": 92}, "direccion": "CAMILO ALDAO"}}, {"geometry": {"type": "Point", "coordinates": [-62.093539999855494, -33.12810999468461]}, "type": "Feature", "properties": {"establecim": "IPEM N\u00b0151 J URBIZU", "overall_total": 1850, "fake_id": "4563-4569", "seccion": "9", "circuito": "00123", "votos": {"217": 22, "512": 792, "47": 9, "191": 633, "9005": 0, "514": 19, "9006": 0, "3": 6, "9004": 32, "9003": 0, "505": 16, "503": 173, "501": 148}, "direccion": "BV JOSE M ALDAO 1160"}}, {"geometry": {"type": "Point", "coordinates": [-62.3389569999435, -33.47301419449749]}, "type": "Feature", "properties": {"establecim": "ESC.SEC.TOMAS THOMAS", "overall_total": 889, "fake_id": "4575-4578", "seccion": "9", "circuito": "00124", "votos": {"217": 3, "512": 264, "47": 5, "191": 144, "9005": 8, "514": 9, "9006": 0, "3": 4, "9004": 7, "9003": 0, "505": 11, "503": 46, "501": 388}, "direccion": "CORDOBA 138"}}, {"geometry": {"type": "Point", "coordinates": [-62.19110653337109, -33.28270159469849]}, "type": "Feature", "properties": {"establecim": "COLEGIO JUAN XXIII", "overall_total": 1618, "fake_id": "4586-4591", "seccion": "9", "circuito": "00125", "votos": {"217": 32, "512": 536, "47": 11, "191": 388, "9005": 12, "514": 26, "9006": 0, "3": 33, "9004": 42, "9003": 0, "505": 43, "503": 220, "501": 275}, "direccion": "CORRAL DE BUSTOS"}}, {"geometry": {"type": "Point", "coordinates": [-62.184620246709834, -33.27722910371567]}, "type": "Feature", "properties": {"establecim": "ESC HIPOLITO IRIGOYEN", "overall_total": 1347, "fake_id": "4600-4604", "seccion": "9", "circuito": "00125", "votos": {"217": 22, "512": 434, "47": 6, "191": 315, "9005": 0, "514": 25, "9006": 0, "3": 26, "9004": 58, "9003": 0, "505": 29, "503": 159, "501": 273}, "direccion": "CORRAL DE BUSTOS"}}, {"geometry": {"type": "Point", "coordinates": [-62.18784254962177, -33.289537201002055]}, "type": "Feature", "properties": {"establecim": "ESC NOR SUP MAESTROS ARGENTINO", "overall_total": 2148, "fake_id": "4592-4599", "seccion": "9", "circuito": "00125", "votos": {"217": 46, "512": 677, "47": 10, "191": 519, "9005": 5, "514": 27, "9006": 0, "3": 39, "9004": 57, "9003": 0, "505": 44, "503": 294, "501": 430}, "direccion": "CORRAL DE BUSTOS"}}, {"geometry": {"type": "Point", "coordinates": [-62.183419117571546, -33.28554788315895]}, "type": "Feature", "properties": {"establecim": "ESC R ESCALADA DE SAN MARTIN", "overall_total": 1914, "fake_id": "4579-4585", "seccion": "9", "circuito": "00125", "votos": {"217": 34, "512": 640, "47": 9, "191": 444, "9005": 8, "514": 37, "9006": 2, "3": 40, "9004": 62, "9003": 14, "505": 46, "503": 273, "501": 305}, "direccion": "CORRAL DE BUSTOS"}}, {"geometry": {"type": "Point", "coordinates": [-61.80618999980508, -33.00789999475131]}, "type": "Feature", "properties": {"establecim": "COLEGIO SANTA JUANA DE ARCO", "overall_total": 1540, "fake_id": "4605-4611", "seccion": "9", "circuito": "00126", "votos": {"217": 39, "512": 730, "47": 3, "191": 422, "9005": 0, "514": 42, "9006": 0, "3": 10, "9004": 37, "9003": 0, "505": 26, "503": 147, "501": 84}, "direccion": "CRUZ ALTA"}}, {"geometry": {"type": "Point", "coordinates": [-61.80618999980508, -33.00789999475131]}, "type": "Feature", "properties": {"establecim": "ESC LIB GRAL SAN MARTIN", "overall_total": 1282, "fake_id": "4619-4623", "seccion": "9", "circuito": "00126", "votos": {"217": 26, "512": 626, "47": 8, "191": 323, "9005": 3, "514": 21, "9006": 0, "3": 6, "9004": 38, "9003": 0, "505": 30, "503": 114, "501": 87}, "direccion": "RIVADAVIA 1252 B\u00b0RIVADAVIA"}}, {"geometry": {"type": "Point", "coordinates": [-62.599424599965644, -33.396084594538685]}, "type": "Feature", "properties": {"establecim": "ESC DALMACIO VELEZ SARSFIELD", "overall_total": 1684, "fake_id": "4624-4630", "seccion": "9", "circuito": "00127", "votos": {"217": 19, "512": 550, "47": 4, "191": 631, "9005": 0, "514": 18, "9006": 0, "3": 8, "9004": 28, "9003": 0, "505": 21, "503": 212, "501": 193}, "direccion": "AV CORDOBA 324"}}, {"geometry": {"type": "Point", "coordinates": [-62.22781999987489, -32.944269994784776]}, "type": "Feature", "properties": {"establecim": "ESC MARIANO MORENO", "overall_total": 1370, "fake_id": "4636-4640", "seccion": "9", "circuito": "00128", "votos": {"217": 28, "512": 637, "47": 8, "191": 302, "9005": 6, "514": 10, "9006": 0, "3": 10, "9004": 33, "9003": 0, "505": 30, "503": 111, "501": 195}, "direccion": "INRIVILLE"}}, {"geometry": {"type": "Point", "coordinates": [-62.22781999987489, -32.944269994784776]}, "type": "Feature", "properties": {"establecim": "INST JOSE MARIA PAZ", "overall_total": 1372, "fake_id": "4631-4635", "seccion": "9", "circuito": "00128", "votos": {"217": 32, "512": 647, "47": 9, "191": 273, "9005": 0, "514": 19, "9006": 0, "3": 5, "9004": 37, "9003": 0, "505": 33, "503": 101, "501": 216}, "direccion": "INRIVILLE"}}, {"geometry": {"type": "Point", "coordinates": [-62.380307143781096, -33.31810934893243]}, "type": "Feature", "properties": {"establecim": "INST SEC ISLA VERDE", "overall_total": 3063, "fake_id": "4642-4653", "seccion": "9", "circuito": "00129", "votos": {"217": 24, "512": 1447, "47": 16, "191": 765, "9005": 5, "514": 64, "9006": 0, "3": 20, "9004": 72, "9003": 0, "505": 71, "503": 261, "501": 318}, "direccion": "LIBERTAD 446"}}, {"geometry": {"type": "Point", "coordinates": [-62.17531069999995, -33.31144939999995]}, "type": "Feature", "properties": {"establecim": "ESC.PROV.GRAL SAN MARTIN", "overall_total": 546, "fake_id": "4654-4655", "seccion": "9", "circuito": "00130", "votos": {"217": 3, "512": 315, "47": 1, "191": 69, "9005": 6, "514": 6, "9006": 0, "3": 4, "9004": 4, "9003": 0, "505": 3, "503": 53, "501": 82}, "direccion": "ISLAS MALVINAS 0"}}, {"geometry": {"type": "Point", "coordinates": [-62.30049999988356, -32.6585699949426]}, "type": "Feature", "properties": {"establecim": "ESC DE COMERCIO Y BACHILLERATO", "overall_total": 2741, "fake_id": "4672-4682", "seccion": "9", "circuito": "00131", "votos": {"217": 27, "512": 894, "47": 17, "191": 387, "9005": 26, "514": 27, "9006": 1, "3": 11, "9004": 13, "9003": 1, "505": 36, "503": 141, "501": 1160}, "direccion": "LEONES"}}, {"geometry": {"type": "Point", "coordinates": [-62.30049999988356, -32.6585699949426]}, "type": "Feature", "properties": {"establecim": "ESC JOAQUIN V GONZALEZ", "overall_total": 2499, "fake_id": "4656-4664", "seccion": "9", "circuito": "00131", "votos": {"217": 31, "512": 783, "47": 115, "191": 335, "9005": 19, "514": 22, "9006": 1, "3": 12, "9004": 17, "9003": 0, "505": 36, "503": 134, "501": 994}, "direccion": "RAMON INFANTE 422"}}, {"geometry": {"type": "Point", "coordinates": [-62.30049999988356, -32.6585699949426]}, "type": "Feature", "properties": {"establecim": "IPEM N\u00b0256-LIB GRAL SAN MARTIN", "overall_total": 1938, "fake_id": "4665-4671", "seccion": "9", "circuito": "00131", "votos": {"217": 24, "512": 626, "47": 9, "191": 281, "9005": 11, "514": 21, "9006": 1, "3": 10, "9004": 13, "9003": 0, "505": 35, "503": 102, "501": 805}, "direccion": "LEONES"}}, {"geometry": {"type": "Point", "coordinates": [-62.023899999841426, -32.98462999476322]}, "type": "Feature", "properties": {"establecim": "ESC GENERAL SAN MARTIN", "overall_total": 2046, "fake_id": "4684-4691", "seccion": "9", "circuito": "00132", "votos": {"217": 30, "512": 1079, "47": 8, "191": 609, "9005": 8, "514": 27, "9006": 1, "3": 7, "9004": 25, "9003": 0, "505": 33, "503": 99, "501": 120}, "direccion": "LOS SURGENTES"}}, {"geometry": {"type": "Point", "coordinates": [-62.099789087654514, -32.699289733876896]}, "type": "Feature", "properties": {"establecim": "COLEGIO SAGRADO CORAZON", "overall_total": 3210, "fake_id": "4692-4704", "seccion": "9", "circuito": "00133", "votos": {"217": 46, "512": 1211, "47": 26, "191": 455, "9005": 17, "514": 37, "9006": 0, "3": 19, "9004": 42, "9003": 0, "505": 55, "503": 880, "501": 422}, "direccion": "LARDIZABAL 545"}}, {"geometry": {"type": "Point", "coordinates": [-62.1011931720468, -32.69725290817774]}, "type": "Feature", "properties": {"establecim": "ESC BERNARDINO RIVADAVIA", "overall_total": 2915, "fake_id": "4722-4732", "seccion": "9", "circuito": "00133", "votos": {"217": 38, "512": 1002, "47": 21, "191": 425, "9005": 49, "514": 33, "9006": 0, "3": 19, "9004": 30, "9003": 0, "505": 50, "503": 872, "501": 376}, "direccion": "SAN MARTIN 694"}}, {"geometry": {"type": "Point", "coordinates": [-62.10836695727947, -32.703114019754416]}, "type": "Feature", "properties": {"establecim": "ESC MARIANO MORENO", "overall_total": 2108, "fake_id": "4745-4752", "seccion": "9", "circuito": "00133", "votos": {"217": 30, "512": 755, "47": 12, "191": 271, "9005": 12, "514": 28, "9006": 1, "3": 9, "9004": 39, "9003": 1, "505": 41, "503": 641, "501": 268}, "direccion": "SAN JUAN 1090 SUR"}}, {"geometry": {"type": "Point", "coordinates": [-62.10881118158329, -32.691679482487494]}, "type": "Feature", "properties": {"establecim": "ESC NORMAL SUP DR M BELGRANO", "overall_total": 4203, "fake_id": "4705-4721", "seccion": "9", "circuito": "00133", "votos": {"217": 62, "512": 1439, "47": 33, "191": 625, "9005": 42, "514": 83, "9006": 0, "3": 26, "9004": 42, "9003": 0, "505": 76, "503": 1205, "501": 570}, "direccion": "R SAENZ PE\u00d1A Y S DEL ESTERO"}}, {"geometry": {"type": "Point", "coordinates": [-62.11063128381531, -32.69337848204046]}, "type": "Feature", "properties": {"establecim": "ESCUELA BARTOLOME MITRE", "overall_total": 1360, "fake_id": "4753-4757", "seccion": "9", "circuito": "00133", "votos": {"217": 15, "512": 503, "47": 18, "191": 185, "9005": 20, "514": 23, "9006": 0, "3": 11, "9004": 12, "9003": 0, "505": 31, "503": 350, "501": 192}, "direccion": "HIPOLITO YRIGOYEN 1409  NOROESTE"}}, {"geometry": {"type": "Point", "coordinates": [-62.10279817821192, -32.68698123328811]}, "type": "Feature", "properties": {"establecim": "IPEM N\u00b051 NICOLAS AVELLANEDA", "overall_total": 3097, "fake_id": "4733-4744", "seccion": "9", "circuito": "00133", "votos": {"217": 49, "512": 1115, "47": 25, "191": 414, "9005": 37, "514": 46, "9006": 0, "3": 22, "9004": 52, "9003": 0, "505": 75, "503": 846, "501": 416}, "direccion": "MARCOS JUAREZ"}}, {"geometry": {"type": "Point", "coordinates": [-62.45617999991054, -32.91550999480029]}, "type": "Feature", "properties": {"establecim": "ESC JOSE MANUEL ESTRADA", "overall_total": 2211, "fake_id": "4758-4765", "seccion": "9", "circuito": "00134", "votos": {"217": 36, "512": 1063, "47": 19, "191": 500, "9005": 24, "514": 15, "9006": 0, "3": 13, "9004": 29, "9003": 0, "505": 34, "503": 133, "501": 345}, "direccion": "MONTE BUEY"}}, {"geometry": {"type": "Point", "coordinates": [-62.45617999991054, -32.91550999480029]}, "type": "Feature", "properties": {"establecim": "ESC MANUEL BELGRANO", "overall_total": 1690, "fake_id": "4766-4771", "seccion": "9", "circuito": "00134", "votos": {"217": 23, "512": 753, "47": 9, "191": 417, "9005": 5, "514": 18, "9006": 0, "3": 5, "9004": 24, "9003": 0, "505": 32, "503": 110, "501": 294}, "direccion": "MONTE BUEY"}}, {"geometry": {"type": "Point", "coordinates": [-62.267972, -33.24807]}, "type": "Feature", "properties": {"establecim": "ESC.PROV.GRAL SAN MARTIN", "overall_total": 280, "fake_id": "4773-4773", "seccion": "9", "circuito": "00135", "votos": {"217": 2, "512": 191, "47": 2, "191": 25, "9005": 0, "514": 0, "9006": 0, "3": 4, "9004": 8, "9003": 0, "505": 8, "503": 11, "501": 29}, "direccion": "AV ITALIA 448"}}, {"geometry": {"type": "Point", "coordinates": [-61.91638999981731, -32.73078999490326]}, "type": "Feature", "properties": {"establecim": "ESC 9 DE JULIO", "overall_total": 740, "fake_id": "4779-4781", "seccion": "9", "circuito": "00136", "votos": {"217": 12, "512": 285, "47": 3, "191": 248, "9005": 13, "514": 11, "9006": 0, "3": 6, "9004": 7, "9003": 0, "505": 11, "503": 82, "501": 62}, "direccion": "ALSINA 517 SUR"}}, {"geometry": {"type": "Point", "coordinates": [-61.91638999981731, -32.73078999490326]}, "type": "Feature", "properties": {"establecim": "ESC ROQUE SAENZ PE\u00d1A", "overall_total": 1226, "fake_id": "4774-4778", "seccion": "9", "circuito": "00136", "votos": {"217": 7, "512": 512, "47": 7, "191": 410, "9005": 13, "514": 19, "9006": 0, "3": 7, "9004": 18, "9003": 0, "505": 13, "503": 136, "501": 84}, "direccion": "ROCA"}}, {"geometry": {"type": "Point", "coordinates": [-62.10206692052254, -32.40890318088168]}, "type": "Feature", "properties": {"establecim": "INSTITUTO MANUEL BELGRANO", "overall_total": 414, "fake_id": "4782-4784", "seccion": "9", "circuito": "00137", "votos": {"217": 3, "512": 196, "47": 4, "191": 103, "9005": 0, "514": 5, "9006": 0, "3": 4, "9004": 13, "9003": 0, "505": 4, "503": 58, "501": 24}, "direccion": "SAIRA"}}, {"geometry": {"type": "Point", "coordinates": [-65.28251172079999, -31.04115450779996]}, "type": "Feature", "properties": {"establecim": "ESC PROV COMTE ROSENDO LEAL", "overall_total": 577, "fake_id": "4785-4787", "seccion": "10", "circuito": "00138", "votos": {"217": 6, "512": 343, "47": 4, "191": 131, "9005": 7, "514": 10, "9006": 1, "3": 4, "9004": 6, "9003": 0, "505": 12, "503": 11, "501": 42}, "direccion": "CESAR MANUEL VERA S/N"}}, {"geometry": {"type": "Point", "coordinates": [-65.34106074554008, -31.089135662527053]}, "type": "Feature", "properties": {"establecim": "ESC PROV JERONIMO CORTES", "overall_total": 156, "fake_id": "4792-4792", "seccion": "10", "circuito": "00139", "votos": {"217": 1, "512": 108, "47": 0, "191": 23, "9005": 1, "514": 3, "9006": 0, "3": 0, "9004": 1, "9003": 0, "505": 0, "503": 8, "501": 11}, "direccion": "PUBLICA S/N"}}, {"geometry": {"type": "Point", "coordinates": [-64.16019117468787, -31.388821080087048]}, "type": "Feature", "properties": {"establecim": "ESC VICENTE F LOPEZ", "overall_total": 3615, "fake_id": "2682-2695", "seccion": "1", "circuito": "0013J", "votos": {"217": 122, "512": 665, "47": 95, "191": 658, "9005": 92, "514": 169, "9006": 2, "3": 367, "9004": 29, "9003": 0, "505": 365, "503": 569, "501": 482}, "direccion": "TISSERA 1551 B\u00b0 L N ALEM"}}, {"geometry": {"type": "Point", "coordinates": [-64.13330886549669, -31.385196238581408]}, "type": "Feature", "properties": {"establecim": "ESC DR ANTONIO NORES", "overall_total": 2403, "fake_id": "2723-2731", "seccion": "1", "circuito": "0013N", "votos": {"217": 74, "512": 349, "47": 64, "191": 525, "9005": 53, "514": 142, "9006": 0, "3": 185, "9004": 14, "9003": 0, "505": 346, "503": 387, "501": 264}, "direccion": "ALSINA 2032 B\u00b0YOFRE N"}}, {"geometry": {"type": "Point", "coordinates": [-65.30273585179992, -31.222911548799996]}, "type": "Feature", "properties": {"establecim": "ESC PROV GREGORIA PEREZ", "overall_total": 164, "fake_id": "4795-4795", "seccion": "10", "circuito": "00140", "votos": {"217": 0, "512": 101, "47": 0, "191": 35, "9005": 4, "514": 1, "9006": 0, "3": 0, "9004": 3, "9003": 0, "505": 2, "503": 1, "501": 17}, "direccion": "PUBLICA S/N"}}, {"geometry": {"type": "Point", "coordinates": [-65.43002651800002, -30.806119862300008]}, "type": "Feature", "properties": {"establecim": "ESC PRIMARIA JORGE LUIS BORGES", "overall_total": 56, "fake_id": "4797-4797", "seccion": "10", "circuito": "00141", "votos": {"217": 0, "512": 42, "47": 0, "191": 8, "9005": 0, "514": 1, "9006": 0, "3": 0, "9004": 0, "9003": 0, "505": 0, "503": 0, "501": 5}, "direccion": "PIEDRITA BLANCA"}}, {"geometry": {"type": "Point", "coordinates": [-65.10396393786681, -31.17493269056101]}, "type": "Feature", "properties": {"establecim": "ESC.SEC.J.L.DE CABRERA", "overall_total": 1494, "fake_id": "4799-4804", "seccion": "10", "circuito": "00142", "votos": {"217": 11, "512": 874, "47": 6, "191": 315, "9005": 20, "514": 18, "9006": 0, "3": 18, "9004": 17, "9003": 0, "505": 24, "503": 66, "501": 125}, "direccion": "RIVADAVIA E IRIGOYEN 0"}}, {"geometry": {"type": "Point", "coordinates": [-65.44692488329997, -31.413954378]}, "type": "Feature", "properties": {"establecim": "ESC PROV MARIANO MORENO", "overall_total": 610, "fake_id": "4806-4808", "seccion": "11", "circuito": "00144", "votos": {"217": 1, "512": 371, "47": 3, "191": 58, "9005": 7, "514": 8, "9006": 0, "3": 4, "9004": 13, "9003": 0, "505": 4, "503": 12, "501": 129}, "direccion": "PUBLICA S/N"}}, {"geometry": {"type": "Point", "coordinates": [-65.09016968558369, -31.31837172465572]}, "type": "Feature", "properties": {"establecim": "ESC GENERAL JOSE DE SAN MARTIN", "overall_total": 1387, "fake_id": "4814-4819", "seccion": "11", "circuito": "00146", "votos": {"217": 6, "512": 637, "47": 19, "191": 411, "9005": 29, "514": 17, "9006": 0, "3": 23, "9004": 12, "9003": 0, "505": 35, "503": 91, "501": 107}, "direccion": "AV CURA BROCHERO 150"}}, {"geometry": {"type": "Point", "coordinates": [-64.2349468798198, -31.372775495154816]}, "type": "Feature", "properties": {"establecim": "ESC JUAN ZORRILA DE SAN MARTIN", "overall_total": 2833, "fake_id": "2856-2867", "seccion": "1", "circuito": "0014D", "votos": {"217": 240, "512": 219, "47": 134, "191": 783, "9005": 17, "514": 91, "9006": 0, "3": 79, "9004": 25, "9003": 0, "505": 212, "503": 758, "501": 275}, "direccion": "JOSE E BUSTOS 1875 C DE LAS  ROSAS"}}, {"geometry": {"type": "Point", "coordinates": [-64.57231734721722, -32.1868979461095]}, "type": "Feature", "properties": {"establecim": "ESC.PROV.R.SAENZ PE\u00d1A", "overall_total": 336, "fake_id": "3086-3087", "seccion": "2", "circuito": "0015A", "votos": {"217": 6, "512": 208, "47": 4, "191": 34, "9005": 7, "514": 2, "9006": 0, "3": 2, "9004": 2, "9003": 0, "505": 5, "503": 16, "501": 50}, "direccion": "CALLE 6 0"}}, {"geometry": {"type": "Point", "coordinates": [-64.73785855399998, -31.916138677]}, "type": "Feature", "properties": {"establecim": "ESC. JOAQUIN V. GONZALEZ", "overall_total": 82, "fake_id": "3091-3091", "seccion": "2", "circuito": "0016C", "votos": {"217": 2, "512": 36, "47": 1, "191": 13, "9005": 3, "514": 4, "9006": 0, "3": 2, "9004": 3, "9003": 0, "505": 4, "503": 7, "501": 7}, "direccion": "PUBLICA 0"}}, {"geometry": {"type": "Point", "coordinates": [-64.52314, -32.2405168]}, "type": "Feature", "properties": {"establecim": "ESC.PROV.PADRE FELIX ENRIQUE", "overall_total": 68, "fake_id": "3120-3120", "seccion": "2", "circuito": "0018D", "votos": {"217": 2, "512": 31, "47": 0, "191": 13, "9005": 0, "514": 3, "9006": 0, "3": 1, "9004": 0, "9003": 0, "505": 4, "503": 8, "501": 6}, "direccion": "VILLA QUILLINZO"}}, {"geometry": {"type": "Point", "coordinates": [-64.55461649690263, -31.981051964383283]}, "type": "Feature", "properties": {"establecim": "COLEGIO ARGENTINO GERMANO", "overall_total": 1266, "fake_id": "3147-3151", "seccion": "2", "circuito": "0020A", "votos": {"217": 69, "512": 351, "47": 9, "191": 270, "9005": 30, "514": 27, "9006": 0, "3": 14, "9004": 16, "9003": 0, "505": 54, "503": 234, "501": 192}, "direccion": "VILLA GRAL.BELGRANO"}}, {"geometry": {"type": "Point", "coordinates": [-64.56208067689688, -31.985605778088342]}, "type": "Feature", "properties": {"establecim": "ESC. DE COM. D. DE ROJAS", "overall_total": 1780, "fake_id": "3140-3146", "seccion": "2", "circuito": "0020A", "votos": {"217": 73, "512": 532, "47": 18, "191": 351, "9005": 39, "514": 41, "9006": 0, "3": 21, "9004": 24, "9003": 0, "505": 88, "503": 320, "501": 273}, "direccion": "VILLA GRAL.BELGRANO"}}, {"geometry": {"type": "Point", "coordinates": [-64.56287382385902, -31.985568949664312]}, "type": "Feature", "properties": {"establecim": "ESC.GRAL J. DE SAN MARTIN", "overall_total": 2033, "fake_id": "3132-3139", "seccion": "2", "circuito": "0020A", "votos": {"217": 117, "512": 566, "47": 21, "191": 417, "9005": 37, "514": 52, "9006": 1, "3": 28, "9004": 15, "9003": 0, "505": 101, "503": 370, "501": 308}, "direccion": "VILLA GRAL.BELGRANO"}}, {"geometry": {"type": "Point", "coordinates": [-63.39152849349996, -30.181420243000016]}, "type": "Feature", "properties": {"establecim": "ESC PROV PRIMERA JUNTA", "overall_total": 18, "fake_id": "5988-5988", "seccion": "15", "circuito": "00224", "votos": {"217": 0, "512": 12, "47": 0, "191": 4, "9005": 0, "514": 0, "9006": 0, "3": 0, "9004": 0, "9003": 0, "505": 0, "503": 0, "501": 2}, "direccion": "ENCRUCIJADA"}}, {"geometry": {"type": "Point", "coordinates": [-63.5161985, -29.7218491]}, "type": "Feature", "properties": {"establecim": "ESC GRAL SAN MARTIN", "overall_total": 584, "fake_id": "5989-5991", "seccion": "15", "circuito": "00225", "votos": {"217": 1, "512": 417, "47": 2, "191": 67, "9005": 2, "514": 8, "9006": 0, "3": 8, "9004": 13, "9003": 0, "505": 2, "503": 14, "501": 50}, "direccion": "PUBLICA S/N"}}, {"geometry": {"type": "Point", "coordinates": [-63.62746769999996, -29.802707599999977]}, "type": "Feature", "properties": {"establecim": "ESC PRO MARTIN GUEMES", "overall_total": 299, "fake_id": "5993-5994", "seccion": "15", "circuito": "00226", "votos": {"217": 3, "512": 164, "47": 2, "191": 55, "9005": 0, "514": 8, "9006": 0, "3": 8, "9004": 11, "9003": 0, "505": 5, "503": 15, "501": 28}, "direccion": "PUBLICA S/N"}}, {"geometry": {"type": "Point", "coordinates": [-63.82536760512387, -30.075879657618604]}, "type": "Feature", "properties": {"establecim": "ESC.PROV.CNEL.F.DE BEDOYA", "overall_total": 482, "fake_id": "5997-5998", "seccion": "15", "circuito": "00227", "votos": {"217": 1, "512": 282, "47": 5, "191": 93, "9005": 0, "514": 9, "9006": 0, "3": 15, "9004": 24, "9003": 0, "505": 5, "503": 8, "501": 40}, "direccion": "RAYO CORTADO"}}, {"geometry": {"type": "Point", "coordinates": [-63.592564718609, -30.159823881897676]}, "type": "Feature", "properties": {"establecim": "ESC.PROV. CNEL. A.H.CARPANI", "overall_total": 1570, "fake_id": "6004-6011", "seccion": "15", "circuito": "00228", "votos": {"217": 9, "512": 702, "47": 3, "191": 529, "9005": 25, "514": 27, "9006": 0, "3": 16, "9004": 61, "9003": 0, "505": 20, "503": 53, "501": 125}, "direccion": "MAESTRO PI\u00d1A 279"}}, {"geometry": {"type": "Point", "coordinates": [-63.72276000005944, -29.90621999656162]}, "type": "Feature", "properties": {"establecim": "ESC JOSE DE SAN MARTIN", "overall_total": 1876, "fake_id": "6012-6018", "seccion": "15", "circuito": "00229", "votos": {"217": 22, "512": 972, "47": 7, "191": 407, "9005": 24, "514": 39, "9006": 0, "3": 45, "9004": 44, "9003": 0, "505": 43, "503": 140, "501": 133}, "direccion": "RIVADAVIA 768 CENTRO"}}, {"geometry": {"type": "Point", "coordinates": [-63.72276000005944, -29.90621999656162]}, "type": "Feature", "properties": {"establecim": "IPEM 224-LEOPOLDO LUGONES", "overall_total": 1551, "fake_id": "6019-6024", "seccion": "15", "circuito": "00229", "votos": {"217": 19, "512": 785, "47": 9, "191": 357, "9005": 13, "514": 24, "9006": 0, "3": 41, "9004": 31, "9003": 0, "505": 37, "503": 84, "501": 151}, "direccion": "RECONQUISTA"}}, {"geometry": {"type": "Point", "coordinates": [-63.38750041935818, -34.128325954999454]}, "type": "Feature", "properties": {"establecim": "COLEGIO SAN JOSE", "overall_total": 2186, "fake_id": "6305-6312", "seccion": "17", "circuito": "00248", "votos": {"217": 27, "512": 680, "47": 12, "191": 615, "9005": 16, "514": 45, "9006": 2, "3": 13, "9004": 46, "9003": 0, "505": 84, "503": 381, "501": 265}, "direccion": "RIVADAVIA(B\u00b0CENTRO) 245"}}, {"geometry": {"type": "Point", "coordinates": [-63.39792843938063, -34.12566753679822]}, "type": "Feature", "properties": {"establecim": "ESC GRAL CONRADO VILLEGAS", "overall_total": 2671, "fake_id": "6289-6298", "seccion": "17", "circuito": "00248", "votos": {"217": 32, "512": 955, "47": 10, "191": 702, "9005": 38, "514": 30, "9006": 0, "3": 23, "9004": 44, "9003": 7, "505": 64, "503": 449, "501": 317},