{"type": "FeatureCollection", "features": [{"geometry": {"type": "Point", "coordinates": [-64.18965445684096, -31.414637452814794]}, "type": "Feature", "properties": {"establecim": "CENTRO EDUC.NIVEL MEDIO ADULTO", "overall_total": 1658, "fake_id": "1-7", "seccion": "1", "circuito": "00001", "votos": {"217": 95, "512": 156, "47": 67, "191": 389, "9005": 26, "514": 68, "9006": 0, "3": 91, "9004": 17, "9003": 3, "505": 225, "503": 315, "501": 206}, "direccion": "DEAN FUNES 417"}}, {"geometry": {"type": "Point", "coordinates": [-64.18654762070709, -31.41924332268387]}, "type": "Feature", "properties": {"establecim": "COL NAC DE MONSERRAT", "overall_total": 4031, "fake_id": "20-36", "seccion": "1", "circuito": "00001", "votos": {"217": 231, "512": 490, "47": 150, "191": 991, "9005": 46, "514": 183, "9006": 4, "3": 205, "9004": 31, "9003": 1, "505": 465, "503": 708, "501": 526}, "direccion": "OBISPO TREJO 294"}}, {"geometry": {"type": "Point", "coordinates": [-64.18878752908263, -31.417706629701698]}, "type": "Feature", "properties": {"establecim": "ESC NUESTRA SE\u00d1ORA DEL HUERTO", "overall_total": 2821, "fake_id": "8-19", "seccion": "1", "circuito": "00001", "votos": {"217": 176, "512": 325, "47": 108, "191": 677, "9005": 34, "514": 101, "9006": 1, "3": 130, "9004": 23, "9003": 0, "505": 338, "503": 522, "501": 386}, "direccion": "BELGRANO 269"}}, {"geometry": {"type": "Point", "coordinates": [-64.18605993516664, -31.41749050655053]}, "type": "Feature", "properties": {"establecim": "ESC SANTA TERESA DE JESUS", "overall_total": 2336, "fake_id": "37-46", "seccion": "1", "circuito": "00001", "votos": {"217": 166, "512": 233, "47": 88, "191": 612, "9005": 22, "514": 110, "9006": 1, "3": 109, "9004": 17, "9003": 0, "505": 292, "503": 389, "501": 297}, "direccion": "OBISPO TREJO Y SANABRIA 160"}}, {"geometry": {"type": "Point", "coordinates": [-64.18425888268992, -31.40965228497393]}, "type": "Feature", "properties": {"establecim": "ESC JUAN BAUTISTA ALBERDI", "overall_total": 3744, "fake_id": "47-63", "seccion": "1", "circuito": "00002", "votos": {"217": 182, "512": 476, "47": 121, "191": 879, "9005": 56, "514": 177, "9006": 1, "3": 213, "9004": 34, "9003": 0, "505": 495, "503": 581, "501": 529}, "direccion": "GRAL PAZ 486"}}, {"geometry": {"type": "Point", "coordinates": [-64.1915263841937, -31.40994151153461]}, "type": "Feature", "properties": {"establecim": "ESC JERONIMO LUIS DE CABRERA", "overall_total": 3510, "fake_id": "64-78", "seccion": "1", "circuito": "00003", "votos": {"217": 171, "512": 326, "47": 155, "191": 800, "9005": 36, "514": 183, "9006": 7, "3": 191, "9004": 24, "9003": 0, "505": 507, "503": 586, "501": 524}, "direccion": "SANTA ROSA 650"}}, {"geometry": {"type": "Point", "coordinates": [-64.20015002427739, -31.40785429028379]}, "type": "Feature", "properties": {"establecim": "ESC MARIANO MORENO", "overall_total": 3526, "fake_id": "108-121", "seccion": "1", "circuito": "00003", "votos": {"217": 168, "512": 368, "47": 135, "191": 841, "9005": 48, "514": 180, "9006": 0, "3": 205, "9004": 23, "9003": 0, "505": 524, "503": 519, "501": 515}, "direccion": "SANTA ROSA ESQ SANTA FE"}}, {"geometry": {"type": "Point", "coordinates": [-64.19592911444836, -31.410174141520788]}, "type": "Feature", "properties": {"establecim": "ESC NORMAL ALEJANDRO CARBO", "overall_total": 2525, "fake_id": "98-107", "seccion": "1", "circuito": "00003", "votos": {"217": 114, "512": 296, "47": 106, "191": 581, "9005": 26, "514": 137, "9006": 2, "3": 124, "9004": 13, "9003": 0, "505": 352, "503": 429, "501": 345}, "direccion": "AV COLON 951"}}, {"geometry": {"type": "Point", "coordinates": [-64.195136178957, -31.415652251109837]}, "type": "Feature", "properties": {"establecim": "ESC SANTO TOMAS", "overall_total": 1974, "fake_id": "90-97", "seccion": "1", "circuito": "00003", "votos": {"217": 124, "512": 195, "47": 74, "191": 439, "9005": 26, "514": 88, "9006": 0, "3": 89, "9004": 7, "9003": 0, "505": 294, "503": 351, "501": 287}, "direccion": "CASEROS 745"}}, {"geometry": {"type": "Point", "coordinates": [-64.1953629962598, -31.412716804807275]}, "type": "Feature", "properties": {"establecim": "IPEM N\u00b0 270 GRAL M BELGRANO", "overall_total": 2767, "fake_id": "79-89", "seccion": "1", "circuito": "00003", "votos": {"217": 144, "512": 254, "47": 130, "191": 618, "9005": 40, "514": 142, "9006": 1, "3": 131, "9004": 15, "9003": 0, "505": 423, "503": 451, "501": 418}, "direccion": "DEAN FUNES 850"}}, {"geometry": {"type": "Point", "coordinates": [-64.18957594273405, -31.43137799556613]}, "type": "Feature", "properties": {"establecim": "COL NACIONAL DEAN FUNES", "overall_total": 3905, "fake_id": "132-147", "seccion": "1", "circuito": "00004", "votos": {"217": 232, "512": 414, "47": 187, "191": 990, "9005": 40, "514": 157, "9006": 4, "3": 149, "9004": 34, "9003": 1, "505": 415, "503": 776, "501": 506}, "direccion": "PERU 10"}}, {"geometry": {"type": "Point", "coordinates": [-64.18318007228939, -31.42288014218106]}, "type": "Feature", "properties": {"establecim": "ENET N\u00b0 3 LEOPOLDO LUGONES", "overall_total": 2482, "fake_id": "122-131", "seccion": "1", "circuito": "00004", "votos": {"217": 173, "512": 243, "47": 116, "191": 618, "9005": 19, "514": 84, "9006": 1, "3": 94, "9004": 19, "9003": 0, "505": 292, "503": 497, "501": 326}, "direccion": "ITUZAINGO 483"}}, {"geometry": {"type": "Point", "coordinates": [-64.1870740199476, -31.43491156600912]}, "type": "Feature", "properties": {"establecim": "FAC DE CIENCIAS ECONOMICAS", "overall_total": 3753, "fake_id": "157-172", "seccion": "1", "circuito": "00004", "votos": {"217": 225, "512": 377, "47": 167, "191": 935, "9005": 39, "514": 130, "9006": 0, "3": 141, "9004": 18, "9003": 0, "505": 421, "503": 756, "501": 544}, "direccion": "AV VALPARAISO CDAD  UNIVERSITARIA"}}, {"geometry": {"type": "Point", "coordinates": [-64.1795569361378, -31.434036221310095]}, "type": "Feature", "properties": {"establecim": "IPEM 38 FRANC. PABLO DE MAURO", "overall_total": 1720, "fake_id": "173-179", "seccion": "1", "circuito": "00004", "votos": {"217": 90, "512": 166, "47": 64, "191": 430, "9005": 12, "514": 73, "9006": 0, "3": 69, "9004": 13, "9003": 0, "505": 207, "503": 326, "501": 270}, "direccion": "PAUNERO Y ARENAL"}}, {"geometry": {"type": "Point", "coordinates": [-64.12212852490464, -31.42555804359468]}, "type": "Feature", "properties": {"establecim": "ESC ESPA\u00d1A", "overall_total": 3939, "fake_id": "303-317", "seccion": "1", "circuito": "00005", "votos": {"217": 144, "512": 551, "47": 128, "191": 711, "9005": 90, "514": 257, "9006": 2, "3": 354, "9004": 35, "9003": 1, "505": 511, "503": 623, "501": 532}, "direccion": "M BRAVO Y ENTRE RIOS"}}, {"geometry": {"type": "Point", "coordinates": [-64.13253261580496, -31.42376675462337]}, "type": "Feature", "properties": {"establecim": "ESC ESTANISLAO DEL CAMPO", "overall_total": 1352, "fake_id": "326-331", "seccion": "1", "circuito": "00005", "votos": {"217": 46, "512": 196, "47": 38, "191": 219, "9005": 27, "514": 84, "9006": 0, "3": 108, "9004": 19, "9003": 0, "505": 191, "503": 230, "501": 194}, "direccion": "ESTADOS UNIDOS Y RIO 1\u00b0  B\u00b0ALTAMIRA"}}, {"geometry": {"type": "Point", "coordinates": [-64.14139504484925, -31.42504666352551]}, "type": "Feature", "properties": {"establecim": "ESC M FRAGUEIRO", "overall_total": 2580, "fake_id": "332-342", "seccion": "1", "circuito": "00005", "votos": {"217": 96, "512": 362, "47": 96, "191": 492, "9005": 54, "514": 169, "9006": 7, "3": 200, "9004": 28, "9003": 0, "505": 333, "503": 412, "501": 331}, "direccion": "ENTRE RIOS 3373 B\u00b0PQUE SAN  VICENTE"}}, {"geometry": {"type": "Point", "coordinates": [-64.12537117308861, -31.421739258667873]}, "type": "Feature", "properties": {"establecim": "ESC PANAMERICANA", "overall_total": 2087, "fake_id": "318-325", "seccion": "1", "circuito": "00005", "votos": {"217": 66, "512": 292, "47": 58, "191": 409, "9005": 44, "514": 125, "9006": 0, "3": 158, "9004": 24, "9003": 0, "505": 269, "503": 374, "501": 268}, "direccion": "SOTO 919 - B\u00b0ACOST"}}, {"geometry": {"type": "Point", "coordinates": [-64.15753616999253, -31.410499244959233]}, "type": "Feature", "properties": {"establecim": "COL SAN RAMON NONATO", "overall_total": 1779, "fake_id": "544-550", "seccion": "1", "circuito": "00006", "votos": {"217": 60, "512": 312, "47": 55, "191": 357, "9005": 14, "514": 100, "9006": 0, "3": 129, "9004": 19, "9003": 0, "505": 264, "503": 282, "501": 187}, "direccion": "AVDA PATRIA 282 B\u00b0ALTO GRAL  PA"}}, {"geometry": {"type": "Point", "coordinates": [-64.15657835123535, -31.405139739482667]}, "type": "Feature", "properties": {"establecim": "ESC TENIENTE GRAL ARAMBURU", "overall_total": 2252, "fake_id": "535-543", "seccion": "1", "circuito": "00006", "votos": {"217": 85, "512": 444, "47": 64, "191": 468, "9005": 39, "514": 102, "9006": 0, "3": 149, "9004": 14, "9003": 0, "505": 309, "503": 333, "501": 245}, "direccion": "GARIBALDI 710 B\u00b0ALTO GRAL  PAZ"}}, {"geometry": {"type": "Point", "coordinates": [-64.20815409770461, -31.329341493790572]}, "type": "Feature", "properties": {"establecim": "ESC J FUNES DE BONET", "overall_total": 160, "fake_id": "636-636", "seccion": "1", "circuito": "00007", "votos": {"217": 6, "512": 48, "47": 2, "191": 29, "9005": 2, "514": 4, "9006": 0, "3": 15, "9004": 4, "9003": 0, "505": 11, "503": 21, "501": 18}, "direccion": "CNO PAJAS BLANCAS KM 8"}}, {"geometry": {"type": "Point", "coordinates": [-64.12283223837667, -31.3885796906014]}, "type": "Feature", "properties": {"establecim": "ESC RABINDRANAT TAGORE", "overall_total": 464, "fake_id": "853-854", "seccion": "1", "circuito": "00008", "votos": {"217": 10, "512": 96, "47": 13, "191": 55, "9005": 14, "514": 19, "9006": 0, "3": 47, "9004": 11, "9003": 0, "505": 52, "503": 57, "501": 90}, "direccion": "OCARINA 1613 - B\u00b0 V CLAUDINA"}}, {"geometry": {"type": "Point", "coordinates": [-64.21732530270218, -31.391325904935027]}, "type": "Feature", "properties": {"establecim": "ESC PROVINCIA DE CORRIENTES", "overall_total": 2151, "fake_id": "948-955", "seccion": "1", "circuito": "00009", "votos": {"217": 134, "512": 202, "47": 88, "191": 535, "9005": 16, "514": 97, "9006": 0, "3": 90, "9004": 11, "9003": 0, "505": 294, "503": 409, "501": 275}, "direccion": "DOMINGO ZIPOLI 1358  B\u00b0ESCOBA"}}, {"geometry": {"type": "Point", "coordinates": [-64.2291891622113, -31.390403820385394]}, "type": "Feature", "properties": {"establecim": "INST ESCUTI", "overall_total": 2600, "fake_id": "956-965", "seccion": "1", "circuito": "00009", "votos": {"217": 197, "512": 236, "47": 92, "191": 621, "9005": 33, "514": 125, "9006": 1, "3": 119, "9004": 24, "9003": 5, "505": 318, "503": 484, "501": 345}, "direccion": "NAZARET 3399 - B\u00b0 LAS ROSAS"}}, {"geometry": {"type": "Point", "coordinates": [-64.19305259575171, -31.43293241015269]}, "type": "Feature", "properties": {"establecim": "E.N.E.T. N\u00b01 DR A SABATTINI", "overall_total": 2469, "fake_id": "1182-1191", "seccion": "1", "circuito": "00010", "votos": {"217": 100, "512": 360, "47": 90, "191": 447, "9005": 57, "514": 124, "9006": 2, "3": 208, "9004": 24, "9003": 0, "505": 285, "503": 404, "501": 368}, "direccion": "AV VELEZ SARSFIELD 1490  B\u00b0G\u00dcEMES"}}, {"geometry": {"type": "Point", "coordinates": [-64.20590288418221, -31.443674253885483]}, "type": "Feature", "properties": {"establecim": "ESC MANUEL BELGRANO", "overall_total": 2267, "fake_id": "1192-1200", "seccion": "1", "circuito": "00010", "votos": {"217": 111, "512": 311, "47": 100, "191": 404, "9005": 50, "514": 136, "9006": 2, "3": 163, "9004": 29, "9003": 0, "505": 295, "503": 346, "501": 320}, "direccion": "SUECIA 2832 B\u00b0 PQUE VELEZ  SARSFIELD"}}, {"geometry": {"type": "Point", "coordinates": [-64.19105462666457, -31.427121013199493]}, "type": "Feature", "properties": {"establecim": "ESC ROQUE SAENZ PE\u00d1A", "overall_total": 3544, "fake_id": "1150-1163", "seccion": "1", "circuito": "00010", "votos": {"217": 128, "512": 506, "47": 166, "191": 647, "9005": 77, "514": 172, "9006": 0, "3": 307, "9004": 34, "9003": 2, "505": 396, "503": 581, "501": 528}, "direccion": "AV VELEZ SARSFIELD 1000  B\u00b0G\u00dcEMES"}}, {"geometry": {"type": "Point", "coordinates": [-64.19591203851452, -31.43806775270899]}, "type": "Feature", "properties": {"establecim": "INST EDUCACION CORDOBA", "overall_total": 4530, "fake_id": "1164-1181", "seccion": "1", "circuito": "00010", "votos": {"217": 197, "512": 624, "47": 165, "191": 849, "9005": 109, "514": 245, "9006": 0, "3": 361, "9004": 34, "9003": 5, "505": 562, "503": 684, "501": 695}, "direccion": "FERREYRA Y FRIULI B\u00b0COL DE V  SARSF"}}, {"geometry": {"type": "Point", "coordinates": [-64.2716764602773, -31.430690718582415]}, "type": "Feature", "properties": {"establecim": "ESC ISABEL LA CATOLICA", "overall_total": 3160, "fake_id": "1595-1606", "seccion": "1", "circuito": "00011", "votos": {"217": 83, "512": 518, "47": 123, "191": 480, "9005": 93, "514": 150, "9006": 0, "3": 391, "9004": 35, "9003": 11, "505": 279, "503": 469, "501": 528}, "direccion": "SUBOF OTANO S/N\u00b0 B\u00b0  AERONAUTICO"}}, {"geometry": {"type": "Point", "coordinates": [-64.10940010876914, -31.454222907484255]}, "type": "Feature", "properties": {"establecim": "ESC CONSTANCIO C VIGIL", "overall_total": 2189, "fake_id": "2047-2054", "seccion": "1", "circuito": "00012", "votos": {"217": 56, "512": 342, "47": 64, "191": 392, "9005": 51, "514": 122, "9006": 0, "3": 220, "9004": 28, "9003": 67, "505": 239, "503": 338, "501": 270}, "direccion": "J.LLERENA 5561 - B\u00b0 SAN  LORENZO"}}, {"geometry": {"type": "Point", "coordinates": [-64.10414962016885, -31.463003995672704]}, "type": "Feature", "properties": {"establecim": "ESC JUAN XXIII", "overall_total": 2657, "fake_id": "2035-2046", "seccion": "1", "circuito": "00012", "votos": {"217": 70, "512": 462, "47": 102, "191": 514, "9005": 63, "514": 166, "9006": 1, "3": 249, "9004": 20, "9003": 0, "505": 260, "503": 413, "501": 337}, "direccion": "BENAVIDEZ Y CANESA - B\u00b0N  AVELLANEDA"}}, {"geometry": {"type": "Point", "coordinates": [-64.09829101717945, -31.4619965760198]}, "type": "Feature", "properties": {"establecim": "ESC MUNIC OSCAR SOTO LOPEZ", "overall_total": 1309, "fake_id": "2055-2059", "seccion": "1", "circuito": "00012", "votos": {"217": 40, "512": 212, "47": 46, "191": 243, "9005": 27, "514": 65, "9006": 1, "3": 129, "9004": 10, "9003": 0, "505": 155, "503": 209, "501": 172}, "direccion": "LOS ALGARROBOS/ESPINILLOS"}}, {"geometry": {"type": "Point", "coordinates": [-64.15032482481784, -31.391752169611784]}, "type": "Feature", "properties": {"establecim": "ESC ARISTOBULO DEL VALLE", "overall_total": 2509, "fake_id": "2367-2376", "seccion": "1", "circuito": "00013", "votos": {"217": 109, "512": 380, "47": 73, "191": 540, "9005": 45, "514": 138, "9006": 0, "3": 177, "9004": 18, "9003": 0, "505": 291, "503": 444, "501": 294}, "direccion": "M DE JAUREGUI 1657 B\u00b0L N  ALEM"}}, {"geometry": {"type": "Point", "coordinates": [-64.16039068708845, -31.390922688943746]}, "type": "Feature", "properties": {"establecim": "ESC ASOCIACION DE MAYO", "overall_total": 1558, "fake_id": "2377-2382", "seccion": "1", "circuito": "00013", "votos": {"217": 69, "512": 242, "47": 46, "191": 316, "9005": 34, "514": 83, "9006": 0, "3": 127, "9004": 8, "9003": 0, "505": 178, "503": 266, "501": 189}, "direccion": "COLOMPREA 1500 B\u00b0 ALEM"}}, {"geometry": {"type": "Point", "coordinates": [-64.57285640000002, -32.1751529]}, "type": "Feature", "properties": {"establecim": "ESC PROV D VELEZ SARFIELD", "overall_total": 204, "fake_id": "3085-3085", "seccion": "2", "circuito": "00015", "votos": {"217": 2, "512": 99, "47": 0, "191": 52, "9005": 4, "514": 6, "9006": 0, "3": 3, "9004": 2, "9003": 0, "505": 3, "503": 5, "501": 28}, "direccion": "AYLLU 0"}}, {"geometry": {"type": "Point", "coordinates": [-64.37723139999996, -32.24741809999996]}, "type": "Feature", "properties": {"establecim": "ESC PROV. M.BELGRANO", "overall_total": 89, "fake_id": "3088-3088", "seccion": "2", "circuito": "00016", "votos": {"217": 1, "512": 42, "47": 0, "191": 11, "9005": 0, "514": 3, "9006": 0, "3": 2, "9004": 2, "9003": 2, "505": 2, "503": 10, "501": 14}, "direccion": "PUBLICA S/N"}}, {"geometry": {"type": "Point", "coordinates": [-64.39894978736413, -32.21479858617304]}, "type": "Feature", "properties": {"establecim": "ESCUELA B. ROLDAN", "overall_total": 2598, "fake_id": "3092-3101", "seccion": "2", "circuito": "00017", "votos": {"217": 47, "512": 1072, "47": 44, "191": 426, "9005": 66, "514": 83, "9006": 0, "3": 54, "9004": 21, "9003": 0, "505": 156, "503": 229, "501": 400}, "direccion": "TUCUMAN 121"}}, {"geometry": {"type": "Point", "coordinates": [-64.42026029600852, -32.213740082102206]}, "type": "Feature", "properties": {"establecim": "ESCUELA R. OBLIGADO", "overall_total": 2661, "fake_id": "3102-3111", "seccion": "2", "circuito": "00017", "votos": {"217": 63, "512": 1133, "47": 28, "191": 383, "9005": 59, "514": 77, "9006": 0, "3": 76, "9004": 29, "9003": 0, "505": 155, "503": 233, "501": 425}, "direccion": "CAMINO A HOTELES DE U.T.E.  PUBLICA 0"}}, {"geometry": {"type": "Point", "coordinates": [-64.48340059999997, -32.30300539999998]}, "type": "Feature", "properties": {"establecim": "ESC PROV DOMINGO F SARMIENTO", "overall_total": 705, "fake_id": "3112-3114", "seccion": "2", "circuito": "00018", "votos": {"217": 9, "512": 313, "47": 8, "191": 268, "9005": 12, "514": 8, "9006": 0, "3": 6, "9004": 9, "9003": 0, "505": 11, "503": 33, "501": 28}, "direccion": "SARMIENTO 376"}}, {"geometry": {"type": "Point", "coordinates": [-64.48321562413902, -32.30215400138417]}, "type": "Feature", "properties": {"establecim": "INST DR D VELEZ SARSFIELD", "overall_total": 462, "fake_id": "3115-3116", "seccion": "2", "circuito": "00018", "votos": {"217": 4, "512": 232, "47": 2, "191": 164, "9005": 2, "514": 3, "9006": 0, "3": 6, "9004": 3, "9003": 0, "505": 10, "503": 21, "501": 15}, "direccion": "SARMIENTO 236"}}, {"geometry": {"type": "Point", "coordinates": [-64.75644109699995, -32.095461360399995]}, "type": "Feature", "properties": {"establecim": "ESC. PROV. FRENCH Y BERUTTI", "overall_total": 1355, "fake_id": "3121-3125", "seccion": "2", "circuito": "00019", "votos": {"217": 24, "512": 612, "47": 5, "191": 424, "9005": 23, "514": 14, "9006": 0, "3": 22, "9004": 23, "9003": 0, "505": 38, "503": 103, "501": 67}, "direccion": "LOS CONDORES"}}, {"geometry": {"type": "Point", "coordinates": [-64.57588339829994, -31.91989306539999]}, "type": "Feature", "properties": {"establecim": "ESC PROV PEDRO B PALACIOS", "overall_total": 838, "fake_id": "3129-3131", "seccion": "2", "circuito": "00020", "votos": {"217": 22, "512": 97, "47": 11, "191": 177, "9005": 13, "514": 14, "9006": 0, "3": 15, "9004": 7, "9003": 0, "505": 43, "503": 84, "501": 355}, "direccion": "MANUEL BELGRANO S/N"}}, {"geometry": {"type": "Point", "coordinates": [-64.33136159999995, -32.0944427]}, "type": "Feature", "properties": {"establecim": "ESC. DR. JUAN M. ALBARENQUE", "overall_total": 219, "fake_id": "3154-3154", "seccion": "2", "circuito": "00021", "votos": {"217": 9, "512": 33, "47": 2, "191": 144, "9005": 0, "514": 3, "9006": 0, "3": 1, "9004": 5, "9003": 0, "505": 4, "503": 9, "501": 9}, "direccion": "PUBLICA 0"}}, {"geometry": {"type": "Point", "coordinates": [-64.5906076622, -32.5293922822]}, "type": "Feature", "properties": {"establecim": "ESC. PROV. D.F. SARMIENTO", "overall_total": 833, "fake_id": "3155-3158", "seccion": "2", "circuito": "00022", "votos": {"217": 17, "512": 240, "47": 4, "191": 407, "9005": 13, "514": 9, "9006": 0, "3": 11, "9004": 10, "9003": 0, "505": 20, "503": 50, "501": 52}, "direccion": "SARMIENTO 0"}}, {"geometry": {"type": "Point", "coordinates": [-64.75612589450002, -32.0952685676]}, "type": "Feature", "properties": {"establecim": "ESC.PROV. FRENCH Y BERUTTI", "overall_total": 821, "fake_id": "3159-3161", "seccion": "2", "circuito": "00023", "votos": {"217": 16, "512": 168, "47": 8, "191": 81, "9005": 12, "514": 10, "9006": 0, "3": 7, "9004": 10, "9003": 0, "505": 25, "503": 33, "501": 451}, "direccion": "CORDOBA 0"}}, {"geometry": {"type": "Point", "coordinates": [-64.480212, -32.186157499999986]}, "type": "Feature", "properties": {"establecim": "ESC PROV PRIMERA JUNTA", "overall_total": 1424, "fake_id": "3162-3168", "seccion": "2", "circuito": "00024", "votos": {"217": 28, "512": 555, "47": 16, "191": 251, "9005": 36, "514": 28, "9006": 1, "3": 34, "9004": 16, "9003": 0, "505": 63, "503": 161, "501": 235}, "direccion": "AMADEO SABATTINI 143"}}, {"geometry": {"type": "Point", "coordinates": [-64.37451966126167, -31.972506243580565]}, "type": "Feature", "properties": {"establecim": "COLEGIO SAN JOSE", "overall_total": 1070, "fake_id": "3183-3186", "seccion": "2", "circuito": "00025", "votos": {"217": 19, "512": 531, "47": 13, "191": 329, "9005": 7, "514": 11, "9006": 0, "3": 20, "9004": 25, "9003": 0, "505": 18, "503": 64, "501": 33}, "direccion": "SAN AGUSTIN"}}, {"geometry": {"type": "Point", "coordinates": [-64.37760192328378, -31.976113141009677]}, "type": "Feature", "properties": {"establecim": "ESC. PROV.GRAL. SAN MARTIN", "overall_total": 1338, "fake_id": "3178-3182", "seccion": "2", "circuito": "00025", "votos": {"217": 21, "512": 637, "47": 27, "191": 432, "9005": 0, "514": 26, "9006": 0, "3": 26, "9004": 32, "9003": 0, "505": 18, "503": 67, "501": 52}, "direccion": "SAN AGUSTIN"}}, {"geometry": {"type": "Point", "coordinates": [-64.48321562413902, -32.30215400138417]}, "type": "Feature", "properties": {"establecim": "COLEGIO NAC. DR.D.V. SARSFIELD", "overall_total": 2642, "fake_id": "3207-3218", "seccion": "2", "circuito": "00026", "votos": {"217": 66, "512": 740, "47": 25, "191": 464, "9005": 36, "514": 42, "9006": 0, "3": 33, "9004": 33, "9003": 0, "505": 116, "503": 256, "501": 831}, "direccion": "SANTA ROSA"}}, {"geometry": {"type": "Point", "coordinates": [-64.53870519417471, -32.0669002523095]}, "type": "Feature", "properties": {"establecim": "PRIM-EL MUNDO DE LOS CHICOS", "overall_total": 1554, "fake_id": "3189-3194", "seccion": "2", "circuito": "00026", "votos": {"217": 39, "512": 455, "47": 16, "191": 298, "9005": 31, "514": 26, "9006": 0, "3": 23, "9004": 17, "9003": 0, "505": 66, "503": 135, "501": 448}, "direccion": "GUEMES 162"}}, {"geometry": {"type": "Point", "coordinates": [-64.26760919999995, -31.008296599999966]}, "type": "Feature", "properties": {"establecim": "ESCUELA DR. PABLO RUEDA", "overall_total": 2130, "fake_id": "3223-3230", "seccion": "3", "circuito": "00027", "votos": {"217": 69, "512": 564, "47": 35, "191": 404, "9005": 35, "514": 36, "9006": 1, "3": 51, "9004": 30, "9003": 0, "505": 167, "503": 449, "501": 289}, "direccion": "LA GRANJA"}}, {"geometry": {"type": "Point", "coordinates": [-64.34095355672561, -31.340545503388675]}, "type": "Feature", "properties": {"establecim": "ESC ELADIO DIEZ", "overall_total": 2168, "fake_id": "3231-3238", "seccion": "3", "circuito": "00028", "votos": {"217": 53, "512": 730, "47": 38, "191": 310, "9005": 38, "514": 74, "9006": 0, "3": 112, "9004": 24, "9003": 4, "505": 148, "503": 387, "501": 250}, "direccion": "ALVEAR ESQ SARMIENTO"}}, {"geometry": {"type": "Point", "coordinates": [-64.33615497875356, -31.34018885365282]}, "type": "Feature", "properties": {"establecim": "ESCUELA PROV.J.J.PASO-CENMA", "overall_total": 2988, "fake_id": "3257-3267", "seccion": "3", "circuito": "00028", "votos": {"217": 109, "512": 884, "47": 76, "191": 433, "9005": 66, "514": 115, "9006": 1, "3": 150, "9004": 43, "9003": 1, "505": 214, "503": 540, "501": 356}, "direccion": "CALERA"}}, {"geometry": {"type": "Point", "coordinates": [-64.33473403461319, -31.342952878749163]}, "type": "Feature", "properties": {"establecim": "INSTITUTO D.F.SARMIENTO", "overall_total": 4788, "fake_id": "3239-3256", "seccion": "3", "circuito": "00028", "votos": {"217": 167, "512": 1464, "47": 102, "191": 717, "9005": 99, "514": 164, "9006": 1, "3": 238, "9004": 67, "9003": 3, "505": 342, "503": 835, "501": 589}, "direccion": "CALERA"}}, {"geometry": {"type": "Point", "coordinates": [-64.33474766856175, -31.343082823321517]}, "type": "Feature", "properties": {"establecim": "INSTITUTO JESUS MARIA", "overall_total": 2102, "fake_id": "3268-3276", "seccion": "3", "circuito": "00028", "votos": {"217": 81, "512": 692, "47": 48, "191": 283, "9005": 62, "514": 83, "9006": 1, "3": 106, "9004": 14, "9003": 0, "505": 148, "503": 350, "501": 234}, "direccion": "CALERA"}}, {"geometry": {"type": "Point", "coordinates": [-64.06294497965098, -31.02093559788337]}, "type": "Feature", "properties": {"establecim": "ESC. PRESBITERO BONORIS", "overall_total": 2944, "fake_id": "3327-3337", "seccion": "3", "circuito": "00029", "votos": {"217": 70, "512": 741, "47": 43, "191": 807, "9005": 79, "514": 76, "9006": 2, "3": 83, "9004": 30, "9003": 0, "505": 152, "503": 550, "501": 311}, "direccion": "COLONIA CAROYA 0"}}, {"geometry": {"type": "Point", "coordinates": [-64.06637282156196, -31.021225046876598]}, "type": "Feature", "properties": {"establecim": "ESC. PROV. GRAL SAN MARTIN", "overall_total": 2776, "fake_id": "3317-3326", "seccion": "3", "circuito": "00029", "votos": {"217": 72, "512": 681, "47": 39, "191": 814, "9005": 49, "514": 74, "9006": 0, "3": 68, "9004": 28, "9003": 12, "505": 154, "503": 482, "501": 303}, "direccion": "MAESTRA OLGA PROSDOCIMO  3580"}}, {"geometry": {"type": "Point", "coordinates": [-64.09041662206603, -31.008653143942148]}, "type": "Feature", "properties": {"establecim": "ESC.PROV. M. BELGRANO", "overall_total": 2772, "fake_id": "3307-3316", "seccion": "3", "circuito": "00029", "votos": {"217": 73, "512": 674, "47": 46, "191": 835, "9005": 56, "514": 63, "9006": 0, "3": 80, "9004": 24, "9003": 0, "505": 167, "503": 488, "501": 266}, "direccion": "COLONIA CAROYA"}}, {"geometry": {"type": "Point", "coordinates": [-64.04333969674035, -31.04643050522676]}, "type": "Feature", "properties": {"establecim": "ESCUELA M. MORENO", "overall_total": 2179, "fake_id": "3338-3345", "seccion": "3", "circuito": "00029", "votos": {"217": 72, "512": 468, "47": 26, "191": 618, "9005": 48, "514": 64, "9006": 1, "3": 59, "9004": 26, "9003": 0, "505": 107, "503": 443, "501": 247}, "direccion": "JUSTINIANO CELIZ HEREDIA 650"}}, {"geometry": {"type": "Point", "coordinates": [-64.06294497965098, -31.02093559788337]}, "type": "Feature", "properties": {"establecim": "IPEM 165 ANEXO J.BONORIS", "overall_total": 1657, "fake_id": "3346-3351", "seccion": "3", "circuito": "00029", "votos": {"217": 55, "512": 368, "47": 33, "191": 464, "9005": 37, "514": 33, "9006": 0, "3": 65, "9004": 15, "9003": 0, "505": 95, "503": 321, "501": 171}, "direccion": "COLONIA CAROYA"}}, {"geometry": {"type": "Point", "coordinates": [-64.0675929922478, -31.2282770052648]}, "type": "Feature", "properties": {"establecim": "ESC PROV DR PABLO RUEDA", "overall_total": 1314, "fake_id": "3361-3365", "seccion": "3", "circuito": "00030", "votos": {"217": 33, "512": 252, "47": 19, "191": 401, "9005": 5, "514": 32, "9006": 0, "3": 54, "9004": 24, "9003": 0, "505": 68, "503": 242, "501": 184}, "direccion": "PUBLICA S/N"}}, {"geometry": {"type": "Point", "coordinates": [-64.06699950599999, -31.240528600899967]}, "type": "Feature", "properties": {"establecim": "ESCUELA NACIONAL N\u00b031", "overall_total": 1895, "fake_id": "3353-3360", "seccion": "3", "circuito": "00030", "votos": {"217": 60, "512": 350, "47": 37, "191": 600, "9005": 23, "514": 61, "9006": 0, "3": 84, "9004": 28, "9003": 0, "505": 100, "503": 315, "501": 237}, "direccion": "PUBLICA-SANTA ELENA RUTA  74KM22"}}, {"geometry": {"type": "Point", "coordinates": [-64.28971409149995, -31.092007633600044]}, "type": "Feature", "properties": {"establecim": "ESC.PROV.A.ARGENTINA", "overall_total": 728, "fake_id": "3366-3368", "seccion": "3", "circuito": "00031", "votos": {"217": 13, "512": 264, "47": 2, "191": 82, "9005": 8, "514": 17, "9006": 0, "3": 25, "9004": 15, "9003": 0, "505": 36, "503": 182, "501": 84}, "direccion": "EL MANZANO SOBRE RUTA E 53"}}, {"geometry": {"type": "Point", "coordinates": [-64.14065219999996, -31.135245799999975]}, "type": "Feature", "properties": {"establecim": "ESC PROV GRAL JOSE MARIA PAZ", "overall_total": 1185, "fake_id": "3376-3381", "seccion": "3", "circuito": "00032", "votos": {"217": 22, "512": 385, "47": 8, "191": 309, "9005": 21, "514": 28, "9006": 1, "3": 74, "9004": 11, "9003": 0, "505": 63, "503": 132, "501": 131}, "direccion": "BUENOS AIRES Y CORDOBA"}}, {"geometry": {"type": "Point", "coordinates": [-64.09092528774853, -30.97700072826506]}, "type": "Feature", "properties": {"establecim": "ESC,N\u00b021 GENDARMERIA NACIONAL", "overall_total": 2562, "fake_id": "3450-3460", "seccion": "3", "circuito": "00033", "votos": {"217": 74, "512": 540, "47": 33, "191": 622, "9005": 51, "514": 72, "9006": 0, "3": 70, "9004": 32, "9003": 0, "505": 161, "503": 527, "501": 380}, "direccion": "JESUS MARIA"}}, {"geometry": {"type": "Point", "coordinates": [-64.10391275958835, -30.982676742464687]}, "type": "Feature", "properties": {"establecim": "ESC.DR. J.M.ESTRADA N\u00b0 221", "overall_total": 3313, "fake_id": "3410-3422", "seccion": "3", "circuito": "00033", "votos": {"217": 79, "512": 830, "47": 53, "191": 646, "9005": 77, "514": 86, "9006": 0, "3": 93, "9004": 44, "9003": 1, "505": 166, "503": 697, "501": 541}, "direccion": "CATAMARCA Y ESTRADA 0"}}, {"geometry": {"type": "Point", "coordinates": [-64.09424455531119, -30.9858552538995]}, "type": "Feature", "properties": {"establecim": "ESC.PROV.1ER.TTE.MORANDINI", "overall_total": 2851, "fake_id": "3423-3434", "seccion": "3", "circuito": "00033", "votos": {"217": 79, "512": 636, "47": 38, "191": 630, "9005": 47, "514": 66, "9006": 0, "3": 94, "9004": 45, "9003": 0, "505": 172, "503": 600, "501": 444}, "direccion": "CHILE -SAN JOSE OBRERO 222"}}, {"geometry": {"type": "Point", "coordinates": [-64.09499566743472, -30.980867434058023]}, "type": "Feature", "properties": {"establecim": "ESC.PROVC.F.O. DE OCAMPO", "overall_total": 3371, "fake_id": "3435-3449", "seccion": "3", "circuito": "00033", "votos": {"217": 89, "512": 791, "47": 46, "191": 714, "9005": 65, "514": 106, "9006": 0, "3": 113, "9004": 49, "9003": 0, "505": 177, "503": 660, "501": 561}, "direccion": "AV. DR. FRANCISCO N. DE  LAPRIDA 649 649"}}, {"geometry": {"type": "Point", "coordinates": [-64.09507034005135, -30.986351453557045]}, "type": "Feature", "properties": {"establecim": "I.P.E.T.N\u00b0 69", "overall_total": 3369, "fake_id": "3397-3409", "seccion": "3", "circuito": "00033", "votos": {"217": 85, "512": 751, "47": 37, "191": 758, "9005": 49, "514": 85, "9006": 0, "3": 105, "9004": 54, "9003": 0, "505": 179, "503": 702, "501": 564}, "direccion": "JESUS MARIA"}}, {"geometry": {"type": "Point", "coordinates": [-64.09839229805264, -30.98431115750903]}, "type": "Feature", "properties": {"establecim": "PTE DOMINGO F SARMIENTO", "overall_total": 3797, "fake_id": "3382-3396", "seccion": "3", "circuito": "00033", "votos": {"217": 102, "512": 921, "47": 51, "191": 866, "9005": 61, "514": 98, "9006": 0, "3": 103, "9004": 55, "9003": 0, "505": 215, "503": 800, "501": 525}, "direccion": "CORDOBA (PARALEA A JUAN B  JUSTO) 1050"}}, {"geometry": {"type": "Point", "coordinates": [-64.1670194356847, -31.27995751819738]}, "type": "Feature", "properties": {"establecim": "ESC PROV LEOPOLDO LUGONES", "overall_total": 2104, "fake_id": "3462-3469", "seccion": "3", "circuito": "00034", "votos": {"217": 55, "512": 561, "47": 31, "191": 317, "9005": 43, "514": 63, "9006": 0, "3": 200, "9004": 20, "9003": 8, "505": 179, "503": 309, "501": 318}, "direccion": "VILLA LOS LLANOS 0"}}, {"geometry": {"type": "Point", "coordinates": [-64.18037975217304, -31.299963994880493]}, "type": "Feature", "properties": {"establecim": "ESC.ATAHUALPA YUPANQUI", "overall_total": 2130, "fake_id": "3478-3485", "seccion": "3", "circuito": "00034", "votos": {"217": 58, "512": 568, "47": 47, "191": 256, "9005": 44, "514": 82, "9006": 0, "3": 240, "9004": 45, "9003": 1, "505": 193, "503": 308, "501": 288}, "direccion": "BARRIO PARQUE NORTE"}}, {"geometry": {"type": "Point", "coordinates": [-64.16679000010123, -31.26154299490366]}, "type": "Feature", "properties": {"establecim": "ESC.COM.R. SILIONI", "overall_total": 2085, "fake_id": "3470-3477", "seccion": "3", "circuito": "00034", "votos": {"217": 51, "512": 531, "47": 39, "191": 277, "9005": 38, "514": 90, "9006": 1, "3": 204, "9004": 34, "9003": 0, "505": 185, "503": 324, "501": 311}, "direccion": "JUAREZ CELMAN"}}, {"geometry": {"type": "Point", "coordinates": [-64.04333579496162, -31.366621692165285]}, "type": "Feature", "properties": {"establecim": "ESC.CAP.LUIS C.CANDELARIA", "overall_total": 2099, "fake_id": "3486-3494", "seccion": "3", "circuito": "00035", "votos": {"217": 48, "512": 364, "47": 33, "191": 520, "9005": 58, "514": 72, "9006": 1, "3": 190, "9004": 45, "9003": 0, "505": 207, "503": 275, "501": 286}, "direccion": "MALVINAS ARGENTINAS"}}, {"geometry": {"type": "Point", "coordinates": [-64.04620600009069, -31.374193994835892]}, "type": "Feature", "properties": {"establecim": "ESC.MUNIC.CIUDAD DE M.ARGENTIN", "overall_total": 1897, "fake_id": "3495-3502", "seccion": "3", "circuito": "00035", "votos": {"217": 44, "512": 310, "47": 34, "191": 468, "9005": 61, "514": 74, "9006": 0, "3": 166, "9004": 24, "9003": 0, "505": 221, "503": 258, "501": 237}, "direccion": "MALVINAS ARGENTINAS"}}, {"geometry": {"type": "Point", "coordinates": [-64.05376500009136, -31.380629994832002]}, "type": "Feature", "properties": {"establecim": "I.P.E.M. N\u00b0 24", "overall_total": 2959, "fake_id": "3503-3514", "seccion": "3", "circuito": "00035", "votos": {"217": 70, "512": 538, "47": 50, "191": 743, "9005": 99, "514": 98, "9006": 0, "3": 254, "9004": 64, "9003": 0, "505": 303, "503": 354, "501": 386}, "direccion": "JUJUY ESQ. SARMIENTO S/N  MALVINAS AR 0"}}, {"geometry": {"type": "Point", "coordinates": [-64.06718895840577, -31.16495027399371]}, "type": "Feature", "properties": {"establecim": "ESC PROV SARGENTO CABRAL", "overall_total": 220, "fake_id": "3518-3518", "seccion": "3", "circuito": "00036", "votos": {"217": 3, "512": 74, "47": 2, "191": 81, "9005": 0, "514": 5, "9006": 0, "3": 2, "9004": 4, "9003": 0, "505": 4, "503": 23, "501": 22}, "direccion": "PUBLICA S/N"}}, {"geometry": {"type": "Point", "coordinates": [-64.32888000042965, -31.164990606356234]}, "type": "Feature", "properties": {"establecim": "ESC.CONSTANCIO C. VIGIL", "overall_total": 1812, "fake_id": "3560-3566", "seccion": "3", "circuito": "00037", "votos": {"217": 62, "512": 252, "47": 46, "191": 297, "9005": 38, "514": 41, "9006": 2, "3": 57, "9004": 19, "9003": 0, "505": 216, "503": 553, "501": 229}, "direccion": "1 MAYO B\u00b0 MOREYRA 112"}}, {"geometry": {"type": "Point", "coordinates": [-64.3161380845202, -31.171053760515257]}, "type": "Feature", "properties": {"establecim": "ESC.PROV.M.FRAGUEIRO", "overall_total": 2887, "fake_id": "3529-3539", "seccion": "3", "circuito": "00037", "votos": {"217": 98, "512": 365, "47": 65, "191": 533, "9005": 66, "514": 73, "9006": 1, "3": 100, "9004": 21, "9003": 0, "505": 349, "503": 800, "501": 416}, "direccion": "AVENIDA SAN MARTIN 4519"}}, {"geometry": {"type": "Point", "coordinates": [-64.31756197133697, -31.166715478018208]}, "type": "Feature", "properties": {"establecim": "I.P.E.M.144-MARIANO MORENO", "overall_total": 2102, "fake_id": "3540-3548", "seccion": "3", "circuito": "00037", "votos": {"217": 67, "512": 303, "47": 45, "191": 333, "9005": 67, "514": 45, "9006": 0, "3": 88, "9004": 14, "9003": 0, "505": 283, "503": 546, "501": 311}, "direccion": "SALTA 191"}}, {"geometry": {"type": "Point", "coordinates": [-64.32208035256443, -31.16659957278304]}, "type": "Feature", "properties": {"establecim": "INSTITUTO DEL ESPIRITU SANTO", "overall_total": 2826, "fake_id": "3549-3559", "seccion": "3", "circuito": "00037", "votos": {"217": 93, "512": 364, "47": 63, "191": 480, "9005": 82, "514": 75, "9006": 1, "3": 115, "9004": 27, "9003": 0, "505": 332, "503": 785, "501": 409}, "direccion": "AV. SAN MARTIN 5109"}}, {"geometry": {"type": "Point", "coordinates": [-64.31756197133697, -31.166715478018208]}, "type": "Feature", "properties": {"establecim": "IPEM N\u00b0 352", "overall_total": 2614, "fake_id": "3519-3528", "seccion": "3", "circuito": "00037", "votos": {"217": 92, "512": 365, "47": 50, "191": 422, "9005": 55, "514": 88, "9006": 3, "3": 82, "9004": 29, "9003": 0, "505": 322, "503": 772, "501": 334}, "direccion": "NICANOR CEBALLOS 0"}}, {"geometry": {"type": "Point", "coordinates": [-64.29817200011271, -31.136236994979374]}, "type": "Feature", "properties": {"establecim": "ESC.PROV. J.MALDONADO", "overall_total": 2647, "fake_id": "3573-3583", "seccion": "3", "circuito": "00038", "votos": {"217": 69, "512": 546, "47": 40, "191": 381, "9005": 49, "514": 62, "9006": 0, "3": 95, "9004": 20, "9003": 4, "505": 275, "503": 753, "501": 353}, "direccion": "DESIDERIO TORRES 360"}}, {"geometry": {"type": "Point", "coordinates": [-64.28823100011188, -31.137853994978364]}, "type": "Feature", "properties": {"establecim": "ESCUELA RECONQUISTA", "overall_total": 1061, "fake_id": "3584-3587", "seccion": "3", "circuito": "00038", "votos": {"217": 36, "512": 210, "47": 18, "191": 134, "9005": 18, "514": 29, "9006": 0, "3": 36, "9004": 7, "9003": 0, "505": 103, "503": 302, "501": 168}, "direccion": "CERRITO 0"}}, {"geometry": {"type": "Point", "coordinates": [-64.29477095603941, -31.13789712908942]}, "type": "Feature", "properties": {"establecim": "INST SECUNDARIO SALSIPUEDES", "overall_total": 1351, "fake_id": "3567-3572", "seccion": "3", "circuito": "00038", "votos": {"217": 39, "512": 295, "47": 18, "191": 181, "9005": 20, "514": 33, "9006": 0, "3": 51, "9004": 17, "9003": 0, "505": 121, "503": 433, "501": 143}, "direccion": "AV BELGRANO 178"}}, {"geometry": {"type": "Point", "coordinates": [-63.97808837092967, -31.056360140259514]}, "type": "Feature", "properties": {"establecim": "ESC.PROV. FRAY M.ESQUIU", "overall_total": 45, "fake_id": "3588-3588", "seccion": "3", "circuito": "00039", "votos": {"217": 0, "512": 24, "47": 0, "191": 13, "9005": 0, "514": 1, "9006": 0, "3": 1, "9004": 0, "9003": 0, "505": 0, "503": 1, "501": 5}, "direccion": "PUBLICA 0"}}, {"geometry": {"type": "Point", "coordinates": [-64.31005810069665, -31.237253896870506]}, "type": "Feature", "properties": {"establecim": "ESC.PROV. D.V.SARSFIELD", "overall_total": 2384, "fake_id": "3589-3597", "seccion": "3", "circuito": "00040", "votos": {"217": 67, "512": 416, "47": 47, "191": 366, "9005": 61, "514": 96, "9006": 0, "3": 112, "9004": 29, "9003": 0, "505": 265, "503": 528, "501": 397}, "direccion": "SARMIENTO Y VELEZ SARSFIELD  0"}}, {"geometry": {"type": "Point", "coordinates": [-64.31735832257071, -31.227747552060944]}, "type": "Feature", "properties": {"establecim": "I.P.E.M. N\u00b0 23", "overall_total": 2379, "fake_id": "3598-3606", "seccion": "3", "circuito": "00040", "votos": {"217": 77, "512": 334, "47": 55, "191": 463, "9005": 58, "514": 107, "9006": 0, "3": 100, "9004": 26, "9003": 0, "505": 242, "503": 509, "501": 408}, "direccion": "SPILIMBERGO 869"}}, {"geometry": {"type": "Point", "coordinates": [-64.30581434440002, -31.241577345781568]}, "type": "Feature", "properties": {"establecim": "I.P.E.M. N\u00b0 78", "overall_total": 4024, "fake_id": "3607-3621", "seccion": "3", "circuito": "00040", "votos": {"217": 114, "512": 658, "47": 97, "191": 644, "9005": 94, "514": 179, "9006": 0, "3": 204, "9004": 29, "9003": 0, "505": 456, "503": 915, "501": 634}, "direccion": "COSTANERA LOS CIGARRALES B  750"}}, {"geometry": {"type": "Point", "coordinates": [-64.3113097764755, -31.237065940998228]}, "type": "Feature", "properties": {"establecim": "INST.PARROQ.NTA.SRA DE LOURDES", "overall_total": 2889, "fake_id": "3622-3632", "seccion": "3", "circuito": "00040", "votos": {"217": 106, "512": 478, "47": 56, "191": 460, "9005": 71, "514": 115, "9006": 1, "3": 158, "9004": 29, "9003": 11, "505": 310, "503": 629, "501": 465}, "direccion": "JUAN MILICH 0"}}, {"geometry": {"type": "Point", "coordinates": [-64.29768682510091, -31.28803683245299]}, "type": "Feature", "properties": {"establecim": "COLEGIO MARYLAND", "overall_total": 1107, "fake_id": "3726-3729", "seccion": "3", "circuito": "00041", "votos": {"217": 36, "512": 157, "47": 29, "191": 269, "9005": 10, "514": 50, "9006": 1, "3": 51, "9004": 6, "9003": 2, "505": 95, "503": 244, "501": 157}, "direccion": "GUEMES ESQ ALBERTI"}}, {"geometry": {"type": "Point", "coordinates": [-64.29846764482413, -31.290560066238925]}, "type": "Feature", "properties": {"establecim": "COLEGIO SAN JOSE", "overall_total": 3005, "fake_id": "3667-3678", "seccion": "3", "circuito": "00041", "votos": {"217": 139, "512": 429, "47": 92, "191": 622, "9005": 52, "514": 104, "9006": 0, "3": 128, "9004": 29, "9003": 1, "505": 304, "503": 665, "501": 440}, "direccion": "VILLA ALLENDE"}}, {"geometry": {"type": "Point", "coordinates": [-64.2973235133589, -31.295475811749384]}, "type": "Feature", "properties": {"establecim": "ESC.PROV. J.DE SAN MARTIN", "overall_total": 3536, "fake_id": "3654-3666", "seccion": "3", "circuito": "00041", "votos": {"217": 148, "512": 502, "47": 105, "191": 789, "9005": 36, "514": 116, "9006": 0, "3": 151, "9004": 32, "9003": 2, "505": 348, "503": 818, "501": 489}, "direccion": "GOYCOECHEA 150"}}, {"geometry": {"type": "Point", "coordinates": [-64.29538380692374, -31.29271683944505]}, "type": "Feature", "properties": {"establecim": "INST GRAL S.MARTIN/17 DE AGOST", "overall_total": 7785, "fake_id": "3687-3715", "seccion": "3", "circuito": "00041", "votos": {"217": 350, "512": 1063, "47": 266, "191": 1674, "9005": 125, "514": 262, "9006": 4, "3": 349, "9004": 81, "9003": 7, "505": 795, "503": 1707, "501": 1102}, "direccion": "25 DE MAYO ESQ. TABLADA 0"}}, {"geometry": {"type": "Point", "coordinates": [-64.3056018139397, -31.302162465815798]}, "type": "Feature", "properties": {"establecim": "INSTITUTO NTA.SRA. DE LUJAN", "overall_total": 2422, "fake_id": "3716-3725", "seccion": "3", "circuito": "00041", "votos": {"217": 101, "512": 340, "47": 69, "191": 549, "9005": 36, "514": 63, "9006": 2, "3": 128, "9004": 25, "9003": 0, "505": 243, "503": 535, "501": 331}, "direccion": "AV.SAN MARTIN 1070"}}, {"geometry": {"type": "Point", "coordinates": [-64.29854445509086, -31.297142536333908]}, "type": "Feature", "properties": {"establecim": "INSTITUTO PAULA A.DE SARMIENTO", "overall_total": 1895, "fake_id": "3679-3686", "seccion": "3", "circuito": "00041", "votos": {"217": 100, "512": 228, "47": 66, "191": 411, "9005": 32, "514": 73, "9006": 0, "3": 95, "9004": 14, "9003": 0, "505": 183, "503": 423, "501": 270}, "direccion": "LAPRIDA/GONZALEZ"}}, {"geometry": {"type": "Point", "coordinates": [-65.05273169999992, -30.7943682]}, "type": "Feature", "properties": {"establecim": "ESCUELA PROV.M. MORENO", "overall_total": 440, "fake_id": "3756-3757", "seccion": "4", "circuito": "00042", "votos": {"217": 1, "512": 310, "47": 1, "191": 84, "9005": 2, "514": 3, "9006": 0, "3": 3, "9004": 8, "9003": 0, "505": 1, "503": 7, "501": 20}, "direccion": "PUBLICA S/N"}}, {"geometry": {"type": "Point", "coordinates": [-64.80669199794835, -30.72613330891401]}, "type": "Feature", "properties": {"establecim": "ESC.E. BAVIO", "overall_total": 3101, "fake_id": "3791-3803", "seccion": "4", "circuito": "00044", "votos": {"217": 38, "512": 922, "47": 22, "191": 700, "9005": 53, "514": 63, "9006": 0, "3": 72, "9004": 52, "9003": 0, "505": 107, "503": 302, "501": 770}, "direccion": "PELLEGRINI 180"}}, {"geometry": {"type": "Point", "coordinates": [-64.80925632938687, -30.723894447074994]}, "type": "Feature", "properties": {"establecim": "IPEM 273 M. BELGRANO", "overall_total": 3034, "fake_id": "3820-3832", "seccion": "4", "circuito": "00044", "votos": {"217": 28, "512": 866, "47": 25, "191": 750, "9005": 47, "514": 62, "9006": 0, "3": 80, "9004": 42, "9003": 0, "505": 100, "503": 245, "501": 789}, "direccion": "PELLEGRINI 445"}}, {"geometry": {"type": "Point", "coordinates": [-64.87718982779995, -30.67213697700003]}, "type": "Feature", "properties": {"establecim": "ESC PROV MANUEL BELGRANO", "overall_total": 465, "fake_id": "3835-3837", "seccion": "4", "circuito": "00045", "votos": {"217": 1, "512": 114, "47": 1, "191": 213, "9005": 3, "514": 12, "9006": 0, "3": 5, "9004": 16, "9003": 0, "505": 9, "503": 13, "501": 78}, "direccion": "PUBLICA S/N"}}, {"geometry": {"type": "Point", "coordinates": [-65.05949830269998, -30.482881140200018]}, "type": "Feature", "properties": {"establecim": "ESC PROV GRAL SAN MARTIN", "overall_total": 298, "fake_id": "3838-3840", "seccion": "4", "circuito": "00046", "votos": {"217": 1, "512": 145, "47": 1, "191": 55, "9005": 1, "514": 4, "9006": 0, "3": 2, "9004": 5, "9003": 0, "505": 0, "503": 11, "501": 73}, "direccion": "PUBLICA S/N"}}, {"geometry": {"type": "Point", "coordinates": [-65.26128100819999, -30.662183210500025]}, "type": "Feature", "properties": {"establecim": "ESC PROV JOSE MARIA PAZ", "overall_total": 63, "fake_id": "3842-3842", "seccion": "4", "circuito": "00047", "votos": {"217": 0, "512": 33, "47": 0, "191": 13, "9005": 0, "514": 0, "9006": 0, "3": 0, "9004": 0, "9003": 0, "505": 0, "503": 0, "501": 17}, "direccion": "PUBLICA S/N"}}, {"geometry": {"type": "Point", "coordinates": [-65.1028058, -31.0157259]}, "type": "Feature", "properties": {"establecim": "ESC PROV GRAL SAN MARTIN", "overall_total": 381, "fake_id": "3843-3844", "seccion": "4", "circuito": "00048", "votos": {"217": 0, "512": 224, "47": 1, "191": 99, "9005": 2, "514": 3, "9006": 0, "3": 1, "9004": 6, "9003": 0, "505": 6, "503": 13, "501": 26}, "direccion": "RUTA PROVINCIAL N\u00b015 S/N"}}, {"geometry": {"type": "Point", "coordinates": [-64.19257543242836, -31.447325429691922]}, "type": "Feature", "properties": {"establecim": "ESC ALMAFUERTE", "overall_total": 1914, "fake_id": "187-193", "seccion": "1", "circuito": "0004A", "votos": {"217": 75, "512": 229, "47": 78, "191": 463, "9005": 34, "514": 99, "9006": 0, "3": 148, "9004": 18, "9003": 0, "505": 255, "503": 280, "501": 235}, "direccion": "CHANETON 390 B\u00b0 SAN  FERNANDO"}}, {"geometry": {"type": "Point", "coordinates": [-64.19203211427016, -31.447445124041117]}, "type": "Feature", "properties": {"establecim": "ESC ALMAFUERTE", "overall_total": 1914, "fake_id": "187-193", "seccion": "1", "circuito": "0004A", "votos": {"217": 75, "512": 229, "47": 78, "191": 463, "9005": 34, "514": 99, "9006": 0, "3": 148, "9004": 18, "9003": 0, "505": 255, "503": 280, "501": 235}, "direccion": "CHANETON 390 B\u00b0 SAN  FERNANDO"}}, {"geometry": {"type": "Point", "coordinates": [-64.19701147115042, -31.445612315473518]}, "type": "Feature", "properties": {"establecim": "ESC COM R ECHEGOYEN", "overall_total": 2193, "fake_id": "194-201", "seccion": "1", "circuito": "0004A", "votos": {"217": 88, "512": 265, "47": 73, "191": 482, "9005": 28, "514": 118, "9006": 0, "3": 194, "9004": 11, "9003": 3, "505": 302, "503": 335, "501": 294}, "direccion": "J I DIAZ 200 B\u00b0 EJERCITO  ARGENTINO"}}, {"geometry": {"type": "Point", "coordinates": [-64.2004484330247, -31.465033509762456]}, "type": "Feature", "properties": {"establecim": "ESC ERNESTO BANCALARI", "overall_total": 1915, "fake_id": "180-186", "seccion": "1", "circuito": "0004A", "votos": {"217": 74, "512": 285, "47": 56, "191": 396, "9005": 16, "514": 104, "9006": 1, "3": 156, "9004": 11, "9003": 0, "505": 258, "503": 311, "501": 247}, "direccion": "MONTERROSO 4597 B\u00b0 ARTIGAS"}}, {"geometry": {"type": "Point", "coordinates": [-64.19758160866344, -31.453783301775474]}, "type": "Feature", "properties": {"establecim": "ESC SAN FRANCISCO DE ASIS", "overall_total": 7491, "fake_id": "202-229", "seccion": "1", "circuito": "0004A", "votos": {"217": 300, "512": 1079, "47": 248, "191": 1571, "9005": 103, "514": 424, "9006": 4, "3": 602, "9004": 53, "9003": 4, "505": 988, "503": 1124, "501": 991}, "direccion": "GUARDADO 184 B\u00b0LAS FLORES"}}, {"geometry": {"type": "Point", "coordinates": [-64.17984559658971, -31.450574483184983]}, "type": "Feature", "properties": {"establecim": "COL NICOLAS BERROTARAN", "overall_total": 3521, "fake_id": "262-274", "seccion": "1", "circuito": "0004B", "votos": {"217": 174, "512": 423, "47": 146, "191": 853, "9005": 66, "514": 164, "9006": 0, "3": 199, "9004": 22, "9003": 0, "505": 396, "503": 666, "501": 412}, "direccion": "ELIAS YOFRE 1095 - B\u00b0 JARDIN"}}, {"geometry": {"type": "Point", "coordinates": [-64.17159864018444, -31.44756649537087]}, "type": "Feature", "properties": {"establecim": "ESC ING MASJOAN", "overall_total": 2428, "fake_id": "252-261", "seccion": "1", "circuito": "0004B", "votos": {"217": 104, "512": 290, "47": 90, "191": 556, "9005": 44, "514": 110, "9006": 1, "3": 144, "9004": 21, "9003": 1, "505": 307, "503": 484, "501": 276}, "direccion": "P.L.DE CABRERA ESQ.TANTI B\u00b0V.  REVOL"}}, {"geometry": {"type": "Point", "coordinates": [-64.17485175773096, -31.454430758721706]}, "type": "Feature", "properties": {"establecim": "INST EDUC NTRA SE\u00d1ORA", "overall_total": 5901, "fake_id": "230-251", "seccion": "1", "circuito": "0004B", "votos": {"217": 314, "512": 677, "47": 230, "191": 1407, "9005": 66, "514": 280, "9006": 1, "3": 318, "9004": 52, "9003": 0, "505": 659, "503": 1199, "501": 698}, "direccion": "INCA MANCO 3450 - B\u00b0JARDIN  ESPINOSA"}}, {"geometry": {"type": "Point", "coordinates": [-64.20379101077913, -31.471636383623594]}, "type": "Feature", "properties": {"establecim": "ESC L SUAREZ DE FIGUEROA", "overall_total": 1337, "fake_id": "275-279", "seccion": "1", "circuito": "0004C", "votos": {"217": 37, "512": 229, "47": 95, "191": 233, "9005": 24, "514": 55, "9006": 1, "3": 139, "9004": 15, "9003": 0, "505": 147, "503": 199, "501": 163}, "direccion": "DEFENSA S/N\u00b0 LA HUERTILLA"}}, {"geometry": {"type": "Point", "coordinates": [-64.19363826094596, -31.476700210242754]}, "type": "Feature", "properties": {"establecim": "ESC SAN JOSE DE CALASANZ", "overall_total": 1903, "fake_id": "280-286", "seccion": "1", "circuito": "0004C", "votos": {"217": 48, "512": 324, "47": 122, "191": 354, "9005": 50, "514": 108, "9006": 1, "3": 153, "9004": 21, "9003": 0, "505": 221, "503": 309, "501": 192}, "direccion": "PIZARRO ESQ. NIVOLI"}}, {"geometry": {"type": "Point", "coordinates": [-64.16871427646277, -31.490188806926312]}, "type": "Feature", "properties": {"establecim": "COL VILLA EUCARISTICA", "overall_total": 1260, "fake_id": "287-291", "seccion": "1", "circuito": "0004D", "votos": {"217": 53, "512": 150, "47": 96, "191": 290, "9005": 9, "514": 43, "9006": 0, "3": 59, "9004": 10, "9003": 0, "505": 98, "503": 346, "501": 106}, "direccion": "CNO A SAN CARLOS KM.5 1/2"}}, {"geometry": {"type": "Point", "coordinates": [-64.186065743196, -31.496201053320785]}, "type": "Feature", "properties": {"establecim": "NSC.OSCAR RAUL MALVASIO", "overall_total": 1152, "fake_id": "297-302", "seccion": "1", "circuito": "0004F", "votos": {"217": 23, "512": 417, "47": 15, "191": 104, "9005": 14, "514": 44, "9006": 0, "3": 140, "9004": 20, "9003": 0, "505": 59, "503": 115, "501": 201}, "direccion": "MANZANA 49 B\u00b0 C.OBISPO  ANGELELLI"}}, {"geometry": {"type": "Point", "coordinates": [-64.93142359822171, -30.64135357585006]}, "type": "Feature", "properties": {"establecim": "ESCUELA M. GUEMES", "overall_total": 640, "fake_id": "3846-3848", "seccion": "4", "circuito": "00050", "votos": {"217": 3, "512": 219, "47": 6, "191": 277, "9005": 7, "514": 9, "9006": 1, "3": 11, "9004": 20, "9003": 0, "505": 7, "503": 11, "501": 69}, "direccion": "MEDIA NARANJA"}}, {"geometry": {"type": "Point", "coordinates": [-65.1906047, -30.76681179999998]}, "type": "Feature", "properties": {"establecim": "ESCUELA ANTARTIDA ARGENTINA", "overall_total": 462, "fake_id": "3851-3853", "seccion": "4", "circuito": "00051", "votos": {"217": 1, "512": 169, "47": 2, "191": 166, "9005": 3, "514": 2, "9006": 0, "3": 6, "9004": 4, "9003": 0, "505": 6, "503": 6, "501": 97}, "direccion": "PUBLICA 0"}}, {"geometry": {"type": "Point", "coordinates": [-64.63735783979993, -30.78313392590001]}, "type": "Feature", "properties": {"establecim": "ESC PROV PTE ROQUE SAENZ PE\u00d1A", "overall_total": 1455, "fake_id": "3859-3864", "seccion": "4", "circuito": "00054", "votos": {"217": 44, "512": 283, "47": 25, "191": 223, "9005": 35, "514": 40, "9006": 0, "3": 25, "9004": 14, "9003": 0, "505": 140, "503": 70, "501": 556}, "direccion": "LIBERTAD 1043"}}, {"geometry": {"type": "Point", "coordinates": [-65.385460000213, -30.637199996109867]}, "type": "Feature", "properties": {"establecim": "ESC.PROV.B.RIVADAVIA", "overall_total": 1615, "fake_id": "3866-3873", "seccion": "4", "circuito": "00055", "votos": {"217": 3, "512": 313, "47": 4, "191": 669, "9005": 14, "514": 19, "9006": 1, "3": 11, "9004": 27, "9003": 1, "505": 10, "503": 30, "501": 513}, "direccion": "AVDA. MALVINAS ARGENTINAS  0"}}, {"geometry": {"type": "Point", "coordinates": [-64.98239308315581, -30.8594187908139]}, "type": "Feature", "properties": {"establecim": "E.N.E.T. N\u00b01", "overall_total": 1247, "fake_id": "3887-3891", "seccion": "4", "circuito": "00056", "votos": {"217": 17, "512": 393, "47": 15, "191": 504, "9005": 22, "514": 17, "9006": 1, "3": 14, "9004": 26, "9003": 0, "505": 30, "503": 73, "501": 135}, "direccion": "JUAN BAUTISTA ALBERDI 2200"}}, {"geometry": {"type": "Point", "coordinates": [-65.01161186267791, -30.84602487778934]}, "type": "Feature", "properties": {"establecim": "ESC NICOLAS AVELLANEDA", "overall_total": 796, "fake_id": "3892-3894", "seccion": "4", "circuito": "00056", "votos": {"217": 11, "512": 272, "47": 10, "191": 289, "9005": 28, "514": 11, "9006": 0, "3": 11, "9004": 9, "9003": 11, "505": 19, "503": 50, "501": 75}, "direccion": "DEAN FUNES ESQ CORRIENTES"}}, {"geometry": {"type": "Point", "coordinates": [-64.98681697056809, -30.85622280956618]}, "type": "Feature", "properties": {"establecim": "ESC.PADRE B.DE LAS CASAS", "overall_total": 2060, "fake_id": "3875-3882", "seccion": "4", "circuito": "00056", "votos": {"217": 15, "512": 742, "47": 28, "191": 722, "9005": 34, "514": 35, "9006": 1, "3": 30, "9004": 36, "9003": 1, "505": 40, "503": 144, "501": 232}, "direccion": "JOSE IGNACIO PERALTA 249"}}, {"geometry": {"type": "Point", "coordinates": [-64.98681697056809, -30.85622280956618]}, "type": "Feature", "properties": {"establecim": "INSTITUTO SANTO DOMINGO", "overall_total": 1015, "fake_id": "3883-3886", "seccion": "4", "circuito": "00056", "votos": {"217": 9, "512": 373, "47": 7, "191": 388, "9005": 12, "514": 9, "9006": 0, "3": 13, "9004": 18, "9003": 10, "505": 21, "503": 51, "501": 104}, "direccion": "SOTO"}}, {"geometry": {"type": "Point", "coordinates": [-65.23782816669994, -30.746871224499994]}, "type": "Feature", "properties": {"establecim": "ESC.PROV.J.J.CASTELLI", "overall_total": 458, "fake_id": "3895-3896", "seccion": "4", "circuito": "00057", "votos": {"217": 3, "512": 272, "47": 2, "191": 88, "9005": 0, "514": 5, "9006": 0, "3": 5, "9004": 8, "9003": 0, "505": 6, "503": 9, "501": 60}, "direccion": "PUBLICA 0"}}, {"geometry": {"type": "Point", "coordinates": [-64.11350580082623, -31.427667411199877]}, "type": "Feature", "properties": {"establecim": "ELENA LOPEZ LALLANA", "overall_total": 2196, "fake_id": "349-357", "seccion": "1", "circuito": "0005A", "votos": {"217": 41, "512": 420, "47": 53, "191": 266, "9005": 67, "514": 128, "9006": 0, "3": 268, "9004": 39, "9003": 0, "505": 210, "503": 333, "501": 371}, "direccion": "AGUSTIN GARZON 5600"}}, {"geometry": {"type": "Point", "coordinates": [-64.1150773061173, -31.424788501903688]}, "type": "Feature", "properties": {"establecim": "ESC MUNICIPAL A GASTALDI", "overall_total": 1613, "fake_id": "343-348", "seccion": "1", "circuito": "0005A", "votos": {"217": 32, "512": 307, "47": 39, "191": 163, "9005": 67, "514": 86, "9006": 0, "3": 203, "9004": 24, "9003": 0, "505": 174, "503": 251, "501": 267}, "direccion": "S JERONIMO 5500/ALMAGRO  COL LOLA"}}, {"geometry": {"type": "Point", "coordinates": [-64.1211572085314, -31.444325707952313]}, "type": "Feature", "properties": {"establecim": "ESC 9 DE JULIO", "overall_total": 1574, "fake_id": "358-363", "seccion": "1", "circuito": "0005B", "votos": {"217": 65, "512": 187, "47": 66, "191": 370, "9005": 33, "514": 66, "9006": 0, "3": 141, "9004": 4, "9003": 0, "505": 214, "503": 247, "501": 181}, "direccion": "JOSE A CABRERA 4717 B\u00b0DEAN  FUNES"}}, {"geometry": {"type": "Point", "coordinates": [-64.12664649592612, -31.439557519764797]}, "type": "Feature", "properties": {"establecim": "ESC JUAN M DE PUEYRREDON", "overall_total": 2208, "fake_id": "389-396", "seccion": "1", "circuito": "0005C", "votos": {"217": 87, "512": 310, "47": 87, "191": 444, "9005": 49, "514": 115, "9006": 2, "3": 219, "9004": 17, "9003": 1, "505": 274, "503": 354, "501": 249}, "direccion": "ANCASTI 4555 B\u00b0EMPALME"}}, {"geometry": {"type": "Point", "coordinates": [-64.14008081627796, -31.428503251042027]}, "type": "Feature", "properties": {"establecim": "ESC PROVINCIA DE LA RIOJA", "overall_total": 3526, "fake_id": "364-376", "seccion": "1", "circuito": "0005C", "votos": {"217": 141, "512": 499, "47": 115, "191": 655, "9005": 65, "514": 219, "9006": 4, "3": 326, "9004": 33, "9003": 7, "505": 492, "503": 564, "501": 406}, "direccion": "JUNIN 3480 B\u00b0EMPALME"}}, {"geometry": {"type": "Point", "coordinates": [-64.26091630283629, -31.312970001276692]}, "type": "Feature", "properties": {"establecim": "INST SEC EMPALME GONZALEZ LACA", "overall_total": 1370, "fake_id": "397-401", "seccion": "1", "circuito": "0005C", "votos": {"217": 43, "512": 175, "47": 39, "191": 263, "9005": 24, "514": 74, "9006": 1, "3": 120, "9004": 14, "9003": 0, "505": 197, "503": 245, "501": 175}, "direccion": "LAS ARRIAS 4043 B\u00b0EMPALME"}}, {"geometry": {"type": "Point", "coordinates": [-64.14003650389381, -31.407988976642805]}, "type": "Feature", "properties": {"establecim": "ESC CANONIGO PI\u00d1ERO", "overall_total": 1293, "fake_id": "414-419", "seccion": "1", "circuito": "0005D", "votos": {"217": 23, "512": 229, "47": 39, "191": 193, "9005": 32, "514": 74, "9006": 0, "3": 127, "9004": 13, "9003": 0, "505": 131, "503": 151, "501": 281}, "direccion": "CAMPO LA RIBERA"}}, {"geometry": {"type": "Point", "coordinates": [-64.13922931858538, -31.412912974478964]}, "type": "Feature", "properties": {"establecim": "ESC MARTIN DE G\u00dcEMES", "overall_total": 2003, "fake_id": "420-427", "seccion": "1", "circuito": "0005D", "votos": {"217": 40, "512": 397, "47": 57, "191": 259, "9005": 32, "514": 106, "9006": 2, "3": 190, "9004": 29, "9003": 0, "505": 204, "503": 275, "501": 412}, "direccion": "OBPO CASTELLANOS 256  B\u00b0M\u00dcLLER"}}, {"geometry": {"type": "Point", "coordinates": [-64.13987838484364, -31.420491549076512]}, "type": "Feature", "properties": {"establecim": "IPEM 184-M.FRAGUEIRO", "overall_total": 2014, "fake_id": "436-443", "seccion": "1", "circuito": "0005D", "votos": {"217": 43, "512": 384, "47": 74, "191": 291, "9005": 32, "514": 100, "9006": 0, "3": 217, "9004": 23, "9003": 0, "505": 195, "503": 232, "501": 423}, "direccion": "OB.CASTELLANO 955,S.VICENTE"}}, {"geometry": {"type": "Point", "coordinates": [-64.11299697057571, -31.436095978393375]}, "type": "Feature", "properties": {"establecim": "ESC TTE GRAL P RICCHIERI", "overall_total": 2137, "fake_id": "444-451", "seccion": "1", "circuito": "0005E", "votos": {"217": 70, "512": 317, "47": 55, "191": 318, "9005": 70, "514": 158, "9006": 0, "3": 228, "9004": 12, "9003": 0, "505": 210, "503": 330, "501": 369}, "direccion": "BENJAMIN VIEL 2387 - B\u00b0V  BUSTOS"}}, {"geometry": {"type": "Point", "coordinates": [-64.11129404616058, -31.44085289457681]}, "type": "Feature", "properties": {"establecim": "IPEM 136 DR ALFREDO PALACIOS", "overall_total": 1305, "fake_id": "452-456", "seccion": "1", "circuito": "0005E", "votos": {"217": 29, "512": 199, "47": 35, "191": 195, "9005": 34, "514": 116, "9006": 0, "3": 126, "9004": 13, "9003": 7, "505": 174, "503": 210, "501": 167}, "direccion": "CALINGASTA 5800 (ESQ  TULUMBA)"}}, {"geometry": {"type": "Point", "coordinates": [-64.12179393832969, -31.41938439337228]}, "type": "Feature", "properties": {"establecim": "ESC M COOPERATIVISMO ARGENTINO", "overall_total": 3320, "fake_id": "457-468", "seccion": "1", "circuito": "0005F", "votos": {"217": 51, "512": 885, "47": 83, "191": 398, "9005": 112, "514": 141, "9006": 4, "3": 391, "9004": 41, "9003": 0, "505": 245, "503": 367, "501": 602}, "direccion": "M BRAVO Y PJE.MATHEUB\u00b0  RENACIMIENTO"}}, {"geometry": {"type": "Point", "coordinates": [-64.15011575796356, -31.421651202262833]}, "type": "Feature", "properties": {"establecim": "ESC A F AVALOS", "overall_total": 1780, "fake_id": "511-517", "seccion": "1", "circuito": "0005G", "votos": {"217": 76, "512": 236, "47": 61, "191": 355, "9005": 49, "514": 106, "9006": 0, "3": 135, "9004": 15, "9003": 0, "505": 257, "503": 243, "501": 247}, "direccion": "SARGENTO CABRAL 1153 B\u00b0SAN  VICENTE"}}, {"geometry": {"type": "Point", "coordinates": [-64.15463567763274, -31.420592290369196]}, "type": "Feature", "properties": {"establecim": "ESC DGO F SARMIENTO", "overall_total": 3046, "fake_id": "478-490", "seccion": "1", "circuito": "0005G", "votos": {"217": 126, "512": 396, "47": 97, "191": 597, "9005": 55, "514": 161, "9006": 3, "3": 237, "9004": 38, "9003": 0, "505": 462, "503": 449, "501": 425}, "direccion": "LOPEZ Y PLANES 2253 B\u00b0SAN  VICENTE"}}, {"geometry": {"type": "Point", "coordinates": [-64.15807076684591, -31.425925747872895]}, "type": "Feature", "properties": {"establecim": "ESC MARIA IGNACIA NAVARRO DE L", "overall_total": 2209, "fake_id": "502-510", "seccion": "1", "circuito": "0005G", "votos": {"217": 92, "512": 303, "47": 83, "191": 412, "9005": 44, "514": 89, "9006": 0, "3": 183, "9004": 19, "9003": 0, "505": 338, "503": 365, "501": 281}, "direccion": "CORRIENTES 2006 B\u00b0SAN  VICENTE"}}, {"geometry": {"type": "Point", "coordinates": [-64.16422977060218, -31.423972280248165]}, "type": "Feature", "properties": {"establecim": "ESC PTE RIVADAVIA", "overall_total": 2222, "fake_id": "491-501", "seccion": "1", "circuito": "0005G", "votos": {"217": 88, "512": 305, "47": 74, "191": 449, "9005": 52, "514": 109, "9006": 0, "3": 171, "9004": 17, "9003": 16, "505": 338, "503": 343, "501": 260}, "direccion": "AGUSTIN GARZON 1563 B\u00b0SAN  VICENTE"}}, {"geometry": {"type": "Point", "coordinates": [-64.14531067035905, -31.422191713973163]}, "type": "Feature", "properties": {"establecim": "ESC SANTA MARGARITA DE CORTONA", "overall_total": 2249, "fake_id": "469-477", "seccion": "1", "circuito": "0005G", "votos": {"217": 87, "512": 299, "47": 74, "191": 460, "9005": 54, "514": 124, "9006": 0, "3": 173, "9004": 21, "9003": 0, "505": 313, "503": 347, "501": 297}, "direccion": "LOPEZ Y PLANES 2936 B\u00b0SAN  VICENTE"}}, {"geometry": {"type": "Point", "coordinates": [-64.10794929710535, -31.430106863987408]}, "type": "Feature", "properties": {"establecim": "ESC. MADRE MARIA DEL TRANSITO", "overall_total": 1202, "fake_id": "518-522", "seccion": "1", "circuito": "0005H", "votos": {"217": 26, "512": 257, "47": 29, "191": 99, "9005": 26, "514": 65, "9006": 0, "3": 139, "9004": 15, "9003": 0, "505": 76, "503": 128, "501": 342}, "direccion": "MANZANA 7, B\u00b0 VILLA BOEDO"}}, {"geometry": {"type": "Point", "coordinates": [-64.10852740275855, -31.443804798352353]}, "type": "Feature", "properties": {"establecim": "ESCUELA HEROES DE MALVINAS", "overall_total": 1105, "fake_id": "523-526", "seccion": "1", "circuito": "0005I", "votos": {"217": 18, "512": 229, "47": 28, "191": 154, "9005": 15, "514": 56, "9006": 0, "3": 138, "9004": 10, "9003": 0, "505": 109, "503": 162, "501": 186}, "direccion": "CALLE PUBLICA S/N (CNO VILLA  POSSE)"}}, {"geometry": {"type": "Point", "coordinates": [-64.16457464625752, -31.413919880064643]}, "type": "Feature", "properties": {"establecim": "ESC NORMAL GARZON AGULLA", "overall_total": 4879, "fake_id": "568-586", "seccion": "1", "circuito": "0006C", "votos": {"217": 275, "512": 578, "47": 178, "191": 1223, "9005": 59, "514": 190, "9006": 4, "3": 232, "9004": 28, "9003": 1, "505": 670, "503": 819, "501": 622}, "direccion": "VIAMONTE 150 B\u00b0GRAL PAZ"}}, {"geometry": {"type": "Point", "coordinates": [-64.1655928741446, -31.41078512896411]}, "type": "Feature", "properties": {"establecim": "ESC RAMON J CARCANO", "overall_total": 3583, "fake_id": "554-567", "seccion": "1", "circuito": "0006C", "votos": {"217": 226, "512": 388, "47": 138, "191": 906, "9005": 61, "514": 139, "9006": 0, "3": 153, "9004": 20, "9003": 1, "505": 504, "503": 619, "501": 428}, "direccion": "VIAMONTE 446 B\u00b0GRAL.PAZ"}}, {"geometry": {"type": "Point", "coordinates": [-64.16524688452078, -31.418444732331828]}, "type": "Feature", "properties": {"establecim": "ESC GABRIELA MISTRAL", "overall_total": 2530, "fake_id": "587-596", "seccion": "1", "circuito": "0006D", "votos": {"217": 151, "512": 309, "47": 104, "191": 547, "9005": 35, "514": 101, "9006": 1, "3": 105, "9004": 15, "9003": 0, "505": 365, "503": 437, "501": 360}, "direccion": "LEONOR DE TEJEDA B\u00b0JUNIORS  1353"}}, {"geometry": {"type": "Point", "coordinates": [-64.15279738437474, -31.410288641311542]}, "type": "Feature", "properties": {"establecim": "ESC R G\u00dcIRALDES", "overall_total": 3102, "fake_id": "613-624", "seccion": "1", "circuito": "0006F", "votos": {"217": 109, "512": 659, "47": 94, "191": 466, "9005": 70, "514": 194, "9006": 2, "3": 275, "9004": 38, "9003": 0, "505": 362, "503": 429, "501": 404}, "direccion": "24 DE SETIEMBRE 2400  B\u00b0YAPEYU"}}, {"geometry": {"type": "Point", "coordinates": [-63.1638, -32.20011280000004]}, "type": "Feature", "properties": {"establecim": "ESC.PROV. A.ARGENTINA", "overall_total": 923, "fake_id": "3984-3987", "seccion": "6", "circuito": "00073", "votos": {"217": 8, "512": 350, "47": 5, "191": 130, "9005": 6, "514": 10, "9006": 0, "3": 8, "9004": 5, "9003": 1, "505": 2, "503": 94, "501": 304}, "direccion": "CORDOBA ESQ ANTARTIDA  ARGENTINA"}}, {"geometry": {"type": "Point", "coordinates": [-63.503903963034226, -32.360864067191045]}, "type": "Feature", "properties": {"establecim": "ESC.PROV.D.V.SARSFIELD", "overall_total": 1029, "fake_id": "3993-3996", "seccion": "6", "circuito": "00074", "votos": {"217": 23, "512": 160, "47": 1, "191": 496, "9005": 4, "514": 12, "9006": 1, "3": 7, "9004": 34, "9003": 0, "505": 21, "503": 89, "501": 181}, "direccion": "RIVADAVIA 410"}}, {"geometry": {"type": "Point", "coordinates": [-63.503903963034226, -32.360864067191045]}, "type": "Feature", "properties": {"establecim": "INST. SEC. COM. SAN JOSE", "overall_total": 1314, "fake_id": "3988-3992", "seccion": "6", "circuito": "00074", "votos": {"217": 46, "512": 229, "47": 11, "191": 624, "9005": 12, "514": 10, "9006": 0, "3": 12, "9004": 35, "9003": 0, "505": 29, "503": 114, "501": 192}, "direccion": "ARROYO CABRAL"}}, {"geometry": {"type": "Point", "coordinates": [-63.24318089999994, -32.661211899999984]}, "type": "Feature", "properties": {"establecim": "ESC.PROV.GRAL SAN MARTIN", "overall_total": 772, "fake_id": "3997-3999", "seccion": "6", "circuito": "00075", "votos": {"217": 9, "512": 398, "47": 3, "191": 214, "9005": 9, "514": 14, "9006": 0, "3": 4, "9004": 7, "9003": 0, "505": 8, "503": 51, "501": 55}, "direccion": "25 DE MAYO 55"}}, {"geometry": {"type": "Point", "coordinates": [-63.27851010519998, -33.07823783149996]}, "type": "Feature", "properties": {"establecim": "ESC PROV M R DE LA TORRE", "overall_total": 770, "fake_id": "4000-4002", "seccion": "6", "circuito": "00076", "votos": {"217": 12, "512": 151, "47": 5, "191": 418, "9005": 1, "514": 8, "9006": 0, "3": 6, "9004": 11, "9003": 0, "505": 15, "503": 58, "501": 85}, "direccion": "DIESCISEIS 582"}}, {"geometry": {"type": "Point", "coordinates": [-63.129869571076284, -32.909610458356674]}, "type": "Feature", "properties": {"establecim": "ESC.PROV. 12 DE OCTUBRE", "overall_total": 1439, "fake_id": "4008-4012", "seccion": "6", "circuito": "00077", "votos": {"217": 13, "512": 191, "47": 9, "191": 499, "9005": 16, "514": 20, "9006": 0, "3": 15, "9004": 25, "9003": 0, "505": 19, "503": 89, "501": 543}, "direccion": "ETRURIA"}}, {"geometry": {"type": "Point", "coordinates": [-63.129869571076284, -32.909610458356674]}, "type": "Feature", "properties": {"establecim": "INSTITUTO SEC. GRAL PAZ", "overall_total": 1474, "fake_id": "4003-4007", "seccion": "6", "circuito": "00077", "votos": {"217": 26, "512": 198, "47": 18, "191": 590, "9005": 13, "514": 11, "9006": 0, "3": 5, "9004": 18, "9003": 0, "505": 31, "503": 109, "501": 455}, "direccion": "BV.SRMIENTO Y S.NICOLA 390"}}, {"geometry": {"type": "Point", "coordinates": [-63.2412265290914, -32.802119334933266]}, "type": "Feature", "properties": {"establecim": "ESC ESTEBAN ECHEVERRIA", "overall_total": 1075, "fake_id": "4013-4016", "seccion": "6", "circuito": "00078", "votos": {"217": 14, "512": 380, "47": 8, "191": 289, "9005": 18, "514": 16, "9006": 0, "3": 22, "9004": 24, "9003": 0, "505": 7, "503": 121, "501": 176}, "direccion": "GENERAL PAZ 556"}}, {"geometry": {"type": "Point", "coordinates": [-63.123950200850246, -32.040239961052016]}, "type": "Feature", "properties": {"establecim": "ESC.PROV. 25 DE MAYO", "overall_total": 2077, "fake_id": "4017-4024", "seccion": "6", "circuito": "00079", "votos": {"217": 33, "512": 590, "47": 14, "191": 597, "9005": 19, "514": 48, "9006": 0, "3": 21, "9004": 52, "9003": 0, "505": 47, "503": 233, "501": 423}, "direccion": "LA PLAYOSA"}}, {"geometry": {"type": "Point", "coordinates": [-64.18171848768465, -31.39106509121239]}, "type": "Feature", "properties": {"establecim": "ESC MANUEL LUCERO", "overall_total": 4710, "fake_id": "656-673", "seccion": "1", "circuito": "0007B", "votos": {"217": 214, "512": 554, "47": 122, "191": 1068, "9005": 83, "514": 238, "9006": 0, "3": 283, "9004": 44, "9003": 0, "505": 597, "503": 789, "501": 718}, "direccion": "MANUEL LUCERO 560 B\u00b0ALTA  CORDOBA"}}, {"geometry": {"type": "Point", "coordinates": [-64.18581558652448, -31.386574561603886]}, "type": "Feature", "properties": {"establecim": "ESC PCIA DE ENTRE RIOS", "overall_total": 2853, "fake_id": "674-684", "seccion": "1", "circuito": "0007B", "votos": {"217": 133, "512": 334, "47": 88, "191": 611, "9005": 42, "514": 130, "9006": 3, "3": 195, "9004": 19, "9003": 0, "505": 405, "503": 454, "501": 439}, "direccion": "TRAFALGAR 875 B\u00b0ALTA  CORDOBA"}}, {"geometry": {"type": "Point", "coordinates": [-64.18173059580508, -31.394679958709357]}, "type": "Feature", "properties": {"establecim": "INST CORAZON DE MARIA", "overall_total": 3411, "fake_id": "685-697", "seccion": "1", "circuito": "0007B", "votos": {"217": 175, "512": 399, "47": 90, "191": 736, "9005": 80, "514": 172, "9006": 0, "3": 219, "9004": 27, "9003": 6, "505": 486, "503": 524, "501": 497}, "direccion": "A DEL VISO 445 B\u00b0ALTA  CORDOBA"}}, {"geometry": {"type": "Point", "coordinates": [-64.18250631018488, -31.38933359165931]}, "type": "Feature", "properties": {"establecim": "INST MANUEL LUCERO", "overall_total": 2890, "fake_id": "710-720", "seccion": "1", "circuito": "0007B", "votos": {"217": 143, "512": 401, "47": 67, "191": 575, "9005": 53, "514": 150, "9006": 2, "3": 176, "9004": 19, "9003": 0, "505": 437, "503": 467, "501": 400}, "direccion": "LAVALLEJA 2257 B\u00b0ALTA  CORDOBA"}}, {"geometry": {"type": "Point", "coordinates": [-64.18384326265222, -31.38767616123638]}, "type": "Feature", "properties": {"establecim": "INST NUESTRA MADRE DE LA MERCE", "overall_total": 3133, "fake_id": "698-709", "seccion": "1", "circuito": "0007B", "votos": {"217": 155, "512": 368, "47": 82, "191": 652, "9005": 42, "514": 173, "9006": 3, "3": 215, "9004": 29, "9003": 0, "505": 433, "503": 484, "501": 497}, "direccion": "M FRAGUEIRO B\u00b0ALTA CORDOBA  2400"}}, {"geometry": {"type": "Point", "coordinates": [-64.19003539626429, -31.39626222800122]}, "type": "Feature", "properties": {"establecim": "ESC PCIA DE FORMOSA", "overall_total": 1696, "fake_id": "732-738", "seccion": "1", "circuito": "0007D", "votos": {"217": 122, "512": 164, "47": 30, "191": 438, "9005": 13, "514": 81, "9006": 3, "3": 79, "9004": 17, "9003": 1, "505": 207, "503": 328, "501": 213}, "direccion": "RODRIGUEZ PE\u00d1A 1548  B\u00b0COFICO"}}, {"geometry": {"type": "Point", "coordinates": [-64.1827791519251, -31.4028711998413]}, "type": "Feature", "properties": {"establecim": "ESC PTE SARMIENTO", "overall_total": 2464, "fake_id": "722-731", "seccion": "1", "circuito": "0007D", "votos": {"217": 163, "512": 239, "47": 65, "191": 613, "9005": 37, "514": 103, "9006": 1, "3": 109, "9004": 21, "9003": 0, "505": 310, "503": 451, "501": 352}, "direccion": "R SAENZ PE\u00d1A 1212 B\u00b0COFICO"}}, {"geometry": {"type": "Point", "coordinates": [-64.18804935665528, -31.39629841639877]}, "type": "Feature", "properties": {"establecim": "ESC. GARCIA FAURE", "overall_total": 2196, "fake_id": "739-747", "seccion": "1", "circuito": "0007D", "votos": {"217": 126, "512": 258, "47": 58, "191": 515, "9005": 16, "514": 103, "9006": 0, "3": 113, "9004": 20, "9003": 0, "505": 315, "503": 401, "501": 271}, "direccion": "JERONIMO LUIS DE CABRERA  834"}}, {"geometry": {"type": "Point", "coordinates": [-64.19480522545643, -31.3638023682851]}, "type": "Feature", "properties": {"establecim": "ESC HONORATO LACONI", "overall_total": 3842, "fake_id": "748-761", "seccion": "1", "circuito": "0007E", "votos": {"217": 139, "512": 476, "47": 96, "191": 811, "9005": 69, "514": 252, "9006": 3, "3": 279, "9004": 22, "9003": 0, "505": 569, "503": 586, "501": 540}, "direccion": "T DE IROBI B\u00b0M DE  SOBREMONTE"}}, {"geometry": {"type": "Point", "coordinates": [-64.20419851069902, -31.36751651332893]}, "type": "Feature", "properties": {"establecim": "ESC PETER PAN", "overall_total": 3562, "fake_id": "762-775", "seccion": "1", "circuito": "0007E", "votos": {"217": 156, "512": 440, "47": 115, "191": 681, "9005": 75, "514": 222, "9006": 3, "3": 296, "9004": 35, "9003": 0, "505": 547, "503": 498, "501": 494}, "direccion": "P DE GUZMAN 131 B\u00b0M DE  SOBREMONTE"}}, {"geometry": {"type": "Point", "coordinates": [-64.19501394921168, -31.3634276218496]}, "type": "Feature", "properties": {"establecim": "J DE INF B.RIVADAVIA", "overall_total": 828, "fake_id": "776-778", "seccion": "1", "circuito": "0007E", "votos": {"217": 37, "512": 88, "47": 22, "191": 177, "9005": 7, "514": 57, "9006": 0, "3": 66, "9004": 8, "9003": 0, "505": 131, "503": 123, "501": 112}, "direccion": "NUFLO DE AGUILAR 541"}}, {"geometry": {"type": "Point", "coordinates": [-64.18693686549541, -31.366455983854266]}, "type": "Feature", "properties": {"establecim": "ESC ARTURO CAPDEVILA", "overall_total": 3279, "fake_id": "819-830", "seccion": "1", "circuito": "0007G", "votos": {"217": 135, "512": 471, "47": 90, "191": 570, "9005": 87, "514": 207, "9006": 0, "3": 318, "9004": 21, "9003": 0, "505": 431, "503": 474, "501": 475}, "direccion": "AVELLANEDA 4100  B\u00b0MFRAGUEIRO"}}, {"geometry": {"type": "Point", "coordinates": [-64.18220811593962, -31.368014035773083]}, "type": "Feature", "properties": {"establecim": "IPEM 199 \"JUAN EMILIO REMONDA\"", "overall_total": 1594, "fake_id": "847-852", "seccion": "1", "circuito": "0007G", "votos": {"217": 55, "512": 216, "47": 49, "191": 326, "9005": 34, "514": 75, "9006": 1, "3": 170, "9004": 6, "9003": 0, "505": 188, "503": 238, "501": 236}, "direccion": "SOSA REVELLO Y 15 DE  SEPTIEMBRE 590"}}, {"geometry": {"type": "Point", "coordinates": [-64.18693686549541, -31.366455983854266]}, "type": "Feature", "properties": {"establecim": "J DE INF ARTURO CAPDEVILA", "overall_total": 533, "fake_id": "843-844", "seccion": "1", "circuito": "0007G", "votos": {"217": 18, "512": 58, "47": 23, "191": 93, "9005": 14, "514": 29, "9006": 0, "3": 55, "9004": 5, "9003": 0, "505": 63, "503": 84, "501": 91}, "direccion": "AVELLANEDA 4100 B\u00b0M  FRAGUEIRO"}}, {"geometry": {"type": "Point", "coordinates": [-63.478286699999984, -32.542345599999976]}, "type": "Feature", "properties": {"establecim": "ESC.PROV.J.V.GONZALEZ", "overall_total": 498, "fake_id": "4025-4026", "seccion": "6", "circuito": "00080", "votos": {"217": 4, "512": 273, "47": 5, "191": 90, "9005": 0, "514": 8, "9006": 0, "3": 3, "9004": 4, "9003": 0, "505": 1, "503": 68, "501": 42}, "direccion": "9 DE JULIO 350"}}, {"geometry": {"type": "Point", "coordinates": [-63.23368666019999, -32.30450454299996]}, "type": "Feature", "properties": {"establecim": "ESC.PROV. ISLAS MALVINAS", "overall_total": 58, "fake_id": "4027-4027", "seccion": "6", "circuito": "00081", "votos": {"217": 7, "512": 14, "47": 1, "191": 11, "9005": 2, "514": 3, "9006": 0, "3": 0, "9004": 0, "9003": 0, "505": 1, "503": 7, "501": 12}, "direccion": "RUTA PROV N 158 0"}}, {"geometry": {"type": "Point", "coordinates": [-63.409349068799955, -32.612244258500006]}, "type": "Feature", "properties": {"establecim": "ESC PROV CMTE L PIEDRABUENA", "overall_total": 445, "fake_id": "4028-4029", "seccion": "6", "circuito": "00082", "votos": {"217": 4, "512": 48, "47": 2, "191": 145, "9005": 0, "514": 6, "9006": 0, "3": 0, "9004": 19, "9003": 0, "505": 5, "503": 35, "501": 181}, "direccion": "FELIPE LORENZATTI 875"}}, {"geometry": {"type": "Point", "coordinates": [-63.34053902759996, -32.7470387648]}, "type": "Feature", "properties": {"establecim": "ESC.PROV.D.F.SARMIENTO", "overall_total": 896, "fake_id": "4030-4033", "seccion": "6", "circuito": "00083", "votos": {"217": 19, "512": 339, "47": 11, "191": 207, "9005": 27, "514": 13, "9006": 0, "3": 38, "9004": 18, "9003": 0, "505": 14, "503": 120, "501": 90}, "direccion": "PASCO"}}, {"geometry": {"type": "Point", "coordinates": [-63.2488296, -32.527799199999976]}, "type": "Feature", "properties": {"establecim": "ESC PROV JOSE DE SAN MARTIN", "overall_total": 35, "fake_id": "4034-4034", "seccion": "6", "circuito": "00084", "votos": {"217": 0, "512": 7, "47": 0, "191": 12, "9005": 0, "514": 2, "9006": 0, "3": 0, "9004": 5, "9003": 0, "505": 0, "503": 4, "501": 5}, "direccion": "PUBLICA S/N"}}, {"geometry": {"type": "Point", "coordinates": [-62.930106799999955, -32.25004130000003]}, "type": "Feature", "properties": {"establecim": "ESC.PROV.M.GUEMES", "overall_total": 520, "fake_id": "4035-4036", "seccion": "6", "circuito": "00086", "votos": {"217": 10, "512": 118, "47": 1, "191": 238, "9005": 5, "514": 17, "9006": 0, "3": 5, "9004": 8, "9003": 0, "505": 17, "503": 53, "501": 48}, "direccion": "ANTONIO CONRERO 24"}}, {"geometry": {"type": "Point", "coordinates": [-63.434691302599965, -32.69466448719998]}, "type": "Feature", "properties": {"establecim": "ESC. A. CAPDEVILA", "overall_total": 1523, "fake_id": "4037-4042", "seccion": "6", "circuito": "00087", "votos": {"217": 31, "512": 524, "47": 18, "191": 483, "9005": 6, "514": 31, "9006": 0, "3": 20, "9004": 44, "9003": 0, "505": 35, "503": 185, "501": 146}, "direccion": "TICINO"}}, {"geometry": {"type": "Point", "coordinates": [-63.461953661239804, -32.2913386262478]}, "type": "Feature", "properties": {"establecim": "ESC.R.DE ESCALADA", "overall_total": 2317, "fake_id": "4043-4051", "seccion": "6", "circuito": "00088", "votos": {"217": 29, "512": 1124, "47": 8, "191": 435, "9005": 25, "514": 38, "9006": 0, "3": 23, "9004": 18, "9003": 0, "505": 69, "503": 295, "501": 253}, "direccion": "TIO PUJIO"}}, {"geometry": {"type": "Point", "coordinates": [-63.2492097782163, -32.41293132566267]}, "type": "Feature", "properties": {"establecim": "CENMA N\u00b0 96", "overall_total": 2165, "fake_id": "4239-4246", "seccion": "6", "circuito": "00089", "votos": {"217": 53, "512": 346, "47": 48, "191": 399, "9005": 39, "514": 59, "9006": 0, "3": 23, "9004": 21, "9003": 0, "505": 75, "503": 339, "501": 763}, "direccion": "SANTA FE 643"}}, {"geometry": {"type": "Point", "coordinates": [-63.24975375939299, -32.41230056533812]}, "type": "Feature", "properties": {"establecim": "ESC.COM.A.OCAMPO", "overall_total": 2967, "fake_id": "4200-4211", "seccion": "6", "circuito": "00089", "votos": {"217": 86, "512": 443, "47": 61, "191": 533, "9005": 52, "514": 69, "9006": 2, "3": 23, "9004": 41, "9003": 1, "505": 108, "503": 506, "501": 1042}, "direccion": "CATAMARCA 650"}}, {"geometry": {"type": "Point", "coordinates": [-63.246078927860836, -32.41781150734939]}, "type": "Feature", "properties": {"establecim": "ESC.DR. J.BIANCO", "overall_total": 3231, "fake_id": "4064-4075", "seccion": "6", "circuito": "00089", "votos": {"217": 93, "512": 511, "47": 64, "191": 638, "9005": 45, "514": 62, "9006": 1, "3": 25, "9004": 35, "9003": 1, "505": 137, "503": 464, "501": 1155}, "direccion": "BELGRANO 302"}}, {"geometry": {"type": "Point", "coordinates": [-63.24345985132633, -32.40928987722655]}, "type": "Feature", "properties": {"establecim": "ESC.J.INGENIEROS", "overall_total": 3275, "fake_id": "4226-4238", "seccion": "6", "circuito": "00089", "votos": {"217": 106, "512": 515, "47": 50, "191": 629, "9005": 65, "514": 65, "9006": 0, "3": 37, "9004": 29, "9003": 0, "505": 132, "503": 544, "501": 1103}, "direccion": "SANTA FE 1271"}}, {"geometry": {"type": "Point", "coordinates": [-63.24525059029585, -32.40411656600996]}, "type": "Feature", "properties": {"establecim": "ESC.REP.DEL PARAGUAY", "overall_total": 2747, "fake_id": "4076-4085", "seccion": "6", "circuito": "00089", "votos": {"217": 100, "512": 444, "47": 62, "191": 639, "9005": 36, "514": 58, "9006": 1, "3": 22, "9004": 26, "9003": 1, "505": 108, "503": 501, "501": 749}, "direccion": "CHILE 565"}}, {"geometry": {"type": "Point", "coordinates": [-63.25421926827582, -32.413095660309445]}, "type": "Feature", "properties": {"establecim": "ESCUELA J.MARMOL", "overall_total": 2751, "fake_id": "4054-4063", "seccion": "6", "circuito": "00089", "votos": {"217": 158, "512": 386, "47": 39, "191": 464, "9005": 40, "514": 56, "9006": 0, "3": 27, "9004": 34, "9003": 0, "505": 111, "503": 445, "501": 991}, "direccion": "NAC. UNIDAS 385"}}, {"geometry": {"type": "Point", "coordinates": [-63.2495, -32.4049]}, "type": "Feature", "properties": {"establecim": "INST.LA SANTISIMA TRINIDAD", "overall_total": 7026, "fake_id": "4116-4141", "seccion": "6", "circuito": "00089", "votos": {"217": 230, "512": 1043, "47": 114, "191": 1325, "9005": 117, "514": 175, "9006": 1, "3": 92, "9004": 89, "9003": 0, "505": 306, "503": 1144, "501": 2390}, "direccion": "SARSFIELD 1072"}}, {"geometry": {"type": "Point", "coordinates": [-63.1481429000128, -32.46656179504918]}, "type": "Feature", "properties": {"establecim": "INSTITUTO DEL ROSARIO", "overall_total": 7870, "fake_id": "4086-4115", "seccion": "6", "circuito": "00089", "votos": {"217": 231, "512": 1199, "47": 146, "191": 1499, "9005": 135, "514": 184, "9006": 9, "3": 88, "9004": 96, "9003": 0, "505": 337, "503": 1277, "501": 2669}, "direccion": "BV.ALVEAR 68"}}, {"geometry": {"type": "Point", "coordinates": [-63.2471, -32.4117]}, "type": "Feature", "properties": {"establecim": "INSTITUTO SAN ANTONIO", "overall_total": 1091, "fake_id": "4247-4250", "seccion": "6", "circuito": "00089", "votos": {"217": 35, "512": 153, "47": 26, "191": 232, "9005": 20, "514": 22, "9006": 0, "3": 8, "9004": 9, "9003": 7, "505": 40, "503": 185, "501": 354}, "direccion": "RUCCI 141"}}, {"geometry": {"type": "Point", "coordinates": [-63.242728109821506, -32.419792324513935]}, "type": "Feature", "properties": {"establecim": "IPEM N\u00b0275 EX COLEGIO NACIONAL", "overall_total": 3796, "fake_id": "4185-4199", "seccion": "6", "circuito": "00089", "votos": {"217": 114, "512": 587, "47": 58, "191": 765, "9005": 65, "514": 89, "9006": 4, "3": 44, "9004": 46, "9003": 5, "505": 154, "503": 568, "501": 1297}, "direccion": "S.DEL ESTERO 618"}}, {"geometry": {"type": "Point", "coordinates": [-64.1183667154273, -31.387972755871868]}, "type": "Feature", "properties": {"establecim": "ESC EMILIO E SANCHEZ", "overall_total": 2903, "fake_id": "855-865", "seccion": "1", "circuito": "0008A", "votos": {"217": 99, "512": 595, "47": 126, "191": 614, "9005": 36, "514": 120, "9006": 3, "3": 235, "9004": 33, "9003": 1, "505": 314, "503": 386, "501": 341}, "direccion": "BARRIENTOS Y HERRERA B\u00b0AMPL  PALMAR"}}, {"geometry": {"type": "Point", "coordinates": [-64.16588208510126, -31.3984379671678]}, "type": "Feature", "properties": {"establecim": "ESC DEAN FUNES", "overall_total": 2547, "fake_id": "881-890", "seccion": "1", "circuito": "0008B", "votos": {"217": 90, "512": 405, "47": 80, "191": 515, "9005": 61, "514": 140, "9006": 4, "3": 190, "9004": 16, "9003": 1, "505": 319, "503": 405, "501": 321}, "direccion": "ANA M JANER 1551  B\u00b0PUEYRREDON"}}, {"geometry": {"type": "Point", "coordinates": [-64.17513853205182, -31.402913891552622]}, "type": "Feature", "properties": {"establecim": "ESC FRAY J A DE SAN ALBERTO", "overall_total": 1773, "fake_id": "866-872", "seccion": "1", "circuito": "0008B", "votos": {"217": 87, "512": 284, "47": 46, "191": 364, "9005": 27, "514": 100, "9006": 0, "3": 131, "9004": 12, "9003": 10, "505": 219, "503": 294, "501": 199}, "direccion": "ESQUIU 1340 B\u00b0PUEYRREDON"}}, {"geometry": {"type": "Point", "coordinates": [-64.16397867989649, -31.399588357995118]}, "type": "Feature", "properties": {"establecim": "ESC ROBLES", "overall_total": 3141, "fake_id": "901-912", "seccion": "1", "circuito": "0008B", "votos": {"217": 126, "512": 520, "47": 78, "191": 613, "9005": 60, "514": 155, "9006": 0, "3": 257, "9004": 29, "9003": 6, "505": 424, "503": 483, "501": 390}, "direccion": "PADRE LUIS MONTI 1850  B\u00b0PUEYRREDON"}}, {"geometry": {"type": "Point", "coordinates": [-64.16458511500123, -31.401150605871308]}, "type": "Feature", "properties": {"establecim": "INST OBISPO CAIXAL", "overall_total": 2070, "fake_id": "873-880", "seccion": "1", "circuito": "0008B", "votos": {"217": 83, "512": 301, "47": 67, "191": 478, "9005": 45, "514": 88, "9006": 0, "3": 159, "9004": 26, "9003": 0, "505": 264, "503": 319, "501": 240}, "direccion": "ANA M JANER 1250  B\u00b0PUEYRREDON"}}, {"geometry": {"type": "Point", "coordinates": [-64.16360540865777, -31.402340396606405]}, "type": "Feature", "properties": {"establecim": "INST SAGRADA FAMILIA", "overall_total": 2308, "fake_id": "913-922", "seccion": "1", "circuito": "0008B", "votos": {"217": 109, "512": 351, "47": 70, "191": 490, "9005": 44, "514": 111, "9006": 0, "3": 159, "9004": 18, "9003": 0, "505": 316, "503": 341, "501": 299}, "direccion": "BUCHARDO 1729 B\u00b0  PUEYRREDON"}}, {"geometry": {"type": "Point", "coordinates": [-64.1674254899678, -31.403140902836626]}, "type": "Feature", "properties": {"establecim": "INST SAGRADO CORAZON", "overall_total": 2572, "fake_id": "891-900", "seccion": "1", "circuito": "0008B", "votos": {"217": 113, "512": 371, "47": 76, "191": 539, "9005": 51, "514": 134, "9006": 1, "3": 210, "9004": 28, "9003": 4, "505": 346, "503": 401, "501": 298}, "direccion": "ROMA 1153 B\u00b0PUEYRREDON"}}, {"geometry": {"type": "Point", "coordinates": [-64.13764259081479, -31.392374492260195]}, "type": "Feature", "properties": {"establecim": "ESC ALMIRANTE BROWN", "overall_total": 3417, "fake_id": "935-947", "seccion": "1", "circuito": "0008C", "votos": {"217": 114, "512": 507, "47": 119, "191": 714, "9005": 91, "514": 172, "9006": 2, "3": 296, "9004": 43, "9003": 1, "505": 412, "503": 511, "501": 435}, "direccion": "SAN MARTIN S/N\u00b0 B\u00b0 YOFRE SUD"}}, {"geometry": {"type": "Point", "coordinates": [-64.13738895328287, -31.395040812589894]}, "type": "Feature", "properties": {"establecim": "ESC TRINIDAD MORENO", "overall_total": 3189, "fake_id": "923-934", "seccion": "1", "circuito": "0008C", "votos": {"217": 116, "512": 484, "47": 100, "191": 656, "9005": 87, "514": 154, "9006": 3, "3": 272, "9004": 42, "9003": 21, "505": 409, "503": 455, "501": 390}, "direccion": "E SAN MARTIN 1251 B\u00b0YOFRE  SUD"}}, {"geometry": {"type": "Point", "coordinates": [-63.24835746844768, -32.43693243881911]}, "type": "Feature", "properties": {"establecim": "ESC.BME.MITRE", "overall_total": 2303, "fake_id": "4251-4258", "seccion": "6", "circuito": "00090", "votos": {"217": 45, "512": 525, "47": 31, "191": 347, "9005": 24, "514": 48, "9006": 1, "3": 27, "9004": 36, "9003": 0, "505": 65, "503": 244, "501": 910}, "direccion": "MITRE 1147"}}, {"geometry": {"type": "Point", "coordinates": [-63.250582233245524, -32.43688806803237]}, "type": "Feature", "properties": {"establecim": "ESC.REP.DE BOLIVIA", "overall_total": 499, "fake_id": "4293-4296", "seccion": "6", "circuito": "00090", "votos": {"217": 11, "512": 47, "47": 4, "191": 77, "9005": 10, "514": 4, "9006": 0, "3": 6, "9004": 10, "9003": 0, "505": 11, "503": 72, "501": 247}, "direccion": "D.FUNES 1250"}}, {"geometry": {"type": "Point", "coordinates": [-63.24606996238263, -32.43613192984504]}, "type": "Feature", "properties": {"establecim": "INSTITUTO INMAC.CONCEPCION", "overall_total": 3616, "fake_id": "4269-4281", "seccion": "6", "circuito": "00090", "votos": {"217": 101, "512": 881, "47": 25, "191": 520, "9005": 49, "514": 63, "9006": 0, "3": 41, "9004": 42, "9003": 1, "505": 91, "503": 350, "501": 1452}, "direccion": "CABANILLAS 400"}}, {"geometry": {"type": "Point", "coordinates": [-64.20659939999994, -30.595175099999974]}, "type": "Feature", "properties": {"establecim": "ESC.PROV.FRAY M. ESQUIU", "overall_total": 361, "fake_id": "4297-4298", "seccion": "7", "circuito": "00091", "votos": {"217": 0, "512": 178, "47": 0, "191": 144, "9005": 6, "514": 2, "9006": 1, "3": 1, "9004": 4, "9003": 0, "505": 2, "503": 6, "501": 17}, "direccion": "PUBLICA S/N"}}, {"geometry": {"type": "Point", "coordinates": [-64.55737205639993, -30.615762728099988]}, "type": "Feature", "properties": {"establecim": "ESC.PROV.R. DE NICARAGUA", "overall_total": 254, "fake_id": "4304-4304", "seccion": "7", "circuito": "00093", "votos": {"217": 0, "512": 183, "47": 0, "191": 58, "9005": 0, "514": 2, "9006": 0, "3": 0, "9004": 0, "9003": 0, "505": 1, "503": 1, "501": 9}, "direccion": "COPACABANA"}}, {"geometry": {"type": "Point", "coordinates": [-64.6662511129, -30.469242164100017]}, "type": "Feature", "properties": {"establecim": "ESC PROV GRAL M GUEMES", "overall_total": 493, "fake_id": "4305-4306", "seccion": "7", "circuito": "00094", "votos": {"217": 3, "512": 270, "47": 1, "191": 178, "9005": 2, "514": 1, "9006": 0, "3": 0, "9004": 6, "9003": 5, "505": 5, "503": 7, "501": 15}, "direccion": "PUBLICA S/N"}}, {"geometry": {"type": "Point", "coordinates": [-64.34243799193925, -30.429313454052565]}, "type": "Feature", "properties": {"establecim": "ESC.A.M.SOBRAL", "overall_total": 2521, "fake_id": "4347-4355", "seccion": "7", "circuito": "00095", "votos": {"217": 35, "512": 913, "47": 17, "191": 954, "9005": 33, "514": 22, "9006": 1, "3": 56, "9004": 45, "9003": 0, "505": 60, "503": 124, "501": 261}, "direccion": "SANTIAGO DEL ESTERO Y LAS  HERAS 0"}}, {"geometry": {"type": "Point", "coordinates": [-64.3484045381451, -30.412754057512505]}, "type": "Feature", "properties": {"establecim": "ESC.AMANDA SUAREZ CORDOBA", "overall_total": 855, "fake_id": "4356-4358", "seccion": "7", "circuito": "00095", "votos": {"217": 17, "512": 289, "47": 12, "191": 321, "9005": 14, "514": 10, "9006": 0, "3": 16, "9004": 15, "9003": 0, "505": 22, "503": 47, "501": 92}, "direccion": "SANTA ROSA ESQ. AMADEO  SABATTINI 0"}}, {"geometry": {"type": "Point", "coordinates": [-64.36233725145702, -30.414813764432484]}, "type": "Feature", "properties": {"establecim": "ESC.M.J.G.DE BELGRANO", "overall_total": 2707, "fake_id": "4316-4325", "seccion": "7", "circuito": "00095", "votos": {"217": 24, "512": 940, "47": 17, "191": 1054, "9005": 65, "514": 39, "9006": 1, "3": 51, "9004": 24, "9003": 0, "505": 68, "503": 151, "501": 273}, "direccion": "JERONIMO L DE CABRERA L  ALGARROBO 451"}}, {"geometry": {"type": "Point", "coordinates": [-64.35575509561767, -30.423730280605582]}, "type": "Feature", "properties": {"establecim": "ESC.PEDRO N.ARIAS", "overall_total": 3039, "fake_id": "4326-4336", "seccion": "7", "circuito": "00095", "votos": {"217": 28, "512": 1098, "47": 27, "191": 1147, "9005": 39, "514": 47, "9006": 1, "3": 65, "9004": 44, "9003": 0, "505": 70, "503": 160, "501": 313}, "direccion": "CORDOBA 87"}}, {"geometry": {"type": "Point", "coordinates": [-64.34954777941618, -30.42784394664007]}, "type": "Feature", "properties": {"establecim": "ESC.PROV. M.MORENO", "overall_total": 2734, "fake_id": "4337-4346", "seccion": "7", "circuito": "00095", "votos": {"217": 48, "512": 988, "47": 28, "191": 992, "9005": 46, "514": 36, "9006": 0, "3": 43, "9004": 45, "9003": 0, "505": 65, "503": 160, "501": 283}, "direccion": "DORREGO OBRAS SANITARIA  326"}}, {"geometry": {"type": "Point", "coordinates": [-64.34912350719446, -30.42000853920329]}, "type": "Feature", "properties": {"establecim": "ESC.PROV.GRAL SAN MARTIN", "overall_total": 2490, "fake_id": "4307-4315", "seccion": "7", "circuito": "00095", "votos": {"217": 24, "512": 894, "47": 24, "191": 915, "9005": 47, "514": 26, "9006": 0, "3": 47, "9004": 27, "9003": 0, "505": 72, "503": 140, "501": 274}, "direccion": "DEAN FUNES"}}, {"geometry": {"type": "Point", "coordinates": [-64.36537157019998, -30.580031133800002]}, "type": "Feature", "properties": {"establecim": "ESCUELA FERNANDO FADER", "overall_total": 58, "fake_id": "4361-4361", "seccion": "7", "circuito": "00097", "votos": {"217": 0, "512": 16, "47": 0, "191": 34, "9005": 0, "514": 1, "9006": 0, "3": 0, "9004": 0, "9003": 0, "505": 1, "503": 2, "501": 4}, "direccion": "PUBLICA S/N"}}, {"geometry": {"type": "Point", "coordinates": [-64.53872684400002, -30.409496724900013]}, "type": "Feature", "properties": {"establecim": "ESCUELA FRAY GUILLERMO BUTLER", "overall_total": 49, "fake_id": "4362-4362", "seccion": "7", "circuito": "00098", "votos": {"217": 0, "512": 17, "47": 0, "191": 14, "9005": 2, "514": 0, "9006": 0, "3": 0, "9004": 2, "9003": 0, "505": 0, "503": 2, "501": 12}, "direccion": "PUBLICA S/N"}}, {"geometry": {"type": "Point", "coordinates": [-64.4946300001302, -30.217119996370027]}, "type": "Feature", "properties": {"establecim": "ESC.CIUDAD DE BS.AIRES", "overall_total": 1573, "fake_id": "4363-4368", "seccion": "7", "circuito": "00099", "votos": {"217": 25, "512": 407, "47": 7, "191": 876, "9005": 23, "514": 20, "9006": 1, "3": 13, "9004": 26, "9003": 0, "505": 28, "503": 73, "501": 74}, "direccion": "QUILINO ESTACION"}}, {"geometry": {"type": "Point", "coordinates": [-64.4946300001302, -30.217119996370027]}, "type": "Feature", "properties": {"establecim": "ESC.PROV.M.BELGRANO", "overall_total": 1537, "fake_id": "4369-4374", "seccion": "7", "circuito": "00099", "votos": {"217": 8, "512": 472, "47": 4, "191": 807, "9005": 21, "514": 17, "9006": 0, "3": 11, "9004": 28, "9003": 9, "505": 19, "503": 66, "501": 75}, "direccion": "QUILINO ESTACION"}}, {"geometry": {"type": "Point", "coordinates": [-64.20933815820462, -31.37417363143953]}, "type": "Feature", "properties": {"establecim": "COL PQUIAL C NAMUNCURA", "overall_total": 2143, "fake_id": "973-980", "seccion": "1", "circuito": "0009A", "votos": {"217": 114, "512": 291, "47": 70, "191": 472, "9005": 21, "514": 107, "9006": 0, "3": 105, "9004": 19, "9003": 5, "505": 259, "503": 356, "501": 324}, "direccion": "CIUDAD DEL BARCO 3315 LA  FRANC"}}, {"geometry": {"type": "Point", "coordinates": [-64.20784329076528, -31.3743149937587]}, "type": "Feature", "properties": {"establecim": "ESC MAHATMA GANDHI", "overall_total": 1591, "fake_id": "966-972", "seccion": "1", "circuito": "0009A", "votos": {"217": 62, "512": 203, "47": 46, "191": 352, "9005": 32, "514": 87, "9006": 0, "3": 81, "9004": 9, "9003": 0, "505": 217, "503": 303, "501": 199}, "direccion": "TALAVERA DE MADRID 3261  B\u00b0LA FRANCE"}}, {"geometry": {"type": "Point", "coordinates": [-64.21225116900388, -31.376901123513772]}, "type": "Feature", "properties": {"establecim": "ESC CONGRESO DE TUCUMAN", "overall_total": 1587, "fake_id": "989-994", "seccion": "1", "circuito": "0009B", "votos": {"217": 83, "512": 193, "47": 68, "191": 395, "9005": 16, "514": 63, "9006": 4, "3": 53, "9004": 8, "9003": 0, "505": 203, "503": 312, "501": 189}, "direccion": "MALVINO 2772 B\u00b0LAS  MARGARITAS"}}, {"geometry": {"type": "Point", "coordinates": [-64.22090906795206, -31.371739340709063]}, "type": "Feature", "properties": {"establecim": "ESC MIGUEL RODRIGUEZ DE LA TOR", "overall_total": 2643, "fake_id": "995-1004", "seccion": "1", "circuito": "0009B", "votos": {"217": 143, "512": 287, "47": 89, "191": 633, "9005": 37, "514": 109, "9006": 0, "3": 140, "9004": 12, "9003": 0, "505": 323, "503": 546, "501": 324}, "direccion": "LA GRANJA 3199 B\u00b0ALTO VERDE"}}, {"geometry": {"type": "Point", "coordinates": [-64.22227008347136, -31.38286605600441]}, "type": "Feature", "properties": {"establecim": "ESC RICARDO ROJAS", "overall_total": 2118, "fake_id": "981-988", "seccion": "1", "circuito": "0009B", "votos": {"217": 139, "512": 234, "47": 78, "191": 484, "9005": 20, "514": 104, "9006": 1, "3": 92, "9004": 12, "9003": 0, "505": 282, "503": 378, "501": 294}, "direccion": "J.LOPEZ 2050 B\u00b0ALTOS DE V  CABRER"}}, {"geometry": {"type": "Point", "coordinates": [-64.19573433223859, -31.384768877297994]}, "type": "Feature", "properties": {"establecim": "COLEGIO FERMIN LAFITTE", "overall_total": 2621, "fake_id": "1015-1024", "seccion": "1", "circuito": "0009C", "votos": {"217": 87, "512": 365, "47": 107, "191": 506, "9005": 76, "514": 175, "9006": 0, "3": 217, "9004": 17, "9003": 0, "505": 349, "503": 382, "501": 340}, "direccion": "FCO VALLE 2443 B\u00b0LOS  PARAISOS"}}, {"geometry": {"type": "Point", "coordinates": [-64.20028692852867, -31.37753461349482]}, "type": "Feature", "properties": {"establecim": "ESC DE COMERCIO J J PASO", "overall_total": 2581, "fake_id": "1005-1014", "seccion": "1", "circuito": "0009C", "votos": {"217": 90, "512": 414, "47": 77, "191": 482, "9005": 64, "514": 188, "9006": 1, "3": 203, "9004": 20, "9003": 0, "505": 301, "503": 404, "501": 337}, "direccion": "PLATON 3030 B\u00b0LOS PARAISO"}}, {"geometry": {"type": "Point", "coordinates": [-64.20164113486338, -31.37662112353137]}, "type": "Feature", "properties": {"establecim": "ESC JUVENILIA", "overall_total": 1820, "fake_id": "1025-1031", "seccion": "1", "circuito": "0009C", "votos": {"217": 63, "512": 317, "47": 55, "191": 362, "9005": 37, "514": 120, "9006": 5, "3": 117, "9004": 15, "9003": 0, "505": 243, "503": 256, "501": 230}, "direccion": "ZARATE 2083 - B\u00b0 ZUMARAN"}}, {"geometry": {"type": "Point", "coordinates": [-64.20352625218429, -31.37454499411237]}, "type": "Feature", "properties": {"establecim": "ESC PCIA DE MISIONES", "overall_total": 3643, "fake_id": "1032-1045", "seccion": "1", "circuito": "0009C", "votos": {"217": 164, "512": 568, "47": 96, "191": 744, "9005": 71, "514": 210, "9006": 1, "3": 289, "9004": 30, "9003": 1, "505": 443, "503": 551, "501": 475}, "direccion": "FIRPO 2254 B\u00b0 ZUMAR"}}, {"geometry": {"type": "Point", "coordinates": [-64.20799328536022, -31.36251969946518]}, "type": "Feature", "properties": {"establecim": "COL EL SALVADOR", "overall_total": 2222, "fake_id": "1046-1053", "seccion": "1", "circuito": "0009D", "votos": {"217": 125, "512": 230, "47": 72, "191": 493, "9005": 34, "514": 115, "9006": 1, "3": 124, "9004": 14, "9003": 0, "505": 299, "503": 456, "501": 259}, "direccion": "RAUL CASARIEGO 4479 B\u00b0P  LUGONES"}}, {"geometry": {"type": "Point", "coordinates": [-64.21078537189865, -31.362607832492532]}, "type": "Feature", "properties": {"establecim": "ESC LEOPOLDO LUGONES", "overall_total": 2764, "fake_id": "1054-1063", "seccion": "1", "circuito": "0009D", "votos": {"217": 141, "512": 313, "47": 97, "191": 639, "9005": 43, "514": 122, "9006": 0, "3": 154, "9004": 23, "9003": 0, "505": 366, "503": 553, "501": 313}, "direccion": "LESPADA Y GALVEZ B\u00b0POETA  LUGONES"}}, {"geometry": {"type": "Point", "coordinates": [-64.21690006019959, -31.35915003040722]},